Step,MPC_Start_Time,Control_Time,Actual_Time_Interval,CONTROL_DT,Mission_Phase,Waypoint_Number,Telemetry_X_mm,Telemetry_Y_mm,Telemetry_Z_mm,Telemetry_Roll_deg,Telemetry_Pitch_deg,Telemetry_Yaw_deg,Current_X,Current_Y,Current_Z,Current_Roll,Current_Pitch,Current_Yaw,Current_VX,Current_VY,Current_VZ,Current_WX,Current_WY,Current_WZ,Target_X,Target_Y,Target_Z,Target_Roll,Target_Pitch,Target_Yaw,Target_VX,Target_VY,Target_VZ,Target_WX,Target_WY,Target_WZ,Error_X,Error_Y,Error_Z,Error_Roll,Error_Pitch,Error_Yaw,Error_VX,Error_VY,Error_VZ,Error_WX,Error_WY,Error_WZ,MPC_Computation_Time,MPC_Status,MPC_Solver,MPC_Solver_Time_Limit,MPC_Solve_Time,MPC_Time_Limit_Exceeded,MPC_Fallback_Used,MPC_Objective,MPC_Iterations,MPC_Optimality_Gap,Command_Vector,Command_Hex,Command_Sent_Time,Total_Active_Thrusters,Thruster_Switches,RW_Torque_X,RW_Torque_Y,RW_Torque_Z,Total_MPC_Loop_Time,Timing_Violation
0,0.0450,0.0450,0.0500,0.050,APPROACHING,0,1000.00,1000.00,1000.00,0.00,0.00,90.00,1.00000,1.00000,1.00000,0.00000,0.00000,1.57080,0.00000,0.00000,0.00000,0.00000,0.00000,0.00000,0.00000,0.00000,0.00000,0.00000,0.00000,0.00000,0.00000,0.00000,0.00000,0.00000,0.00000,0.00000,1.00000,1.00000,1.00000,0.00000,0.00000,-1.57080,0.00000,0.00000,0.00000,0.00000,0.00000,0.00000,0.0000,,,,0.0392,,,,,,"[1.000, 0.000, 0.000, 1.000, 1.000, 0.000]",0x100110,0.0450,3,0,-0.005276,0.005276,0.029886,0.0000,NO
1,0.0950,0.0950,0.0500,0.050,APPROACHING,0,999.94,999.94,999.94,-0.00,0.00,90.03,0.99994,0.99994,0.99994,-0.00008,0.00008,1.57124,-0.00250,-0.00250,-0.00250,-0.00314,0.00314,0.01777,0.00000,0.00000,0.00000,0.00000,0.00000,0.00000,0.00000,0.00000,0.00000,0.00000,0.00000,0.00000,0.99994,0.99994,0.99994,0.00008,-0.00008,-1.57124,0.00250,0.00250,0.00250,0.00314,-0.00314,-0.01777,0.0000,,,,0.0140,,,,,,"[0.998, 0.002, 0.002, 0.998, 0.998, 0.002]",0x100110,0.0950,3,0,-0.014693,0.014691,0.083217,0.0000,NO
2,0.1450,0.1450,0.0500,0.050,APPROACHING,0,999.75,999.75,999.75,-0.03,0.03,90.15,0.99975,0.99975,0.99975,-0.00045,0.00045,1.57337,-0.00500,-0.00500,-0.00500,-0.01187,0.01187,0.06724,0.00000,0.00000,0.00000,0.00000,0.00000,0.00000,0.00000,0.00000,0.00000,0.00000,0.00000,0.00000,0.99975,0.99975,0.99975,0.00045,-0.00045,-1.57337,0.00500,0.00500,0.00500,0.01187,-0.01187,-0.06724,0.0000,,,,0.0154,,,,,,"[0.998, 0.002, 0.002, 0.998, 0.998, 0.002]",0x100110,0.1450,3,0,-0.040921,0.040902,0.231728,0.0000,NO
3,0.1950,0.1950,0.0500,0.050,APPROACHING,0,999.44,999.44,999.44,-0.09,0.10,90.54,0.99944,0.99944,0.99944,-0.00165,0.00166,1.58017,-0.00748,-0.00752,-0.00750,-0.03620,0.03619,0.20501,0.00000,0.00000,0.00000,0.00000,0.00000,0.00000,0.00000,0.00000,0.00000,0.00000,0.00000,0.00000,0.99944,0.99944,0.99944,0.00165,-0.00166,-1.58017,0.00748,0.00752,0.00750,0.03620,-0.03619,-0.20501,0.0000,,,,0.0152,,,,,,"[0.998, 0.002, 0.002, 0.998, 0.998, 0.002]",0x100110,0.1950,3,0,-0.113969,0.113882,0.645289,0.0000,NO
4,0.2450,0.2450,0.0500,0.050,APPROACHING,0,999.00,999.00,999.00,-0.29,0.30,91.67,0.99900,0.99900,0.99900,-0.00508,0.00523,1.60000,-0.00993,-0.01007,-0.01000,-0.10396,0.10390,0.58866,0.00000,0.00000,0.00000,0.00000,0.00000,0.00000,0.00000,0.00000,0.00000,0.00000,0.00000,0.00000,0.99900,0.99900,0.99900,0.00508,-0.00523,-1.60000,0.00993,0.01007,0.01000,0.10396,-0.10390,-0.58866,0.0000,,,,0.0154,,,,,,"[0.998, 0.002, 0.002, 0.998, 0.998, 0.002]",0x100110,0.2450,3,0,-0.317424,0.317074,1.796935,0.0000,NO
5,0.2950,0.2950,0.0500,0.050,APPROACHING,0,998.45,998.43,998.44,-0.83,0.90,94.88,0.99845,0.99843,0.99844,-0.01442,0.01569,1.65605,-0.01228,-0.01271,-0.01250,-0.29268,0.29241,1.65699,0.00000,0.00000,0.00000,0.00000,0.00000,0.00000,0.00000,0.00000,0.00000,0.00000,0.00000,0.00000,0.99845,0.99843,0.99844,0.01442,-0.01569,-1.65605,0.01228,0.01271,0.01250,0.29268,-0.29241,-1.65699,0.0000,,,,0.0411,,,,,,"[0.000, 0.000, 0.000, 0.000, 0.000, 0.000]",0x000000,0.2950,0,3,0.000000,0.000000,0.000000,0.0000,NO
6,0.3450,0.3450,0.0500,0.050,APPROACHING,0,997.83,997.79,997.81,-1.55,1.84,99.61,0.99783,0.99779,0.99781,-0.02709,0.03203,1.73860,-0.01228,-0.01271,-0.01250,-0.29268,0.29241,1.65699,0.00000,0.00000,0.00000,0.00000,0.00000,0.00000,0.00000,0.00000,0.00000,0.00000,0.00000,0.00000,0.99783,0.99779,0.99781,0.02709,-0.03203,-1.73860,0.01228,0.01271,0.01250,0.29268,-0.29241,-1.65699,0.0000,,,,0.0076,,,,,,"[1.000, 0.000, 0.000, 1.000, 1.000, 0.000]",0x100110,0.3450,3,3,-0.884530,0.882808,1.999976,0.0000,NO
7,0.3950,0.3950,0.0500,0.050,APPROACHING,0,997.17,997.08,997.13,-2.84,3.67,106.01,0.99717,0.99708,0.99713,-0.04961,0.06403,1.85015,-0.01408,-0.01577,-0.01497,-0.81725,0.81857,2.84604,0.00000,0.00000,0.00000,0.00000,0.00000,0.00000,0.00000,0.00000,0.00000,0.00000,0.00000,0.00000,0.99717,0.99708,0.99713,0.04961,-0.06403,-1.85015,0.01408,0.01577,0.01497,0.81725,-0.81857,-2.84604,0.0000,,,,0.0074,,,,,,"[1.000, 0.000, 0.000, 1.000, 1.000, 0.000]",0x100110,0.3950,3,0,-2.000000,2.000000,2.000000,0.0000,NO
8,0.4450,0.4450,0.0500,0.050,APPROACHING,0,996.43,996.21,996.32,-5.91,8.45,115.57,0.99643,0.99621,0.99632,-0.10308,0.14743,2.01716,-0.01531,-0.01914,-0.01739,-2.00026,2.01363,4.03510,0.00000,0.00000,0.00000,0.00000,0.00000,0.00000,0.00000,0.00000,0.00000,0.00000,0.00000,0.00000,0.99643,0.99621,0.99632,0.10308,-0.14743,-2.01716,0.01531,0.01914,0.01739,2.00026,-2.01363,-4.03510,0.0000,,,,0.0118,,,,,,"[1.000, 0.000, 0.000, 1.000, 1.000, 0.000]",0x100110,0.4450,3,0,-2.000000,2.000000,2.000000,0.0000,NO
9,0.4950,0.4950,0.0500,0.050,APPROACHING,0,995.66,995.16,995.39,-10.58,17.75,127.93,0.99566,0.99516,0.99539,-0.18472,0.30987,2.23285,-0.01557,-0.02282,-0.01962,-3.18327,3.20870,5.22416,0.00000,0.00000,0.00000,0.00000,0.00000,0.00000,0.00000,0.00000,0.00000,0.00000,0.00000,0.00000,0.99566,0.99516,0.99539,0.18472,-0.30987,-2.23285,0.01557,0.02282,0.01962,3.18327,-3.20870,-5.22416,0.0000,,,,0.0173,,,,,,"[0.000, 1.000, 0.000, 1.000, 1.000, 0.000]",0x010110,0.4950,3,2,-2.000000,2.000000,2.000000,0.0000,NO
10,0.5450,0.5450,0.0500,0.050,APPROACHING,0,994.82,994.01,994.32,-15.04,32.13,143.14,0.99482,0.99401,0.99432,-0.26251,0.56071,2.49833,-0.01766,-0.02336,-0.02335,-4.36629,4.40378,6.41320,0.00000,0.00000,0.00000,0.00000,0.00000,0.00000,0.00000,0.00000,0.00000,0.00000,0.00000,0.00000,0.99482,0.99401,0.99432,0.26251,-0.56071,-2.49833,0.01766,0.02336,0.02335,4.36629,-4.40378,-6.41320,0.0000,,,,0.0243,,,,,,"[0.000, 1.000, 0.000, 1.000, 1.000, 0.000]",0x010110,0.5450,3,0,-2.000000,2.000000,2.000000,0.0000,NO
11,0.5950,0.5950,0.0500,0.050,APPROACHING,0,993.91,992.81,993.05,-15.32,51.40,164.00,0.99391,0.99281,0.99305,-0.26743,0.89702,2.86230,-0.01837,-0.02488,-0.02730,-5.54931,5.59887,7.60224,0.00000,0.00000,0.00000,0.00000,0.00000,0.00000,0.00000,0.00000,0.00000,0.00000,0.00000,0.00000,0.99391,0.99281,0.99305,0.26743,-0.89702,-2.86230,0.01837,0.02488,0.02730,5.54931,-5.59887,-7.60224,0.0000,,,,0.0315,,,,,,"[0.000, 1.000, 0.000, 1.000, 0.000, 1.000]",0x010101,0.5950,3,2,-2.000000,2.000000,2.000000,0.0000,NO
12,0.6450,0.6450,0.0500,0.050,APPROACHING,0,992.91,991.50,991.66,10.37,71.72,-147.64,0.99291,0.99150,0.99166,0.18107,1.25171,-2.57677,-0.02134,-0.02772,-0.02849,-6.73235,6.79396,8.79126,0.00000,0.00000,0.00000,0.00000,0.00000,0.00000,0.00000,0.00000,0.00000,0.00000,0.00000,0.00000,0.99291,0.99150,0.99166,-0.18107,-1.25171,2.57677,0.02134,0.02772,0.02849,6.73235,-6.79396,-8.79126,0.0000,,,,0.0397,,,,,,"[0.000, 1.000, 0.000, 1.000, 0.000, 1.000]",0x010101,0.6450,3,0,-2.000000,2.000000,2.000000,0.0000,NO
13,0.6950,0.6950,0.0500,0.050,APPROACHING,0,991.82,990.02,990.20,83.75,63.72,-48.34,0.99182,0.99002,0.99020,1.46173,1.11216,-0.84364,-0.02211,-0.03167,-0.02986,-7.91538,7.98905,9.98026,0.00000,0.00000,0.00000,0.00000,0.00000,0.00000,0.00000,0.00000,0.00000,0.00000,0.00000,0.00000,0.99182,0.99002,0.99020,-1.46173,-1.11216,0.84364,0.02211,0.03167,0.02986,7.91538,-7.98905,-9.98026,0.0000,,,,0.0416,,,,,,"[0.000, 0.000, 0.000, 0.000, 0.000, 0.000]",0x000000,0.6950,0,3,0.000000,0.000000,0.000000,0.0000,NO
14,0.7450,0.7450,0.0500,0.050,APPROACHING,0,990.71,988.44,988.71,90.00,35.29,-10.96,0.99071,0.98844,0.98871,1.57072,0.61585,-0.19137,-0.02211,-0.03167,-0.02986,-7.91538,7.98905,9.98026,0.00000,0.00000,0.00000,0.00000,0.00000,0.00000,0.00000,0.00000,0.00000,0.00000,0.00000,0.00000,0.99071,0.98844,0.98871,-1.57072,-0.61585,0.19137,0.02211,0.03167,0.02986,7.91538,-7.98905,-9.98026,0.0000,,,,0.0052,,,,,,"[1.000, 0.000, 1.000, 0.000, 0.000, 1.000]",0x101001,0.7450,3,3,-2.000000,2.000000,2.000000,0.0000,NO
15,0.7950,0.7950,0.0500,0.050,APPROACHING,0,989.52,986.79,987.19,76.05,7.75,18.73,0.98952,0.98679,0.98719,1.32735,0.13521,0.32695,-0.02513,-0.03442,-0.03097,-9.09842,9.18416,11.16926,0.00000,0.00000,0.00000,0.00000,0.00000,0.00000,0.00000,0.00000,0.00000,0.00000,0.00000,0.00000,0.98952,0.98679,0.98719,-1.32735,-0.13521,-0.32695,0.02513,0.03442,0.03097,9.09842,-9.18416,-11.16926,0.0000,,,,0.0415,,,,,,"[0.000, 0.000, 0.000, 0.000, 0.000, 0.000]",0x000000,0.7950,0,3,0.000000,0.000000,0.000000,0.0000,NO
16,0.8450,0.8450,0.0500,0.050,APPROACHING,0,988.26,985.07,985.64,48.45,-8.78,56.44,0.98826,0.98507,0.98564,0.84556,-0.15318,0.98514,-0.02513,-0.03442,-0.03097,-9.09842,9.18416,11.16926,0.00000,0.00000,0.00000,0.00000,0.00000,0.00000,0.00000,0.00000,0.00000,0.00000,0.00000,0.00000,0.98826,0.98507,0.98564,-0.84556,0.15318,-0.98514,0.02513,0.03442,0.03097,9.09842,-9.18416,-11.16926,0.0000,,,,0.0191,,,,,,"[1.000, 0.000, 1.000, 0.000, 1.000, 0.000]",0x101010,0.8450,3,3,-2.000000,2.000000,2.000000,0.0000,NO
17,0.8950,0.8950,0.0500,0.050,APPROACHING,0,987.00,983.30,984.00,14.83,-2.38,99.56,0.98700,0.98330,0.98400,0.25889,-0.04153,1.73771,-0.02488,-0.03636,-0.03470,-10.28147,10.37927,12.35825,0.00000,0.00000,0.00000,0.00000,0.00000,0.00000,0.00000,0.00000,0.00000,0.00000,0.00000,0.00000,0.98700,0.98330,0.98400,-0.25889,0.04153,-1.73771,0.02488,0.03636,0.03470,10.28147,-10.37927,-12.35825,0.0000,,,,0.0416,,,,,,"[0.000, 0.000, 0.000, 0.000, 0.000, 0.000]",0x000000,0.8950,0,3,0.000000,0.000000,0.000000,0.0000,NO
18,0.9450,0.9450,0.0500,0.050,APPROACHING,0,985.76,981.49,982.26,-8.22,25.96,136.64,0.98576,0.98149,0.98226,-0.14345,0.45316,2.38479,-0.02488,-0.03636,-0.03470,-10.28147,10.37927,12.35825,0.00000,0.00000,0.00000,0.00000,0.00000,0.00000,0.00000,0.00000,0.00000,0.00000,0.00000,0.00000,0.98576,0.98149,0.98226,0.14345,-0.45316,-2.38479,0.02488,0.03636,0.03470,10.28147,-10.37927,-12.35825,0.0000,,,,0.0364,,,,,,"[0.000, 1.000, 0.000, 1.000, 1.000, 0.000]",0x010110,0.9450,3,3,-2.000000,2.000000,2.000000,0.0000,NO
19,0.9950,0.9950,0.0500,0.050,APPROACHING,0,984.48,979.63,980.43,-6.50,63.98,-177.77,0.98448,0.97963,0.98043,-0.11344,1.11671,-3.10274,-0.02553,-0.03801,-0.03848,-11.46452,11.57438,13.54722,0.00000,0.00000,0.00000,0.00000,0.00000,0.00000,0.00000,0.00000,0.00000,0.00000,0.00000,0.00000,0.98448,0.97963,0.98043,0.11344,-1.11671,3.10274,0.02553,0.03801,0.03848,11.46452,-11.57438,-13.54722,0.0000,,,,0.0416,,,,,,"[0.000, 0.000, 0.000, 0.000, 0.000, 0.000]",0x000000,0.9950,0,3,0.000000,0.000000,0.000000,0.0000,NO
20,1.0450,1.0450,0.0500,0.050,APPROACHING,0,983.20,977.73,978.51,89.69,61.51,-41.58,0.98320,0.97773,0.97851,1.56531,1.07364,-0.72566,-0.02553,-0.03801,-0.03848,-11.46452,11.57438,13.54722,0.00000,0.00000,0.00000,0.00000,0.00000,0.00000,0.00000,0.00000,0.00000,0.00000,0.00000,0.00000,0.98320,0.97773,0.97851,-1.56531,-1.07364,0.72566,0.02553,0.03801,0.03848,11.46452,-11.57438,-13.54722,0.0000,,,,0.0415,,,,,,"[0.000, 0.000, 0.000, 0.000, 0.000, 0.000]",0x000000,1.0450,0,0,0.000000,0.000000,0.000000,0.0000,NO
21,1.0950,1.0950,0.0500,0.050,APPROACHING,0,981.93,975.83,976.58,87.01,21.67,3.26,0.98193,0.97583,0.97658,1.51861,0.37827,0.05690,-0.02553,-0.03801,-0.03848,-11.46452,11.57438,13.54722,0.00000,0.00000,0.00000,0.00000,0.00000,0.00000,0.00000,0.00000,0.00000,0.00000,0.00000,0.00000,0.98193,0.97583,0.97658,-1.51861,-0.37827,-0.05690,0.02553,0.03801,0.03848,11.46452,-11.57438,-13.54722,0.0000,,,,0.0161,,,,,,"[1.000, 0.000, 1.000, 0.000, 0.000, 1.000]",0x101001,1.0950,3,3,-2.000000,2.000000,2.000000,0.0000,NO
22,1.1450,1.1450,0.0500,0.050,APPROACHING,0,980.60,973.85,974.62,56.10,-6.79,48.33,0.98060,0.97385,0.97462,0.97919,-0.11853,0.84351,-0.02686,-0.04167,-0.03989,-12.64758,12.76950,14.73618,0.00000,0.00000,0.00000,0.00000,0.00000,0.00000,0.00000,0.00000,0.00000,0.00000,0.00000,0.00000,0.98060,0.97385,0.97462,-0.97919,0.11853,-0.84351,0.02686,0.04167,0.03989,12.64758,-12.76950,-14.73618,0.0000,,,,0.0416,,,,,,"[0.000, 0.000, 0.000, 0.000, 0.000, 0.000]",0x000000,1.1450,0,3,0.000000,0.000000,0.000000,0.0000,NO
23,1.1950,1.1950,0.0500,0.050,APPROACHING,0,979.26,971.76,972.63,13.13,-0.28,102.92,0.97926,0.97176,0.97263,0.22909,-0.00482,1.79636,-0.02686,-0.04167,-0.03989,-12.64758,12.76950,14.73618,0.00000,0.00000,0.00000,0.00000,0.00000,0.00000,0.00000,0.00000,0.00000,0.00000,0.00000,0.00000,0.97926,0.97176,0.97263,-0.22909,0.00482,-1.79636,0.02686,0.04167,0.03989,12.64758,-12.76950,-14.73618,0.0000,,,,0.0415,,,,,,"[0.000, 0.000, 0.000, 0.000, 0.000, 0.000]",0x000000,1.1950,0,0,0.000000,0.000000,0.000000,0.0000,NO
24,1.2450,1.2450,0.0500,0.050,APPROACHING,0,977.92,969.68,970.63,-11.09,36.83,146.61,0.97792,0.96968,0.97063,-0.19360,0.64284,2.55888,-0.02686,-0.04167,-0.03989,-12.64758,12.76950,14.73618,0.00000,0.00000,0.00000,0.00000,0.00000,0.00000,0.00000,0.00000,0.00000,0.00000,0.00000,0.00000,0.97792,0.96968,0.97063,0.19360,-0.64284,-2.55888,0.02686,0.04167,0.03989,12.64758,-12.76950,-14.73618,0.0000,,,,0.0287,,,,,,"[0.000, 1.000, 0.000, 1.000, 1.000, 0.000]",0x010110,1.2450,3,3,-2.000000,2.000000,2.000000,0.0000,NO
25,1.2950,1.2950,0.0500,0.050,APPROACHING,0,976.57,967.55,968.55,40.67,75.47,-112.85,0.97657,0.96755,0.96855,0.70986,1.31719,-1.96969,-0.02613,-0.04364,-0.04342,-13.83064,13.96463,15.92513,0.00000,0.00000,0.00000,0.00000,0.00000,0.00000,0.00000,0.00000,0.00000,0.00000,0.00000,0.00000,0.97657,0.96755,0.96855,-0.70986,-1.31719,1.96969,0.02613,0.04364,0.04342,13.83064,-13.96463,-15.92513,0.0000,,,,0.0416,,,,,,"[0.000, 0.000, 0.000, 0.000, 0.000, 0.000]",0x000000,1.2950,0,3,0.000000,0.000000,0.000000,0.0000,NO
26,1.3450,1.3450,0.0500,0.050,APPROACHING,0,975.27,965.37,966.37,92.93,35.17,-9.46,0.97527,0.96537,0.96637,1.62190,0.61390,-0.16504,-0.02613,-0.04364,-0.04342,-13.83064,13.96463,15.92513,0.00000,0.00000,0.00000,0.00000,0.00000,0.00000,0.00000,0.00000,0.00000,0.00000,0.00000,0.00000,0.97527,0.96537,0.96637,-1.62190,-0.61390,0.16504,0.02613,0.04364,0.04342,13.83064,-13.96463,-15.92513,0.0000,,,,0.0415,,,,,,"[0.000, 0.000, 0.000, 0.000, 0.000, 0.000]",0x000000,1.3450,0,0,0.000000,0.000000,0.000000,0.0000,NO
27,1.3950,1.3950,0.0500,0.050,APPROACHING,0,973.96,963.18,964.20,64.17,-3.21,38.89,0.97396,0.96318,0.96420,1.11998,-0.05608,0.67880,-0.02613,-0.04364,-0.04342,-13.83064,13.96463,15.92513,0.00000,0.00000,0.00000,0.00000,0.00000,0.00000,0.00000,0.00000,0.00000,0.00000,0.00000,0.00000,0.97396,0.96318,0.96420,-1.11998,0.05608,-0.67880,0.02613,0.04364,0.04342,13.83064,-13.96463,-15.92513,0.0000,,,,0.0417,,,,,,"[0.000, 0.000, 0.000, 0.000, 0.000, 0.000]",0x000000,1.3950,0,0,0.000000,0.000000,0.000000,0.0000,NO
28,1.4450,1.4450,0.0500,0.050,APPROACHING,0,972.65,961.00,962.03,17.20,-2.57,98.30,0.97265,0.96100,0.96203,0.30025,-0.04492,1.71568,-0.02613,-0.04364,-0.04342,-13.83064,13.96463,15.92513,0.00000,0.00000,0.00000,0.00000,0.00000,0.00000,0.00000,0.00000,0.00000,0.00000,0.00000,0.00000,0.97265,0.96100,0.96203,-0.30025,0.04492,-1.71568,0.02613,0.04364,0.04342,13.83064,-13.96463,-15.92513,0.0000,,,,0.0041,,,,,,"[1.000, 0.000, 0.000, 1.000, 1.000, 0.000]",0x100110,1.4450,3,3,-2.000000,2.000000,2.000000,0.0000,NO
29,1.4950,1.4950,0.0500,0.050,APPROACHING,0,971.31,958.73,959.82,-11.36,38.49,148.10,0.97131,0.95873,0.95982,-0.19825,0.67171,2.58491,-0.02668,-0.04729,-0.04510,-15.01371,15.15977,17.11406,0.00000,0.00000,0.00000,0.00000,0.00000,0.00000,0.00000,0.00000,0.00000,0.00000,0.00000,0.00000,0.97131,0.95873,0.95982,0.19825,-0.67171,-2.58491,0.02668,0.04729,0.04510,15.01371,-15.15977,-17.11406,0.0000,,,,0.0416,,,,,,"[0.000, 0.000, 0.000, 0.000, 0.000, 0.000]",0x000000,1.4950,0,3,0.000000,0.000000,0.000000,0.0000,NO
30,1.5450,1.5450,0.0500,0.050,APPROACHING,0,969.98,956.37,957.56,68.85,73.59,-77.50,0.96998,0.95637,0.95756,1.20169,1.28443,-1.35266,-0.02668,-0.04729,-0.04510,-15.01371,15.15977,17.11406,0.00000,0.00000,0.00000,0.00000,0.00000,0.00000,0.00000,0.00000,0.00000,0.00000,0.00000,0.00000,0.96998,0.95637,0.95756,-1.20169,-1.28443,1.35266,0.02668,0.04729,0.04510,15.01371,-15.15977,-17.11406,0.0000,,,,0.0415,,,,,,"[0.000, 0.000, 0.000, 0.000, 0.000, 0.000]",0x000000,1.5450,0,0,0.000000,0.000000,0.000000,0.0000,NO
31,1.5950,1.5950,0.0500,0.050,APPROACHING,0,968.64,954.00,955.31,89.42,24.21,1.55,0.96864,0.95400,0.95531,1.56071,0.42255,0.02707,-0.02668,-0.04729,-0.04510,-15.01371,15.15977,17.11406,0.00000,0.00000,0.00000,0.00000,0.00000,0.00000,0.00000,0.00000,0.00000,0.00000,0.00000,0.00000,0.96864,0.95400,0.95531,-1.56071,-0.42255,-0.02707,0.02668,0.04729,0.04510,15.01371,-15.15977,-17.11406,0.0000,,,,0.0415,,,,,,"[0.000, 0.000, 0.000, 0.000, 0.000, 0.000]",0x000000,1.5950,0,0,0.000000,0.000000,0.000000,0.0000,NO
32,1.6450,1.6450,0.0500,0.050,APPROACHING,0,967.31,951.64,953.05,49.88,-8.54,57.64,0.96731,0.95164,0.95305,0.87050,-0.14908,1.00597,-0.02668,-0.04729,-0.04510,-15.01371,15.15977,17.11406,0.00000,0.00000,0.00000,0.00000,0.00000,0.00000,0.00000,0.00000,0.00000,0.00000,0.00000,0.00000,0.96731,0.95164,0.95305,-0.87050,0.14908,-1.00597,0.02668,0.04729,0.04510,15.01371,-15.15977,-17.11406,0.0000,,,,0.0299,,,,,,"[1.000, 0.000, 1.000, 0.000, 1.000, 0.000]",0x101010,1.6450,3,3,-2.000000,2.000000,2.000000,0.0000,NO
33,1.6950,1.6950,0.0500,0.050,APPROACHING,0,965.98,949.23,950.70,1.32,11.78,120.70,0.96598,0.94923,0.95070,0.02298,0.20563,2.10664,-0.02564,-0.04919,-0.04850,-16.19679,16.35491,18.30299,0.00000,0.00000,0.00000,0.00000,0.00000,0.00000,0.00000,0.00000,0.00000,0.00000,0.00000,0.00000,0.96598,0.94923,0.95070,-0.02298,-0.20563,-2.10664,0.02564,0.04919,0.04850,16.19679,-16.35491,-18.30299,0.0000,,,,0.0416,,,,,,"[0.000, 0.000, 0.000, 0.000, 0.000, 0.000]",0x000000,1.6950,0,3,0.000000,0.000000,0.000000,0.0000,NO
34,1.7450,1.7450,0.0500,0.050,APPROACHING,0,964.70,946.77,948.28,-5.63,65.76,-177.03,0.96470,0.94677,0.94828,-0.09827,1.14778,-3.08972,-0.02564,-0.04919,-0.04850,-16.19679,16.35491,18.30299,0.00000,0.00000,0.00000,0.00000,0.00000,0.00000,0.00000,0.00000,0.00000,0.00000,0.00000,0.00000,0.96470,0.94677,0.94828,0.09827,-1.14778,3.08972,0.02564,0.04919,0.04850,16.19679,-16.35491,-18.30299,0.0000,,,,0.0416,,,,,,"[0.000, 0.000, 0.000, 0.000, 0.000, 0.000]",0x000000,1.7450,0,0,0.000000,0.000000,0.000000,0.0000,NO
35,1.7950,1.7950,0.0500,0.050,APPROACHING,0,963.42,944.31,945.85,96.05,44.92,-18.35,0.96342,0.94431,0.94585,1.67636,0.78409,-0.32026,-0.02564,-0.04919,-0.04850,-16.19679,16.35491,18.30299,0.00000,0.00000,0.00000,0.00000,0.00000,0.00000,0.00000,0.00000,0.00000,0.00000,0.00000,0.00000,0.96342,0.94431,0.94585,-1.67636,-0.78409,0.32026,0.02564,0.04919,0.04850,16.19679,-16.35491,-18.30299,0.0000,,,,0.0415,,,,,,"[0.000, 0.000, 0.000, 0.000, 0.000, 0.000]",0x000000,1.7950,0,0,0.000000,0.000000,0.000000,0.0000,NO
36,1.8450,1.8450,0.0500,0.050,APPROACHING,0,962.13,941.85,943.43,66.48,-2.45,36.89,0.96213,0.94185,0.94343,1.16032,-0.04274,0.64380,-0.02564,-0.04919,-0.04850,-16.19679,16.35491,18.30299,0.00000,0.00000,0.00000,0.00000,0.00000,0.00000,0.00000,0.00000,0.00000,0.00000,0.00000,0.00000,0.96213,0.94185,0.94343,-1.16032,0.04274,-0.64380,0.02564,0.04919,0.04850,16.19679,-16.35491,-18.30299,0.0000,,,,0.0415,,,,,,"[0.000, 0.000, 0.000, 0.000, 0.000, 0.000]",0x000000,1.8450,0,0,0.000000,0.000000,0.000000,0.0000,NO
37,1.8950,1.8950,0.0500,0.050,APPROACHING,0,960.85,939.39,941.00,12.37,0.73,104.92,0.96085,0.93939,0.94100,0.21592,0.01281,1.83118,-0.02564,-0.04919,-0.04850,-16.19679,16.35491,18.30299,0.00000,0.00000,0.00000,0.00000,0.00000,0.00000,0.00000,0.00000,0.00000,0.00000,0.00000,0.00000,0.96085,0.93939,0.94100,-0.21592,-0.01281,-1.83118,0.02564,0.04919,0.04850,16.19679,-16.35491,-18.30299,0.0000,,,,0.0041,,,,,,"[1.000, 0.000, 0.000, 1.000, 1.000, 0.000]",0x100110,1.8950,3,3,-2.000000,2.000000,2.000000,0.0000,NO
38,1.9450,1.9450,0.0500,0.050,APPROACHING,0,959.56,936.84,938.54,-12.59,52.70,162.09,0.95956,0.93684,0.93854,-0.21972,0.91971,2.82905,-0.02531,-0.05289,-0.04989,-17.37986,17.55006,19.49190,0.00000,0.00000,0.00000,0.00000,0.00000,0.00000,0.00000,0.00000,0.00000,0.00000,0.00000,0.00000,0.95956,0.93684,0.93854,0.21972,-0.91971,-2.82905,0.02531,0.05289,0.04989,17.37986,-17.55006,-19.49190,0.0000,,,,0.0416,,,,,,"[0.000, 0.000, 0.000, 0.000, 0.000, 0.000]",0x000000,1.9450,0,3,0.000000,0.000000,0.000000,0.0000,NO
39,1.9950,1.9950,0.0500,0.050,APPROACHING,0,958.29,934.19,936.04,96.29,54.61,-28.54,0.95829,0.93419,0.93604,1.68053,0.95306,-0.49807,-0.02531,-0.05289,-0.04989,-17.37986,17.55006,19.49190,0.00000,0.00000,0.00000,0.00000,0.00000,0.00000,0.00000,0.00000,0.00000,0.00000,0.00000,0.00000,0.95829,0.93419,0.93604,-1.68053,-0.95306,0.49807,0.02531,0.05289,0.04989,17.37986,-17.55006,-19.49190,0.0000,,,,0.0415,,,,,,"[0.000, 0.000, 0.000, 0.000, 0.000, 0.000]",0x000000,1.9950,0,0,0.000000,0.000000,0.000000,0.0000,NO
40,2.0450,2.0450,0.0500,0.050,APPROACHING,0,957.02,931.55,933.55,71.45,0.65,30.94,0.95702,0.93155,0.93355,1.24706,0.01137,0.53996,-0.02531,-0.05289,-0.04989,-17.37986,17.55006,19.49190,0.00000,0.00000,0.00000,0.00000,0.00000,0.00000,0.00000,0.00000,0.00000,0.00000,0.00000,0.00000,0.95702,0.93155,0.93355,-1.24706,-0.01137,-0.53996,0.02531,0.05289,0.04989,17.37986,-17.55006,-19.49190,0.0000,,,,0.0416,,,,,,"[0.000, 0.000, 0.000, 0.000, 0.000, 0.000]",0x000000,2.0450,0,0,0.000000,0.000000,0.000000,0.0000,NO
41,2.0950,2.0950,0.0500,0.050,APPROACHING,0,955.76,928.91,931.05,13.79,-0.26,103.27,0.95576,0.92891,0.93105,0.24071,-0.00451,1.80239,-0.02531,-0.05289,-0.04989,-17.37986,17.55006,19.49190,0.00000,0.00000,0.00000,0.00000,0.00000,0.00000,0.00000,0.00000,0.00000,0.00000,0.00000,0.00000,0.95576,0.92891,0.93105,-0.24071,0.00451,-1.80239,0.02531,0.05289,0.04989,17.37986,-17.55006,-19.49190,0.0000,,,,0.0416,,,,,,"[0.000, 0.000, 0.000, 0.000, 0.000, 0.000]",0x000000,2.0950,0,0,0.000000,0.000000,0.000000,0.0000,NO
42,2.1450,2.1450,0.0500,0.050,APPROACHING,0,954.49,926.26,928.56,-12.54,53.07,162.54,0.95449,0.92626,0.92856,-0.21889,0.92627,2.83679,-0.02531,-0.05289,-0.04989,-17.37986,17.55006,19.49190,0.00000,0.00000,0.00000,0.00000,0.00000,0.00000,0.00000,0.00000,0.00000,0.00000,0.00000,0.00000,0.95449,0.92626,0.92856,0.21889,-0.92627,-2.83679,0.02531,0.05289,0.04989,17.37986,-17.55006,-19.49190,0.0000,,,,0.0351,,,,,,"[0.000, 1.000, 0.000, 1.000, 0.000, 1.000]",0x010101,2.1450,3,3,-2.000000,2.000000,2.000000,0.0000,NO
43,2.1950,2.1950,0.0500,0.050,APPROACHING,0,953.17,923.54,926.03,96.79,52.32,-25.50,0.95317,0.92354,0.92603,1.68932,0.91308,-0.44506,-0.02681,-0.05628,-0.05121,-18.56295,18.74522,20.68080,0.00000,0.00000,0.00000,0.00000,0.00000,0.00000,0.00000,0.00000,0.00000,0.00000,0.00000,0.00000,0.95317,0.92354,0.92603,-1.68932,-0.91308,0.44506,0.02681,0.05628,0.05121,18.56295,-18.74522,-20.68080,0.0000,,,,0.0416,,,,,,"[0.000, 0.000, 0.000, 0.000, 0.000, 0.000]",0x000000,2.1950,0,3,0.000000,0.000000,0.000000,0.0000,NO
44,2.2450,2.2450,0.0500,0.050,APPROACHING,0,951.83,920.73,923.47,66.29,-2.70,38.14,0.95183,0.92073,0.92347,1.15705,-0.04717,0.66565,-0.02681,-0.05628,-0.05121,-18.56295,18.74522,20.68080,0.00000,0.00000,0.00000,0.00000,0.00000,0.00000,0.00000,0.00000,0.00000,0.00000,0.00000,0.00000,0.95183,0.92073,0.92347,-1.15705,0.04717,-0.66565,0.02681,0.05628,0.05121,18.56295,-18.74522,-20.68080,0.0000,,,,0.0416,,,,,,"[0.000, 0.000, 0.000, 0.000, 0.000, 0.000]",0x000000,2.2450,0,0,0.000000,0.000000,0.000000,0.0000,NO
45,2.2950,2.2950,0.0500,0.050,APPROACHING,0,950.49,917.91,920.91,6.18,6.65,114.18,0.95049,0.91791,0.92091,0.10778,0.11603,1.99288,-0.02681,-0.05628,-0.05121,-18.56295,18.74522,20.68080,0.00000,0.00000,0.00000,0.00000,0.00000,0.00000,0.00000,0.00000,0.00000,0.00000,0.00000,0.00000,0.95049,0.91791,0.92091,-0.10778,-0.11603,-1.99288,0.02681,0.05628,0.05121,18.56295,-18.74522,-20.68080,0.0000,,,,0.0416,,,,,,"[0.000, 0.000, 0.000, 0.000, 0.000, 0.000]",0x000000,2.2950,0,0,0.000000,0.000000,0.000000,0.0000,NO
46,2.3450,2.3450,0.0500,0.050,APPROACHING,0,949.15,915.10,918.35,-4.54,66.94,-174.91,0.94915,0.91510,0.91835,-0.07922,1.16827,-3.05281,-0.02681,-0.05628,-0.05121,-18.56295,18.74522,20.68080,0.00000,0.00000,0.00000,0.00000,0.00000,0.00000,0.00000,0.00000,0.00000,0.00000,0.00000,0.00000,0.94915,0.91510,0.91835,0.07922,-1.16827,3.05281,0.02681,0.05628,0.05121,18.56295,-18.74522,-20.68080,0.0000,,,,0.0416,,,,,,"[0.000, 0.000, 0.000, 0.000, 0.000, 0.000]",0x000000,2.3450,0,0,0.000000,0.000000,0.000000,0.0000,NO
47,2.3950,2.3950,0.0500,0.050,APPROACHING,0,947.81,912.29,915.79,94.96,36.03,-8.98,0.94781,0.91229,0.91579,1.65741,0.62877,-0.15676,-0.02681,-0.05628,-0.05121,-18.56295,18.74522,20.68080,0.00000,0.00000,0.00000,0.00000,0.00000,0.00000,0.00000,0.00000,0.00000,0.00000,0.00000,0.00000,0.94781,0.91229,0.91579,-1.65741,-0.62877,0.15676,0.02681,0.05628,0.05121,18.56295,-18.74522,-20.68080,0.0000,,,,0.0415,,,,,,"[0.000, 0.000, 0.000, 0.000, 0.000, 0.000]",0x000000,2.3950,0,0,0.000000,0.000000,0.000000,0.0000,NO
48,2.4450,2.4450,0.0500,0.050,APPROACHING,0,946.47,909.47,913.23,50.91,-8.42,57.45,0.94647,0.90947,0.91323,0.88848,-0.14694,1.00264,-0.02681,-0.05628,-0.05121,-18.56295,18.74522,20.68080,0.00000,0.00000,0.00000,0.00000,0.00000,0.00000,0.00000,0.00000,0.00000,0.00000,0.00000,0.00000,0.94647,0.90947,0.91323,-0.88848,0.14694,-1.00264,0.02681,0.05628,0.05121,18.56295,-18.74522,-20.68080,0.0000,,,,0.0168,,,,,,"[1.000, 0.000, 1.000, 0.000, 1.000, 0.000]",0x101010,2.4450,3,3,-2.000000,2.000000,2.000000,0.0000,NO
49,2.4950,2.4950,0.0500,0.050,APPROACHING,0,945.14,906.61,910.58,-4.74,21.74,131.41,0.94514,0.90661,0.91058,-0.08279,0.37941,2.29346,-0.02539,-0.05805,-0.05437,-19.74604,19.94038,21.86969,0.00000,0.00000,0.00000,0.00000,0.00000,0.00000,0.00000,0.00000,0.00000,0.00000,0.00000,0.00000,0.94514,0.90661,0.91058,0.08279,-0.37941,-2.29346,0.02539,0.05805,0.05437,19.74604,-19.94038,-21.86969,0.0000,,,,0.0415,,,,,,"[0.000, 0.000, 0.000, 0.000, 0.000, 0.000]",0x000000,2.4950,0,3,0.000000,0.000000,0.000000,0.0000,NO
50,2.5450,2.5450,0.0500,0.050,APPROACHING,0,943.87,903.71,907.86,65.22,75.28,-83.65,0.94387,0.90371,0.90786,1.13824,1.31393,-1.46004,-0.02539,-0.05805,-0.05437,-19.74604,19.94038,21.86969,0.00000,0.00000,0.00000,0.00000,0.00000,0.00000,0.00000,0.00000,0.00000,0.00000,0.00000,0.00000,0.94387,0.90371,0.90786,-1.13824,-1.31393,1.46004,0.02539,0.05805,0.05437,19.74604,-19.94038,-21.86969,0.0000,,,,0.0416,,,,,,"[0.000, 0.000, 0.000, 0.000, 0.000, 0.000]",0x000000,2.5450,0,0,0.000000,0.000000,0.000000,0.0000,NO
51,2.5950,2.5950,0.0500,0.050,APPROACHING,0,942.60,900.81,905.14,83.22,12.11,15.10,0.94260,0.90081,0.90514,1.45246,0.21130,0.26348,-0.02539,-0.05805,-0.05437,-19.74604,19.94038,21.86969,0.00000,0.00000,0.00000,0.00000,0.00000,0.00000,0.00000,0.00000,0.00000,0.00000,0.00000,0.00000,0.94260,0.90081,0.90514,-1.45246,-0.21130,-0.26348,0.02539,0.05805,0.05437,19.74604,-19.94038,-21.86969,0.0000,,,,0.0416,,,,,,"[0.000, 0.000, 0.000, 0.000, 0.000, 0.000]",0x000000,2.5950,0,0,0.000000,0.000000,0.000000,0.0000,NO
52,2.6450,2.6450,0.0500,0.050,APPROACHING,0,941.33,897.91,902.42,21.01,-4.25,94.42,0.94133,0.89791,0.90242,0.36670,-0.07415,1.64799,-0.02539,-0.05805,-0.05437,-19.74604,19.94038,21.86969,0.00000,0.00000,0.00000,0.00000,0.00000,0.00000,0.00000,0.00000,0.00000,0.00000,0.00000,0.00000,0.94133,0.89791,0.90242,-0.36670,0.07415,-1.64799,0.02539,0.05805,0.05437,19.74604,-19.94038,-21.86969,0.0000,,,,0.0416,,,,,,"[0.000, 0.000, 0.000, 0.000, 0.000, 0.000]",0x000000,2.6450,0,0,0.000000,0.000000,0.000000,0.0000,NO
53,2.6950,2.6950,0.0500,0.050,APPROACHING,0,940.06,895.00,899.71,-12.46,53.19,162.37,0.94006,0.89500,0.89971,-0.21745,0.92839,2.83381,-0.02539,-0.05805,-0.05437,-19.74604,19.94038,21.86969,0.00000,0.00000,0.00000,0.00000,0.00000,0.00000,0.00000,0.00000,0.00000,0.00000,0.00000,0.00000,0.94006,0.89500,0.89971,0.21745,-0.92839,-2.83381,0.02539,0.05805,0.05437,19.74604,-19.94038,-21.86969,0.0000,,,,0.0416,,,,,,"[0.000, 0.000, 0.000, 0.000, 0.000, 0.000]",0x000000,2.6950,0,0,0.000000,0.000000,0.000000,0.0000,NO
54,2.7450,2.7450,0.0500,0.050,APPROACHING,0,938.79,892.10,896.99,97.28,46.30,-18.77,0.93879,0.89210,0.89699,1.69786,0.80814,-0.32755,-0.02539,-0.05805,-0.05437,-19.74604,19.94038,21.86969,0.00000,0.00000,0.00000,0.00000,0.00000,0.00000,0.00000,0.00000,0.00000,0.00000,0.00000,0.00000,0.93879,0.89210,0.89699,-1.69786,-0.80814,0.32755,0.02539,0.05805,0.05437,19.74604,-19.94038,-21.86969,0.0000,,,,0.0333,,,,,,"[0.000, 1.000, 1.000, 0.000, 0.000, 1.000]",0x011001,2.7450,3,3,-2.000000,2.000000,2.000000,0.0000,NO
55,2.7950,2.7950,0.0500,0.050,APPROACHING,0,937.54,889.14,894.19,55.37,-7.34,52.15,0.93754,0.88914,0.89419,0.96641,-0.12817,0.91012,-0.02344,-0.05995,-0.05704,-20.92913,21.13555,23.05857,0.00000,0.00000,0.00000,0.00000,0.00000,0.00000,0.00000,0.00000,0.00000,0.00000,0.00000,0.00000,0.93754,0.88914,0.89419,-0.96641,0.12817,-0.91012,0.02344,0.05995,0.05704,20.92913,-21.13555,-23.05857,0.0000,,,,0.0416,,,,,,"[0.000, 0.000, 0.000, 0.000, 0.000, 0.000]",0x000000,2.7950,0,3,0.000000,0.000000,0.000000,0.0000,NO
56,2.8450,2.8450,0.0500,0.050,APPROACHING,0,936.37,886.15,891.34,-5.34,23.35,132.76,0.93637,0.88615,0.89134,-0.09316,0.40762,2.31704,-0.02344,-0.05995,-0.05704,-20.92913,21.13555,23.05857,0.00000,0.00000,0.00000,0.00000,0.00000,0.00000,0.00000,0.00000,0.00000,0.00000,0.00000,0.00000,0.93637,0.88615,0.89134,0.09316,-0.40762,-2.31704,0.02344,0.05995,0.05704,20.92913,-21.13555,-23.05857,0.0000,,,,0.0416,,,,,,"[0.000, 0.000, 0.000, 0.000, 0.000, 0.000]",0x000000,2.8450,0,0,0.000000,0.000000,0.000000,0.0000,NO
57,2.8950,2.8950,0.0500,0.050,APPROACHING,0,935.20,883.15,888.48,80.99,71.67,-62.65,0.93520,0.88315,0.88848,1.41350,1.25080,-1.09337,-0.02344,-0.05995,-0.05704,-20.92913,21.13555,23.05857,0.00000,0.00000,0.00000,0.00000,0.00000,0.00000,0.00000,0.00000,0.00000,0.00000,0.00000,0.00000,0.93520,0.88315,0.88848,-1.41350,-1.25080,1.09337,0.02344,0.05995,0.05704,20.92913,-21.13555,-23.05857,0.0000,,,,0.0416,,,,,,"[0.000, 0.000, 0.000, 0.000, 0.000, 0.000]",0x000000,2.8950,0,0,0.000000,0.000000,0.000000,0.0000,NO
58,2.9450,2.9450,0.0500,0.050,APPROACHING,0,934.03,880.15,885.63,76.77,4.97,24.50,0.93403,0.88015,0.88563,1.33985,0.08679,0.42762,-0.02344,-0.05995,-0.05704,-20.92913,21.13555,23.05857,0.00000,0.00000,0.00000,0.00000,0.00000,0.00000,0.00000,0.00000,0.00000,0.00000,0.00000,0.00000,0.93403,0.88015,0.88563,-1.33985,-0.08679,-0.42762,0.02344,0.05995,0.05704,20.92913,-21.13555,-23.05857,0.0000,,,,0.0415,,,,,,"[0.000, 0.000, 0.000, 0.000, 0.000, 0.000]",0x000000,2.9450,0,0,0.000000,0.000000,0.000000,0.0000,NO
59,2.9950,2.9950,0.0500,0.050,APPROACHING,0,932.85,877.15,882.78,9.83,3.54,109.16,0.93285,0.87715,0.88278,0.17150,0.06178,1.90522,-0.02344,-0.05995,-0.05704,-20.92913,21.13555,23.05857,0.00000,0.00000,0.00000,0.00000,0.00000,0.00000,0.00000,0.00000,0.00000,0.00000,0.00000,0.00000,0.93285,0.87715,0.88278,-0.17150,-0.06178,-1.90522,0.02344,0.05995,0.05704,20.92913,-21.13555,-23.05857,0.0000,,,,0.0415,,,,,,"[0.000, 0.000, 0.000, 0.000, 0.000, 0.000]",0x000000,2.9950,0,0,0.000000,0.000000,0.000000,0.0000,NO
60,3.0450,3.0450,0.0500,0.050,APPROACHING,0,931.68,874.16,879.93,0.08,69.98,-167.54,0.93168,0.87416,0.87993,0.00143,1.22135,-2.92410,-0.02344,-0.05995,-0.05704,-20.92913,21.13555,23.05857,0.00000,0.00000,0.00000,0.00000,0.00000,0.00000,0.00000,0.00000,0.00000,0.00000,0.00000,0.00000,0.93168,0.87416,0.87993,-0.00143,-1.22135,2.92410,0.02344,0.05995,0.05704,20.92913,-21.13555,-23.05857,0.0000,,,,0.0415,,,,,,"[0.000, 0.000, 0.000, 0.000, 0.000, 0.000]",0x000000,3.0450,0,0,0.000000,0.000000,0.000000,0.0000,NO
61,3.0950,3.0950,0.0500,0.050,APPROACHING,0,930.51,871.16,877.08,91.31,25.30,1.18,0.93051,0.87116,0.87708,1.59369,0.44148,0.02064,-0.02344,-0.05995,-0.05704,-20.92913,21.13555,23.05857,0.00000,0.00000,0.00000,0.00000,0.00000,0.00000,0.00000,0.00000,0.00000,0.00000,0.00000,0.00000,0.93051,0.87116,0.87708,-1.59369,-0.44148,-0.02064,0.02344,0.05995,0.05704,20.92913,-21.13555,-23.05857,0.0000,,,,0.0189,,,,,,"[1.000, 0.000, 1.000, 0.000, 0.000, 1.000]",0x101001,3.0950,3,3,-2.000000,2.000000,2.000000,0.0000,NO
62,3.1450,3.1450,0.0500,0.050,APPROACHING,0,929.30,868.08,874.19,29.78,-7.26,83.52,0.92930,0.86808,0.87419,0.51968,-0.12674,1.45776,-0.02375,-0.06354,-0.05817,-22.11223,22.33073,24.24743,0.00000,0.00000,0.00000,0.00000,0.00000,0.00000,0.00000,0.00000,0.00000,0.00000,0.00000,0.00000,0.92930,0.86808,0.87419,-0.51968,0.12674,-1.45776,0.02375,0.06354,0.05817,22.11223,-22.33073,-24.24743,0.0000,,,,0.0415,,,,,,"[0.000, 0.000, 0.000, 0.000, 0.000, 0.000]",0x000000,3.1450,0,3,0.000000,0.000000,0.000000,0.0000,NO
63,3.1950,3.1950,0.0500,0.050,APPROACHING,0,928.11,864.90,871.28,-12.27,52.29,160.86,0.92811,0.86490,0.87128,-0.21415,0.91264,2.80759,-0.02375,-0.06354,-0.05817,-22.11223,22.33073,24.24743,0.00000,0.00000,0.00000,0.00000,0.00000,0.00000,0.00000,0.00000,0.00000,0.00000,0.00000,0.00000,0.92811,0.86490,0.87128,0.21415,-0.91264,-2.80759,0.02375,0.06354,0.05817,22.11223,-22.33073,-24.24743,0.0000,,,,0.0415,,,,,,"[0.000, 0.000, 0.000, 0.000, 0.000, 0.000]",0x000000,3.1950,0,0,0.000000,0.000000,0.000000,0.0000,NO
64,3.2450,3.2450,0.0500,0.050,APPROACHING,0,926.93,861.72,868.37,96.43,39.40,-12.17,0.92693,0.86172,0.86837,1.68307,0.68766,-0.21239,-0.02375,-0.06354,-0.05817,-22.11223,22.33073,24.24743,0.00000,0.00000,0.00000,0.00000,0.00000,0.00000,0.00000,0.00000,0.00000,0.00000,0.00000,0.00000,0.92693,0.86172,0.86837,-1.68307,-0.68766,0.21239,0.02375,0.06354,0.05817,22.11223,-22.33073,-24.24743,0.0000,,,,0.0416,,,,,,"[0.000, 0.000, 0.000, 0.000, 0.000, 0.000]",0x000000,3.2450,0,0,0.000000,0.000000,0.000000,0.0000,NO
65,3.2950,3.2950,0.0500,0.050,APPROACHING,0,925.74,858.55,865.46,42.59,-9.03,67.82,0.92574,0.85855,0.86546,0.74331,-0.15765,1.18371,-0.02375,-0.06354,-0.05817,-22.11223,22.33073,24.24743,0.00000,0.00000,0.00000,0.00000,0.00000,0.00000,0.00000,0.00000,0.00000,0.00000,0.00000,0.00000,0.92574,0.85855,0.86546,-0.74331,0.15765,-1.18371,0.02375,0.06354,0.05817,22.11223,-22.33073,-24.24743,0.0000,,,,0.0415,,,,,,"[0.000, 0.000, 0.000, 0.000, 0.000, 0.000]",0x000000,3.2950,0,0,0.000000,0.000000,0.000000,0.0000,NO
66,3.3450,3.3450,0.0500,0.050,APPROACHING,0,924.55,855.37,862.56,-11.17,39.51,147.78,0.92455,0.85537,0.86256,-0.19496,0.68953,2.57924,-0.02375,-0.06354,-0.05817,-22.11223,22.33073,24.24743,0.00000,0.00000,0.00000,0.00000,0.00000,0.00000,0.00000,0.00000,0.00000,0.00000,0.00000,0.00000,0.92455,0.85537,0.86256,0.19496,-0.68953,-2.57924,0.02375,0.06354,0.05817,22.11223,-22.33073,-24.24743,0.0000,,,,0.0416,,,,,,"[0.000, 0.000, 0.000, 0.000, 0.000, 0.000]",0x000000,3.3450,0,0,0.000000,0.000000,0.000000,0.0000,NO
67,3.3950,3.3950,0.0500,0.050,APPROACHING,0,923.36,852.19,859.65,97.57,52.18,-25.23,0.92336,0.85219,0.85965,1.70286,0.91074,-0.44033,-0.02375,-0.06354,-0.05817,-22.11223,22.33073,24.24743,0.00000,0.00000,0.00000,0.00000,0.00000,0.00000,0.00000,0.00000,0.00000,0.00000,0.00000,0.00000,0.92336,0.85219,0.85965,-1.70286,-0.91074,0.44033,0.02375,0.06354,0.05817,22.11223,-22.33073,-24.24743,0.0000,,,,0.0416,,,,,,"[0.000, 0.000, 0.000, 0.000, 0.000, 0.000]",0x000000,3.3950,0,0,0.000000,0.000000,0.000000,0.0000,NO
68,3.4450,3.4450,0.0500,0.050,APPROACHING,0,922.18,849.02,856.74,55.41,-7.29,52.12,0.92218,0.84902,0.85674,0.96701,-0.12725,0.90960,-0.02375,-0.06354,-0.05817,-22.11223,22.33073,24.24743,0.00000,0.00000,0.00000,0.00000,0.00000,0.00000,0.00000,0.00000,0.00000,0.00000,0.00000,0.00000,0.92218,0.84902,0.85674,-0.96701,0.12725,-0.90960,0.02375,0.06354,0.05817,22.11223,-22.33073,-24.24743,0.0000,,,,0.0416,,,,,,"[0.000, 0.000, 0.000, 0.000, 0.000, 0.000]",0x000000,3.4450,0,0,0.000000,0.000000,0.000000,0.0000,NO
69,3.4950,3.4950,0.0500,0.050,APPROACHING,0,920.99,845.84,853.83,-7.01,27.18,136.20,0.92099,0.84584,0.85383,-0.12241,0.47433,2.37714,-0.02375,-0.06354,-0.05817,-22.11223,22.33073,24.24743,0.00000,0.00000,0.00000,0.00000,0.00000,0.00000,0.00000,0.00000,0.00000,0.00000,0.00000,0.00000,0.92099,0.84584,0.85383,0.12241,-0.47433,-2.37714,0.02375,0.06354,0.05817,22.11223,-22.33073,-24.24743,0.0000,,,,0.0207,,,,,,"[0.000, 1.000, 0.000, 1.000, 1.000, 0.000]",0x010110,3.4950,3,3,-2.000000,2.000000,2.000000,0.0000,NO
70,3.5450,3.5450,0.0500,0.050,APPROACHING,0,919.80,842.62,850.83,94.14,62.88,-39.79,0.91980,0.84262,0.85083,1.64304,1.09752,-0.69446,-0.02275,-0.06522,-0.06133,-23.29533,23.52591,25.43629,0.00000,0.00000,0.00000,0.00000,0.00000,0.00000,0.00000,0.00000,0.00000,0.00000,0.00000,0.00000,0.91980,0.84262,0.85083,-1.64304,-1.09752,0.69446,0.02275,0.06522,0.06133,23.29533,-23.52591,-25.43629,0.0000,,,,0.0416,,,,,,"[0.000, 0.000, 0.000, 0.000, 0.000, 0.000]",0x000000,3.5450,0,3,0.000000,0.000000,0.000000,0.0000,NO
71,3.5950,3.5950,0.0500,0.050,APPROACHING,0,918.66,839.36,847.77,62.00,-4.92,44.21,0.91866,0.83936,0.84777,1.08213,-0.08594,0.77161,-0.02275,-0.06522,-0.06133,-23.29533,23.52591,25.43629,0.00000,0.00000,0.00000,0.00000,0.00000,0.00000,0.00000,0.00000,0.00000,0.00000,0.00000,0.00000,0.91866,0.83936,0.84777,-1.08213,0.08594,-0.77161,0.02275,0.06522,0.06133,23.29533,-23.52591,-25.43629,0.0000,,,,0.0417,,,,,,"[0.000, 0.000, 0.000, 0.000, 0.000, 0.000]",0x000000,3.5950,0,0,0.000000,0.000000,0.000000,0.0000,NO
72,3.6450,3.6450,0.0500,0.050,APPROACHING,0,917.52,836.10,844.70,-5.69,24.61,133.78,0.91752,0.83610,0.84470,-0.09926,0.42950,2.33489,-0.02275,-0.06522,-0.06133,-23.29533,23.52591,25.43629,0.00000,0.00000,0.00000,0.00000,0.00000,0.00000,0.00000,0.00000,0.00000,0.00000,0.00000,0.00000,0.91752,0.83610,0.84470,0.09926,-0.42950,-2.33489,0.02275,0.06522,0.06133,23.29533,-23.52591,-25.43629,0.0000,,,,0.0416,,,,,,"[0.000, 0.000, 0.000, 0.000, 0.000, 0.000]",0x000000,3.6450,0,0,0.000000,0.000000,0.000000,0.0000,NO
73,3.6950,3.6950,0.0500,0.050,APPROACHING,0,916.38,832.84,841.63,93.58,63.64,-41.15,0.91638,0.83284,0.84163,1.63325,1.11078,-0.71825,-0.02275,-0.06522,-0.06133,-23.29533,23.52591,25.43629,0.00000,0.00000,0.00000,0.00000,0.00000,0.00000,0.00000,0.00000,0.00000,0.00000,0.00000,0.00000,0.91638,0.83284,0.84163,-1.63325,-1.11078,0.71825,0.02275,0.06522,0.06133,23.29533,-23.52591,-25.43629,0.0000,,,,0.0416,,,,,,"[0.000, 0.000, 0.000, 0.000, 0.000, 0.000]",0x000000,3.6950,0,0,0.000000,0.000000,0.000000,0.0000,NO
74,3.7450,3.7450,0.0500,0.050,APPROACHING,0,915.25,829.58,838.57,62.73,-4.60,43.29,0.91525,0.82958,0.83857,1.09493,-0.08023,0.75550,-0.02275,-0.06522,-0.06133,-23.29533,23.52591,25.43629,0.00000,0.00000,0.00000,0.00000,0.00000,0.00000,0.00000,0.00000,0.00000,0.00000,0.00000,0.00000,0.91525,0.82958,0.83857,-1.09493,0.08023,-0.75550,0.02275,0.06522,0.06133,23.29533,-23.52591,-25.43629,0.0000,,,,0.0416,,,,,,"[0.000, 0.000, 0.000, 0.000, 0.000, 0.000]",0x000000,3.7450,0,0,0.000000,0.000000,0.000000,0.0000,NO
75,3.7950,3.7950,0.0500,0.050,APPROACHING,0,914.11,826.31,835.50,-5.32,23.88,133.07,0.91411,0.82631,0.83550,-0.09291,0.41678,2.32245,-0.02275,-0.06522,-0.06133,-23.29533,23.52591,25.43629,0.00000,0.00000,0.00000,0.00000,0.00000,0.00000,0.00000,0.00000,0.00000,0.00000,0.00000,0.00000,0.91411,0.82631,0.83550,0.09291,-0.41678,-2.32245,0.02275,0.06522,0.06133,23.29533,-23.52591,-25.43629,0.0000,,,,0.0416,,,,,,"[0.000, 0.000, 0.000, 0.000, 0.000, 0.000]",0x000000,3.7950,0,0,0.000000,0.000000,0.000000,0.0000,NO
76,3.8450,3.8450,0.0500,0.050,APPROACHING,0,912.97,823.05,832.43,92.96,64.40,-42.57,0.91297,0.82305,0.83243,1.62247,1.12393,-0.74299,-0.02275,-0.06522,-0.06133,-23.29533,23.52591,25.43629,0.00000,0.00000,0.00000,0.00000,0.00000,0.00000,0.00000,0.00000,0.00000,0.00000,0.00000,0.00000,0.91297,0.82305,0.83243,-1.62247,-1.12393,0.74299,0.02275,0.06522,0.06133,23.29533,-23.52591,-25.43629,0.0000,,,,0.0416,,,,,,"[0.000, 0.000, 0.000, 0.000, 0.000, 0.000]",0x000000,3.8450,0,0,0.000000,0.000000,0.000000,0.0000,NO
77,3.8950,3.8950,0.0500,0.050,APPROACHING,0,911.83,819.79,829.37,63.46,-4.26,42.37,0.91183,0.81979,0.82937,1.10762,-0.07430,0.73948,-0.02275,-0.06522,-0.06133,-23.29533,23.52591,25.43629,0.00000,0.00000,0.00000,0.00000,0.00000,0.00000,0.00000,0.00000,0.00000,0.00000,0.00000,0.00000,0.91183,0.81979,0.82937,-1.10762,0.07430,-0.73948,0.02275,0.06522,0.06133,23.29533,-23.52591,-25.43629,0.0000,,,,0.0280,,,,,,"[1.000, 0.000, 1.000, 0.000, 1.000, 0.000]",0x101010,3.8950,3,3,-2.000000,2.000000,2.000000,0.0000,NO
78,3.9450,3.9450,0.0500,0.050,APPROACHING,0,910.69,816.49,826.21,-5.89,25.05,134.06,0.91069,0.81649,0.82621,-0.10274,0.43725,2.33982,-0.02186,-0.06684,-0.06450,-24.47844,24.72110,26.62513,0.00000,0.00000,0.00000,0.00000,0.00000,0.00000,0.00000,0.00000,0.00000,0.00000,0.00000,0.00000,0.91069,0.81649,0.82621,0.10274,-0.43725,-2.33982,0.02186,0.06684,0.06450,24.47844,-24.72110,-26.62513,0.0000,,,,0.0415,,,,,,"[0.000, 0.000, 0.000, 0.000, 0.000, 0.000]",0x000000,3.9450,0,3,0.000000,0.000000,0.000000,0.0000,NO
79,3.9950,3.9950,0.0500,0.050,APPROACHING,0,909.59,813.15,822.99,96.43,59.36,-33.96,0.90959,0.81315,0.82299,1.68294,1.03610,-0.59263,-0.02186,-0.06684,-0.06450,-24.47844,24.72110,26.62513,0.00000,0.00000,0.00000,0.00000,0.00000,0.00000,0.00000,0.00000,0.00000,0.00000,0.00000,0.00000,0.90959,0.81315,0.82299,-1.68294,-1.03610,0.59263,0.02186,0.06684,0.06450,24.47844,-24.72110,-26.62513,0.0000,,,,0.0416,,,,,,"[0.000, 0.000, 0.000, 0.000, 0.000, 0.000]",0x000000,3.9950,0,0,0.000000,0.000000,0.000000,0.0000,NO
80,4.0450,4.0450,0.0500,0.050,APPROACHING,0,908.50,809.81,819.76,54.82,-7.47,53.25,0.90850,0.80981,0.81976,0.95675,-0.13039,0.92938,-0.02186,-0.06684,-0.06450,-24.47844,24.72110,26.62513,0.00000,0.00000,0.00000,0.00000,0.00000,0.00000,0.00000,0.00000,0.00000,0.00000,0.00000,0.00000,0.90850,0.80981,0.81976,-0.95675,0.13039,-0.92938,0.02186,0.06684,0.06450,24.47844,-24.72110,-26.62513,0.0000,,,,0.0416,,,,,,"[0.000, 0.000, 0.000, 0.000, 0.000, 0.000]",0x000000,4.0450,0,0,0.000000,0.000000,0.000000,0.0000,NO
81,4.0950,4.0950,0.0500,0.050,APPROACHING,0,907.41,806.47,816.54,-10.07,35.69,144.06,0.90741,0.80647,0.81654,-0.17575,0.62292,2.51431,-0.02186,-0.06684,-0.06450,-24.47844,24.72110,26.62513,0.00000,0.00000,0.00000,0.00000,0.00000,0.00000,0.00000,0.00000,0.00000,0.00000,0.00000,0.00000,0.90741,0.80647,0.81654,0.17575,-0.62292,-2.51431,0.02186,0.06684,0.06450,24.47844,-24.72110,-26.62513,0.0000,,,,0.0416,,,,,,"[0.000, 0.000, 0.000, 0.000, 0.000, 0.000]",0x000000,4.0950,0,0,0.000000,0.000000,0.000000,0.0000,NO
82,4.1450,4.1450,0.0500,0.050,APPROACHING,0,906.31,803.12,813.31,98.10,48.18,-20.48,0.90631,0.80312,0.81331,1.71210,0.84084,-0.35744,-0.02186,-0.06684,-0.06450,-24.47844,24.72110,26.62513,0.00000,0.00000,0.00000,0.00000,0.00000,0.00000,0.00000,0.00000,0.00000,0.00000,0.00000,0.00000,0.90631,0.80312,0.81331,-1.71210,-0.84084,0.35744,0.02186,0.06684,0.06450,24.47844,-24.72110,-26.62513,0.0000,,,,0.0415,,,,,,"[0.000, 0.000, 0.000, 0.000, 0.000, 0.000]",0x000000,4.1450,0,0,0.000000,0.000000,0.000000,0.0000,NO
83,4.1950,4.1950,0.0500,0.050,APPROACHING,0,905.22,799.78,810.08,43.57,-8.98,66.99,0.90522,0.79978,0.81008,0.76050,-0.15679,1.16912,-0.02186,-0.06684,-0.06450,-24.47844,24.72110,26.62513,0.00000,0.00000,0.00000,0.00000,0.00000,0.00000,0.00000,0.00000,0.00000,0.00000,0.00000,0.00000,0.90522,0.79978,0.81008,-0.76050,0.15679,-1.16912,0.02186,0.06684,0.06450,24.47844,-24.72110,-26.62513,0.0000,,,,0.0416,,,,,,"[0.000, 0.000, 0.000, 0.000, 0.000, 0.000]",0x000000,4.1950,0,0,0.000000,0.000000,0.000000,0.0000,NO
84,4.2450,4.2450,0.0500,0.050,APPROACHING,0,904.13,796.44,806.86,-12.26,46.80,154.73,0.90413,0.79644,0.80686,-0.21394,0.81683,2.70057,-0.02186,-0.06684,-0.06450,-24.47844,24.72110,26.62513,0.00000,0.00000,0.00000,0.00000,0.00000,0.00000,0.00000,0.00000,0.00000,0.00000,0.00000,0.00000,0.90413,0.79644,0.80686,0.21394,-0.81683,-2.70057,0.02186,0.06684,0.06450,24.47844,-24.72110,-26.62513,0.0000,,,,0.0415,,,,,,"[0.000, 0.000, 0.000, 0.000, 0.000, 0.000]",0x000000,4.2450,0,0,0.000000,0.000000,0.000000,0.0000,NO
85,4.2950,4.2950,0.0500,0.050,APPROACHING,0,903.04,793.10,803.63,96.21,37.03,-9.64,0.90304,0.79310,0.80363,1.67920,0.64632,-0.16824,-0.02186,-0.06684,-0.06450,-24.47844,24.72110,26.62513,0.00000,0.00000,0.00000,0.00000,0.00000,0.00000,0.00000,0.00000,0.00000,0.00000,0.00000,0.00000,0.90304,0.79310,0.80363,-1.67920,-0.64632,0.16824,0.02186,0.06684,0.06450,24.47844,-24.72110,-26.62513,0.0000,,,,0.0416,,,,,,"[0.000, 0.000, 0.000, 0.000, 0.000, 0.000]",0x000000,4.2950,0,0,0.000000,0.000000,0.000000,0.0000,NO
86,4.3450,4.3450,0.0500,0.050,APPROACHING,0,901.94,789.76,800.41,32.28,-7.80,80.76,0.90194,0.78976,0.80041,0.56347,-0.13610,1.40953,-0.02186,-0.06684,-0.06450,-24.47844,24.72110,26.62513,0.00000,0.00000,0.00000,0.00000,0.00000,0.00000,0.00000,0.00000,0.00000,0.00000,0.00000,0.00000,0.90194,0.78976,0.80041,-0.56347,0.13610,-1.40953,0.02186,0.06684,0.06450,24.47844,-24.72110,-26.62513,0.0000,,,,0.0241,,,,,,"[1.000, 0.000, 0.000, 1.000, 1.000, 0.000]",0x100110,4.3450,3,3,-2.000000,2.000000,2.000000,0.0000,NO
87,4.3950,4.3950,0.0500,0.050,APPROACHING,0,900.80,786.34,797.15,-10.51,60.05,170.39,0.90080,0.78634,0.79715,-0.18347,1.04802,2.97390,-0.02234,-0.07015,-0.06576,-25.66155,25.91630,27.81396,0.00000,0.00000,0.00000,0.00000,0.00000,0.00000,0.00000,0.00000,0.00000,0.00000,0.00000,0.00000,0.90080,0.78634,0.79715,0.18347,-1.04802,-2.97390,0.02234,0.07015,0.06576,25.66155,-25.91630,-27.81396,0.0000,,,,0.0415,,,,,,"[0.000, 0.000, 0.000, 0.000, 0.000, 0.000]",0x000000,4.3950,0,3,0.000000,0.000000,0.000000,0.0000,NO
88,4.4450,4.4450,0.0500,0.050,APPROACHING,0,899.69,782.83,793.86,89.61,20.85,5.86,0.89969,0.78283,0.79386,1.56405,0.36391,0.10231,-0.02234,-0.07015,-0.06576,-25.66155,25.91630,27.81396,0.00000,0.00000,0.00000,0.00000,0.00000,0.00000,0.00000,0.00000,0.00000,0.00000,0.00000,0.00000,0.89969,0.78283,0.79386,-1.56405,-0.36391,-0.10231,0.02234,0.07015,0.06576,25.66155,-25.91630,-27.81396,0.0000,,,,0.0415,,,,,,"[0.000, 0.000, 0.000, 0.000, 0.000, 0.000]",0x000000,4.4450,0,0,0.000000,0.000000,0.000000,0.0000,NO
89,4.4950,4.4950,0.0500,0.050,APPROACHING,0,898.57,779.33,790.57,13.15,1.24,105.04,0.89857,0.77933,0.79057,0.22949,0.02163,1.83326,-0.02234,-0.07015,-0.06576,-25.66155,25.91630,27.81396,0.00000,0.00000,0.00000,0.00000,0.00000,0.00000,0.00000,0.00000,0.00000,0.00000,0.00000,0.00000,0.89857,0.77933,0.79057,-0.22949,-0.02163,-1.83326,0.02234,0.07015,0.06576,25.66155,-25.91630,-27.81396,0.0000,,,,0.0416,,,,,,"[0.000, 0.000, 0.000, 0.000, 0.000, 0.000]",0x000000,4.4950,0,0,0.000000,0.000000,0.000000,0.0000,NO
90,4.5450,4.5450,0.0500,0.050,APPROACHING,0,897.45,775.82,787.28,37.45,76.98,-118.84,0.89745,0.77582,0.78728,0.65369,1.34354,-2.07419,-0.02234,-0.07015,-0.06576,-25.66155,25.91630,27.81396,0.00000,0.00000,0.00000,0.00000,0.00000,0.00000,0.00000,0.00000,0.00000,0.00000,0.00000,0.00000,0.89745,0.77582,0.78728,-0.65369,-1.34354,2.07419,0.02234,0.07015,0.06576,25.66155,-25.91630,-27.81396,0.0000,,,,0.0416,,,,,,"[0.000, 0.000, 0.000, 0.000, 0.000, 0.000]",0x000000,4.5450,0,0,0.000000,0.000000,0.000000,0.0000,NO
91,4.5950,4.5950,0.0500,0.050,APPROACHING,0,896.34,772.31,783.99,74.75,2.79,28.11,0.89634,0.77231,0.78399,1.30468,0.04861,0.49061,-0.02234,-0.07015,-0.06576,-25.66155,25.91630,27.81396,0.00000,0.00000,0.00000,0.00000,0.00000,0.00000,0.00000,0.00000,0.00000,0.00000,0.00000,0.00000,0.89634,0.77231,0.78399,-1.30468,-0.04861,-0.49061,0.02234,0.07015,0.06576,25.66155,-25.91630,-27.81396,0.0000,,,,0.0416,,,,,,"[0.000, 0.000, 0.000, 0.000, 0.000, 0.000]",0x000000,4.5950,0,0,0.000000,0.000000,0.000000,0.0000,NO
92,4.6450,4.6450,0.0500,0.050,APPROACHING,0,895.22,768.80,780.71,-2.37,18.68,127.65,0.89522,0.76880,0.78071,-0.04145,0.32601,2.22794,-0.02234,-0.07015,-0.06576,-25.66155,25.91630,27.81396,0.00000,0.00000,0.00000,0.00000,0.00000,0.00000,0.00000,0.00000,0.00000,0.00000,0.00000,0.00000,0.89522,0.76880,0.78071,0.04145,-0.32601,-2.22794,0.02234,0.07015,0.06576,25.66155,-25.91630,-27.81396,0.0000,,,,0.0415,,,,,,"[0.000, 0.000, 0.000, 0.000, 0.000, 0.000]",0x000000,4.6450,0,0,0.000000,0.000000,0.000000,0.0000,NO
93,4.6950,4.6950,0.0500,0.050,APPROACHING,0,894.10,765.30,777.42,95.18,62.45,-38.44,0.89410,0.76530,0.77742,1.66120,1.09004,-0.67091,-0.02234,-0.07015,-0.06576,-25.66155,25.91630,27.81396,0.00000,0.00000,0.00000,0.00000,0.00000,0.00000,0.00000,0.00000,0.00000,0.00000,0.00000,0.00000,0.89410,0.76530,0.77742,-1.66120,-1.09004,0.67091,0.02234,0.07015,0.06576,25.66155,-25.91630,-27.81396,0.0000,,,,0.0415,,,,,,"[0.000, 0.000, 0.000, 0.000, 0.000, 0.000]",0x000000,4.6950,0,0,0.000000,0.000000,0.000000,0.0000,NO
94,4.7450,4.7450,0.0500,0.050,APPROACHING,0,892.99,761.79,774.13,54.07,-7.71,54.36,0.89299,0.76179,0.77413,0.94369,-0.13453,0.94872,-0.02234,-0.07015,-0.06576,-25.66155,25.91630,27.81396,0.00000,0.00000,0.00000,0.00000,0.00000,0.00000,0.00000,0.00000,0.00000,0.00000,0.00000,0.00000,0.89299,0.76179,0.77413,-0.94369,0.13453,-0.94872,0.02234,0.07015,0.06576,25.66155,-25.91630,-27.81396,0.0000,,,,0.0415,,,,,,"[0.000, 0.000, 0.000, 0.000, 0.000, 0.000]",0x000000,4.7450,0,0,0.000000,0.000000,0.000000,0.0000,NO
95,4.7950,4.7950,0.0500,0.050,APPROACHING,0,891.87,758.28,770.84,-11.34,40.51,148.48,0.89187,0.75828,0.77084,-0.19797,0.70702,2.59147,-0.02234,-0.07015,-0.06576,-25.66155,25.91630,27.81396,0.00000,0.00000,0.00000,0.00000,0.00000,0.00000,0.00000,0.00000,0.00000,0.00000,0.00000,0.00000,0.89187,0.75828,0.77084,0.19797,-0.70702,-2.59147,0.02234,0.07015,0.06576,25.66155,-25.91630,-27.81396,0.0000,,,,0.0363,,,,,,"[0.000, 1.000, 0.000, 1.000, 1.000, 0.000]",0x010110,4.7950,3,3,-2.000000,2.000000,2.000000,0.0000,NO
96,4.8450,4.8450,0.0500,0.050,APPROACHING,0,890.78,754.73,767.48,96.60,37.40,-9.69,0.89078,0.75473,0.76748,1.68596,0.65281,-0.16915,-0.02000,-0.07142,-0.06810,-26.84467,27.11151,29.00278,0.00000,0.00000,0.00000,0.00000,0.00000,0.00000,0.00000,0.00000,0.00000,0.00000,0.00000,0.00000,0.89078,0.75473,0.76748,-1.68596,-0.65281,0.16915,0.02000,0.07142,0.06810,26.84467,-27.11151,-29.00278,0.0000,,,,0.0416,,,,,,"[0.000, 0.000, 0.000, 0.000, 0.000, 0.000]",0x000000,4.8450,0,3,0.000000,0.000000,0.000000,0.0000,NO
97,4.8950,4.8950,0.0500,0.050,APPROACHING,0,889.78,751.16,764.07,25.07,-5.42,90.00,0.88978,0.75116,0.76407,0.43764,-0.09466,1.57080,-0.02000,-0.07142,-0.06810,-26.84467,27.11151,29.00278,0.00000,0.00000,0.00000,0.00000,0.00000,0.00000,0.00000,0.00000,0.00000,0.00000,0.00000,0.00000,0.88978,0.75116,0.76407,-0.43764,0.09466,-1.57080,0.02000,0.07142,0.06810,26.84467,-27.11151,-29.00278,0.0000,,,,0.0416,,,,,,"[0.000, 0.000, 0.000, 0.000, 0.000, 0.000]",0x000000,4.8950,0,0,0.000000,0.000000,0.000000,0.0000,NO
98,4.9450,4.9450,0.0500,0.050,APPROACHING,0,888.78,747.59,760.67,5.00,72.36,-160.54,0.88878,0.74759,0.76067,0.08735,1.26300,-2.80199,-0.02000,-0.07142,-0.06810,-26.84467,27.11151,29.00278,0.00000,0.00000,0.00000,0.00000,0.00000,0.00000,0.00000,0.00000,0.00000,0.00000,0.00000,0.00000,0.88878,0.74759,0.76067,-0.08735,-1.26300,2.80199,0.02000,0.07142,0.06810,26.84467,-27.11151,-29.00278,0.0000,,,,0.0416,,,,,,"[0.000, 0.000, 0.000, 0.000, 0.000, 0.000]",0x000000,4.9450,0,0,0.000000,0.000000,0.000000,0.0000,NO
99,4.9950,4.9950,0.0500,0.050,APPROACHING,0,887.78,744.02,757.26,78.94,6.62,22.57,0.88778,0.74402,0.75726,1.37781,0.11563,0.39398,-0.02000,-0.07142,-0.06810,-26.84467,27.11151,29.00278,0.00000,0.00000,0.00000,0.00000,0.00000,0.00000,0.00000,0.00000,0.00000,0.00000,0.00000,0.00000,0.88778,0.74402,0.75726,-1.37781,-0.11563,-0.39398,0.02000,0.07142,0.06810,26.84467,-27.11151,-29.00278,0.0000,,,,0.0416,,,,,,"[0.000, 0.000, 0.000, 0.000, 0.000, 0.000]",0x000000,4.9950,0,0,0.000000,0.000000,0.000000,0.0000,NO
100,5.0450,5.0450,0.0500,0.050,APPROACHING,0,886.78,740.45,753.86,-1.42,17.39,126.31,0.88678,0.74045,0.75386,-0.02474,0.30358,2.20447,-0.02000,-0.07142,-0.06810,-26.84467,27.11151,29.00278,0.00000,0.00000,0.00000,0.00000,0.00000,0.00000,0.00000,0.00000,0.00000,0.00000,0.00000,0.00000,0.88678,0.74045,0.75386,0.02474,-0.30358,-2.20447,0.02000,0.07142,0.06810,26.84467,-27.11151,-29.00278,0.0000,,,,0.0416,,,,,,"[0.000, 0.000, 0.000, 0.000, 0.000, 0.000]",0x000000,5.0450,0,0,0.000000,0.000000,0.000000,0.0000,NO
101,5.0950,5.0950,0.0500,0.050,APPROACHING,0,885.78,736.88,750.45,96.54,60.09,-34.58,0.88578,0.73688,0.75045,1.68498,1.04870,-0.60353,-0.02000,-0.07142,-0.06810,-26.84467,27.11151,29.00278,0.00000,0.00000,0.00000,0.00000,0.00000,0.00000,0.00000,0.00000,0.00000,0.00000,0.00000,0.00000,0.88578,0.73688,0.75045,-1.68498,-1.04870,0.60353,0.02000,0.07142,0.06810,26.84467,-27.11151,-29.00278,0.0000,,,,0.0415,,,,,,"[0.000, 0.000, 0.000, 0.000, 0.000, 0.000]",0x000000,5.0950,0,0,0.000000,0.000000,0.000000,0.0000,NO
102,5.1450,5.1450,0.0500,0.050,APPROACHING,0,884.78,733.31,747.05,47.70,-8.71,62.34,0.88478,0.73331,0.74705,0.83245,-0.15194,1.08796,-0.02000,-0.07142,-0.06810,-26.84467,27.11151,29.00278,0.00000,0.00000,0.00000,0.00000,0.00000,0.00000,0.00000,0.00000,0.00000,0.00000,0.00000,0.00000,0.88478,0.73331,0.74705,-0.83245,0.15194,-1.08796,0.02000,0.07142,0.06810,26.84467,-27.11151,-29.00278,0.0000,,,,0.0415,,,,,,"[0.000, 0.000, 0.000, 0.000, 0.000, 0.000]",0x000000,5.1450,0,0,0.000000,0.000000,0.000000,0.0000,NO
103,5.1950,5.1950,0.0500,0.050,APPROACHING,0,883.78,729.73,743.64,-12.32,51.00,159.07,0.88378,0.72973,0.74364,-0.21505,0.89018,2.77625,-0.02000,-0.07142,-0.06810,-26.84467,27.11151,29.00278,0.00000,0.00000,0.00000,0.00000,0.00000,0.00000,0.00000,0.00000,0.00000,0.00000,0.00000,0.00000,0.88378,0.72973,0.74364,0.21505,-0.89018,-2.77625,0.02000,0.07142,0.06810,26.84467,-27.11151,-29.00278,0.0000,,,,0.0416,,,,,,"[0.000, 0.000, 0.000, 0.000, 0.000, 0.000]",0x000000,5.1950,0,0,0.000000,0.000000,0.000000,0.0000,NO
104,5.2450,5.2450,0.0500,0.050,APPROACHING,0,882.78,726.16,740.24,92.10,25.51,1.43,0.88278,0.72616,0.74024,1.60746,0.44517,0.02504,-0.02000,-0.07142,-0.06810,-26.84467,27.11151,29.00278,0.00000,0.00000,0.00000,0.00000,0.00000,0.00000,0.00000,0.00000,0.00000,0.00000,0.00000,0.00000,0.88278,0.72616,0.74024,-1.60746,-0.44517,-0.02504,0.02000,0.07142,0.06810,26.84467,-27.11151,-29.00278,0.0000,,,,0.0415,,,,,,"[0.000, 0.000, 0.000, 0.000, 0.000, 0.000]",0x000000,5.2450,0,0,0.000000,0.000000,0.000000,0.0000,NO
105,5.2950,5.2950,0.0500,0.050,APPROACHING,0,881.78,722.59,736.83,14.14,0.66,103.94,0.88178,0.72259,0.73683,0.24684,0.01144,1.81416,-0.02000,-0.07142,-0.06810,-26.84467,27.11151,29.00278,0.00000,0.00000,0.00000,0.00000,0.00000,0.00000,0.00000,0.00000,0.00000,0.00000,0.00000,0.00000,0.88178,0.72259,0.73683,-0.24684,-0.01144,-1.81416,0.02000,0.07142,0.06810,26.84467,-27.11151,-29.00278,0.0000,,,,0.0169,,,,,,"[1.000, 0.000, 0.000, 1.000, 1.000, 0.000]",0x100110,5.2950,3,3,-2.000000,2.000000,2.000000,0.0000,NO
106,5.3450,5.3450,0.0500,0.050,APPROACHING,0,880.79,718.93,733.40,59.16,76.51,-92.42,0.88079,0.71893,0.73340,1.03255,1.33529,-1.61303,-0.01869,-0.07456,-0.06857,-28.02779,28.30672,30.19158,0.00000,0.00000,0.00000,0.00000,0.00000,0.00000,0.00000,0.00000,0.00000,0.00000,0.00000,0.00000,0.88079,0.71893,0.73340,-1.03255,-1.33529,1.61303,0.01869,0.07456,0.06857,28.02779,-28.30672,-30.19158,0.0000,,,,0.0415,,,,,,"[0.000, 0.000, 0.000, 0.000, 0.000, 0.000]",0x000000,5.3450,0,3,0.000000,0.000000,0.000000,0.0000,NO
107,5.3950,5.3950,0.0500,0.050,APPROACHING,0,879.85,715.21,729.97,64.04,-4.15,42.41,0.87985,0.71521,0.72997,1.11766,-0.07247,0.74015,-0.01869,-0.07456,-0.06857,-28.02779,28.30672,30.19158,0.00000,0.00000,0.00000,0.00000,0.00000,0.00000,0.00000,0.00000,0.00000,0.00000,0.00000,0.00000,0.87985,0.71521,0.72997,-1.11766,0.07247,-0.74015,0.01869,0.07456,0.06857,28.02779,-28.30672,-30.19158,0.0000,,,,0.0416,,,,,,"[0.000, 0.000, 0.000, 0.000, 0.000, 0.000]",0x000000,5.3950,0,0,0.000000,0.000000,0.000000,0.0000,NO
108,5.4450,5.4450,0.0500,0.050,APPROACHING,0,878.92,711.48,726.54,-10.68,38.29,146.42,0.87892,0.71148,0.72654,-0.18640,0.66833,2.55559,-0.01869,-0.07456,-0.06857,-28.02779,28.30672,30.19158,0.00000,0.00000,0.00000,0.00000,0.00000,0.00000,0.00000,0.00000,0.00000,0.00000,0.00000,0.00000,0.87892,0.71148,0.72654,0.18640,-0.66833,-2.55559,0.01869,0.07456,0.06857,28.02779,-28.30672,-30.19158,0.0000,,,,0.0415,,,,,,"[0.000, 0.000, 0.000, 0.000, 0.000, 0.000]",0x000000,5.4450,0,0,0.000000,0.000000,0.000000,0.0000,NO
109,5.4950,5.4950,0.0500,0.050,APPROACHING,0,877.98,707.75,723.11,95.63,33.80,-6.19,0.87798,0.70775,0.72311,1.66914,0.58986,-0.10811,-0.01869,-0.07456,-0.06857,-28.02779,28.30672,30.19158,0.00000,0.00000,0.00000,0.00000,0.00000,0.00000,0.00000,0.00000,0.00000,0.00000,0.00000,0.00000,0.87798,0.70775,0.72311,-1.66914,-0.58986,0.10811,0.01869,0.07456,0.06857,28.02779,-28.30672,-30.19158,0.0000,,,,0.0416,,,,,,"[0.000, 0.000, 0.000, 0.000, 0.000, 0.000]",0x000000,5.4950,0,0,0.000000,0.000000,0.000000,0.0000,NO
110,5.5450,5.5450,0.0500,0.050,APPROACHING,0,877.05,704.02,719.68,18.19,-1.96,98.84,0.87705,0.70402,0.71968,0.31746,-0.03428,1.72505,-0.01869,-0.07456,-0.06857,-28.02779,28.30672,30.19158,0.00000,0.00000,0.00000,0.00000,0.00000,0.00000,0.00000,0.00000,0.00000,0.00000,0.00000,0.00000,0.87705,0.70402,0.71968,-0.31746,0.03428,-1.72505,0.01869,0.07456,0.06857,28.02779,-28.30672,-30.19158,0.0000,,,,0.0415,,,,,,"[0.000, 0.000, 0.000, 0.000, 0.000, 0.000]",0x000000,5.5450,0,0,0.000000,0.000000,0.000000,0.0000,NO
111,5.5950,5.5950,0.0500,0.050,APPROACHING,0,876.11,700.29,716.25,47.35,77.10,-106.87,0.87611,0.70029,0.71625,0.82645,1.34560,-1.86526,-0.01869,-0.07456,-0.06857,-28.02779,28.30672,30.19158,0.00000,0.00000,0.00000,0.00000,0.00000,0.00000,0.00000,0.00000,0.00000,0.00000,0.00000,0.00000,0.87611,0.70029,0.71625,-0.82645,-1.34560,1.86526,0.01869,0.07456,0.06857,28.02779,-28.30672,-30.19158,0.0000,,,,0.0416,,,,,,"[0.000, 0.000, 0.000, 0.000, 0.000, 0.000]",0x000000,5.5950,0,0,0.000000,0.000000,0.000000,0.0000,NO
112,5.6450,5.6450,0.0500,0.050,APPROACHING,0,875.18,696.57,712.82,66.49,-2.89,39.30,0.87518,0.69657,0.71282,1.16051,-0.05051,0.68599,-0.01869,-0.07456,-0.06857,-28.02779,28.30672,30.19158,0.00000,0.00000,0.00000,0.00000,0.00000,0.00000,0.00000,0.00000,0.00000,0.00000,0.00000,0.00000,0.87518,0.69657,0.71282,-1.16051,0.05051,-0.68599,0.01869,0.07456,0.06857,28.02779,-28.30672,-30.19158,0.0000,,,,0.0415,,,,,,"[0.000, 0.000, 0.000, 0.000, 0.000, 0.000]",0x000000,5.6450,0,0,0.000000,0.000000,0.000000,0.0000,NO
113,5.6950,5.6950,0.0500,0.050,APPROACHING,0,874.25,692.84,709.40,-9.91,35.61,143.93,0.87425,0.69284,0.70940,-0.17301,0.62144,2.51212,-0.01869,-0.07456,-0.06857,-28.02779,28.30672,30.19158,0.00000,0.00000,0.00000,0.00000,0.00000,0.00000,0.00000,0.00000,0.00000,0.00000,0.00000,0.00000,0.87425,0.69284,0.70940,0.17301,-0.62144,-2.51212,0.01869,0.07456,0.06857,28.02779,-28.30672,-30.19158,0.0000,,,,0.0415,,,,,,"[0.000, 0.000, 0.000, 0.000, 0.000, 0.000]",0x000000,5.6950,0,0,0.000000,0.000000,0.000000,0.0000,NO
114,5.7450,5.7450,0.0500,0.050,APPROACHING,0,873.31,689.11,705.97,96.48,36.46,-8.66,0.87331,0.68911,0.70597,1.68390,0.63641,-0.15114,-0.01869,-0.07456,-0.06857,-28.02779,28.30672,30.19158,0.00000,0.00000,0.00000,0.00000,0.00000,0.00000,0.00000,0.00000,0.00000,0.00000,0.00000,0.00000,0.87331,0.68911,0.70597,-1.68390,-0.63641,0.15114,0.01869,0.07456,0.06857,28.02779,-28.30672,-30.19158,0.0000,,,,0.0415,,,,,,"[0.000, 0.000, 0.000, 0.000, 0.000, 0.000]",0x000000,5.7450,0,0,0.000000,0.000000,0.000000,0.0000,NO
