Time,Current_X,Current_Y,Current_Z,Current_Roll,Current_Pitch,Current_Yaw,Current_VX,Current_VY,Current_VZ,Current_WX,Current_WY,Current_WZ,Target_X,Target_Y,Target_Z,Target_Roll,Target_Pitch,Target_Yaw,Error_X,Error_Y,Error_Z,Error_Roll,Error_Pitch,Error_Yaw,Command_Vector,Thruster_1_Cmd,Thruster_1_Val,Thruster_2_Cmd,Thruster_2_Val,Thruster_3_Cmd,Thruster_3_Val,Thruster_4_Cmd,Thruster_4_Val,Thruster_5_Cmd,Thruster_5_Val,Thruster_6_Cmd,Thruster_6_Val
0.0050,1.00000,1.00000,1.00000,0.00000,0.00000,1.57080,0.00000,0.00000,0.00000,0.00000,0.00000,0.00000,0.00000,0.00000,0.00000,0.00000,0.00000,1.57080,-1.00000,-1.00000,-1.00000,0.00000,0.00000,0.00000,"[0.000, 0.000, 0.000, 0.000, 0.000, 0.000]",0.000,0.000,0.000,0.000,0.000,0.000,0.000,0.000,0.000,0.000,0.000,0.000
0.0100,1.00000,1.00000,1.00000,0.00000,0.00000,1.57080,0.00000,0.00000,0.00000,0.00000,0.00000,0.00000,0.00000,0.00000,0.00000,0.00000,0.00000,1.57080,-1.00000,-1.00000,-1.00000,0.00000,0.00000,0.00000,"[0.000, 0.000, 0.000, 0.000, 0.000, 0.000]",0.000,0.000,0.000,0.000,0.000,0.000,0.000,0.000,0.000,0.000,0.000,0.000
0.0150,1.00000,1.00000,1.00000,0.00000,0.00000,1.57080,0.00000,0.00000,0.00000,0.00000,0.00000,0.00000,0.00000,0.00000,0.00000,0.00000,0.00000,1.57080,-1.00000,-1.00000,-1.00000,0.00000,0.00000,0.00000,"[0.000, 0.000, 0.000, 0.000, 0.000, 0.000]",0.000,0.000,0.000,0.000,0.000,0.000,0.000,0.000,0.000,0.000,0.000,0.000
0.0200,1.00000,1.00000,1.00000,0.00000,0.00000,1.57080,0.00000,0.00000,0.00000,0.00000,0.00000,0.00000,0.00000,0.00000,0.00000,0.00000,0.00000,1.57080,-1.00000,-1.00000,-1.00000,0.00000,0.00000,0.00000,"[0.000, 0.000, 0.000, 0.000, 0.000, 0.000]",0.000,0.000,0.000,0.000,0.000,0.000,0.000,0.000,0.000,0.000,0.000,0.000
0.0250,1.00000,1.00000,1.00000,0.00000,0.00000,1.57080,0.00000,0.00000,0.00000,0.00000,0.00000,0.00000,0.00000,0.00000,0.00000,0.00000,0.00000,1.57080,-1.00000,-1.00000,-1.00000,0.00000,0.00000,0.00000,"[0.000, 0.000, 0.000, 0.000, 0.000, 0.000]",0.000,0.000,0.000,0.000,0.000,0.000,0.000,0.000,0.000,0.000,0.000,0.000
0.0300,1.00000,1.00000,1.00000,0.00000,0.00000,1.57080,0.00000,0.00000,0.00000,0.00000,0.00000,0.00000,0.00000,0.00000,0.00000,0.00000,0.00000,1.57080,-1.00000,-1.00000,-1.00000,0.00000,0.00000,0.00000,"[0.000, 0.000, 0.000, 0.000, 0.000, 0.000]",0.000,0.000,0.000,0.000,0.000,0.000,0.000,0.000,0.000,0.000,0.000,0.000
0.0350,1.00000,1.00000,1.00000,0.00000,0.00000,1.57080,0.00000,0.00000,0.00000,0.00000,0.00000,0.00000,0.00000,0.00000,0.00000,0.00000,0.00000,1.57080,-1.00000,-1.00000,-1.00000,0.00000,0.00000,0.00000,"[0.000, 0.000, 0.000, 0.000, 0.000, 0.000]",0.000,0.000,0.000,0.000,0.000,0.000,0.000,0.000,0.000,0.000,0.000,0.000
0.0400,1.00000,1.00000,1.00000,0.00000,0.00000,1.57080,0.00000,0.00000,0.00000,0.00000,0.00000,0.00000,0.00000,0.00000,0.00000,0.00000,0.00000,1.57080,-1.00000,-1.00000,-1.00000,0.00000,0.00000,0.00000,"[0.000, 0.000, 0.000, 0.000, 0.000, 0.000]",0.000,0.000,0.000,0.000,0.000,0.000,0.000,0.000,0.000,0.000,0.000,0.000
0.0450,1.00000,1.00000,1.00000,0.00000,0.00000,1.57080,0.00000,0.00000,0.00000,0.00000,0.00000,0.00000,0.00000,0.00000,0.00000,0.00000,0.00000,1.57080,-1.00000,-1.00000,-1.00000,0.00000,0.00000,0.00000,"[0.000, 0.000, 0.000, 0.000, 0.000, 0.000]",0.000,0.000,0.000,0.000,0.000,0.000,0.000,0.000,0.000,0.000,0.000,0.000
0.0500,1.00000,1.00000,1.00000,-0.00000,0.00000,1.57080,-0.00025,-0.00025,-0.00025,-0.00031,0.00031,0.00178,0.00000,0.00000,0.00000,0.00000,0.00000,0.00000,-1.00000,-1.00000,-1.00000,0.00000,-0.00000,-1.57080,"[1.000, 0.000, 0.000, 1.000, 1.000, 0.000]",1.000,1.000,0.000,0.000,0.000,0.000,1.000,1.000,1.000,1.000,0.000,0.000
0.0550,1.00000,1.00000,1.00000,-0.00000,0.00000,1.57081,-0.00050,-0.00050,-0.00050,-0.00063,0.00063,0.00355,0.00000,0.00000,0.00000,0.00000,0.00000,0.00000,-1.00000,-1.00000,-1.00000,0.00000,-0.00000,-1.57081,"[1.000, 0.000, 0.000, 1.000, 1.000, 0.000]",1.000,1.000,0.000,0.000,0.000,0.000,1.000,1.000,1.000,1.000,0.000,0.000
0.0600,0.99999,0.99999,0.99999,-0.00001,0.00001,1.57084,-0.00075,-0.00075,-0.00075,-0.00094,0.00094,0.00533,0.00000,0.00000,0.00000,0.00000,0.00000,0.00000,-0.99999,-0.99999,-0.99999,0.00001,-0.00001,-1.57084,"[1.000, 0.000, 0.000, 1.000, 1.000, 0.000]",1.000,1.000,0.000,0.000,0.000,0.000,1.000,1.000,1.000,1.000,0.000,0.000
0.0650,0.99999,0.99999,0.99999,-0.00001,0.00001,1.57087,-0.00100,-0.00100,-0.00100,-0.00125,0.00125,0.00711,0.00000,0.00000,0.00000,0.00000,0.00000,0.00000,-0.99999,-0.99999,-0.99999,0.00001,-0.00001,-1.57087,"[1.000, 0.000, 0.000, 1.000, 1.000, 0.000]",1.000,1.000,0.000,0.000,0.000,0.000,1.000,1.000,1.000,1.000,0.000,0.000
0.0700,0.99998,0.99998,0.99998,-0.00002,0.00002,1.57091,-0.00125,-0.00125,-0.00125,-0.00157,0.00157,0.00888,0.00000,0.00000,0.00000,0.00000,0.00000,0.00000,-0.99998,-0.99998,-0.99998,0.00002,-0.00002,-1.57091,"[1.000, 0.000, 0.000, 1.000, 1.000, 0.000]",1.000,1.000,0.000,0.000,0.000,0.000,1.000,1.000,1.000,1.000,0.000,0.000
0.0750,0.99998,0.99998,0.99998,-0.00003,0.00003,1.57096,-0.00150,-0.00150,-0.00150,-0.00188,0.00188,0.01066,0.00000,0.00000,0.00000,0.00000,0.00000,0.00000,-0.99998,-0.99998,-0.99998,0.00003,-0.00003,-1.57096,"[1.000, 0.000, 0.000, 1.000, 1.000, 0.000]",1.000,1.000,0.000,0.000,0.000,0.000,1.000,1.000,1.000,1.000,0.000,0.000
0.0800,0.99997,0.99997,0.99997,-0.00004,0.00004,1.57101,-0.00175,-0.00175,-0.00175,-0.00220,0.00220,0.01244,0.00000,0.00000,0.00000,0.00000,0.00000,0.00000,-0.99997,-0.99997,-0.99997,0.00004,-0.00004,-1.57101,"[1.000, 0.000, 0.000, 1.000, 1.000, 0.000]",1.000,1.000,0.000,0.000,0.000,0.000,1.000,1.000,1.000,1.000,0.000,0.000
0.0850,0.99996,0.99996,0.99996,-0.00005,0.00005,1.57108,-0.00200,-0.00200,-0.00200,-0.00251,0.00251,0.01421,0.00000,0.00000,0.00000,0.00000,0.00000,0.00000,-0.99996,-0.99996,-0.99996,0.00005,-0.00005,-1.57108,"[1.000, 0.000, 0.000, 1.000, 1.000, 0.000]",1.000,1.000,0.000,0.000,0.000,0.000,1.000,1.000,1.000,1.000,0.000,0.000
0.0900,0.99995,0.99995,0.99995,-0.00006,0.00006,1.57116,-0.00225,-0.00225,-0.00225,-0.00282,0.00282,0.01599,0.00000,0.00000,0.00000,0.00000,0.00000,0.00000,-0.99995,-0.99995,-0.99995,0.00006,-0.00006,-1.57116,"[1.000, 0.000, 0.000, 1.000, 1.000, 0.000]",1.000,1.000,0.000,0.000,0.000,0.000,1.000,1.000,1.000,1.000,0.000,0.000
0.0950,0.99994,0.99994,0.99994,-0.00008,0.00008,1.57124,-0.00250,-0.00250,-0.00250,-0.00314,0.00314,0.01777,0.00000,0.00000,0.00000,0.00000,0.00000,0.00000,-0.99994,-0.99994,-0.99994,0.00008,-0.00008,-1.57124,"[1.000, 0.000, 0.000, 1.000, 1.000, 0.000]",1.000,1.000,0.000,0.000,0.000,0.000,1.000,1.000,1.000,1.000,0.000,0.000
0.1000,0.99992,0.99992,0.99992,-0.00010,0.00010,1.57134,-0.00275,-0.00275,-0.00275,-0.00401,0.00401,0.02272,0.00000,0.00000,0.00000,0.00000,0.00000,0.00000,-0.99992,-0.99992,-0.99992,0.00010,-0.00010,-1.57134,"[0.998, 0.002, 0.002, 0.998, 0.998, 0.002]",0.998,0.998,0.002,0.002,0.002,0.002,0.998,0.998,0.998,0.998,0.002,0.002
0.1050,0.99991,0.99991,0.99991,-0.00012,0.00012,1.57147,-0.00300,-0.00300,-0.00300,-0.00488,0.00488,0.02766,0.00000,0.00000,0.00000,0.00000,0.00000,0.00000,-0.99991,-0.99991,-0.99991,0.00012,-0.00012,-1.57147,"[0.998, 0.002, 0.002, 0.998, 0.998, 0.002]",0.998,0.998,0.002,0.002,0.002,0.002,0.998,0.998,0.998,0.998,0.002,0.002
0.1100,0.99989,0.99989,0.99989,-0.00015,0.00015,1.57162,-0.00325,-0.00325,-0.00325,-0.00576,0.00576,0.03261,0.00000,0.00000,0.00000,0.00000,0.00000,0.00000,-0.99989,-0.99989,-0.99989,0.00015,-0.00015,-1.57162,"[0.998, 0.002, 0.002, 0.998, 0.998, 0.002]",0.998,0.998,0.002,0.002,0.002,0.002,0.998,0.998,0.998,0.998,0.002,0.002
0.1150,0.99988,0.99988,0.99988,-0.00018,0.00018,1.57179,-0.00350,-0.00350,-0.00350,-0.00663,0.00663,0.03756,0.00000,0.00000,0.00000,0.00000,0.00000,0.00000,-0.99988,-0.99988,-0.99988,0.00018,-0.00018,-1.57179,"[0.998, 0.002, 0.002, 0.998, 0.998, 0.002]",0.998,0.998,0.002,0.002,0.002,0.002,0.998,0.998,0.998,0.998,0.002,0.002
0.1200,0.99986,0.99986,0.99986,-0.00021,0.00021,1.57199,-0.00375,-0.00375,-0.00375,-0.00750,0.00750,0.04251,0.00000,0.00000,0.00000,0.00000,0.00000,0.00000,-0.99986,-0.99986,-0.99986,0.00021,-0.00021,-1.57199,"[0.998, 0.002, 0.002, 0.998, 0.998, 0.002]",0.998,0.998,0.002,0.002,0.002,0.002,0.998,0.998,0.998,0.998,0.002,0.002
0.1250,0.99984,0.99984,0.99984,-0.00025,0.00025,1.57222,-0.00400,-0.00400,-0.00400,-0.00838,0.00838,0.04745,0.00000,0.00000,0.00000,0.00000,0.00000,0.00000,-0.99984,-0.99984,-0.99984,0.00025,-0.00025,-1.57222,"[0.998, 0.002, 0.002, 0.998, 0.998, 0.002]",0.998,0.998,0.002,0.002,0.002,0.002,0.998,0.998,0.998,0.998,0.002,0.002
0.1300,0.99982,0.99982,0.99982,-0.00029,0.00030,1.57247,-0.00425,-0.00425,-0.00425,-0.00925,0.00925,0.05240,0.00000,0.00000,0.00000,0.00000,0.00000,0.00000,-0.99982,-0.99982,-0.99982,0.00029,-0.00030,-1.57247,"[0.998, 0.002, 0.002, 0.998, 0.998, 0.002]",0.998,0.998,0.002,0.002,0.002,0.002,0.998,0.998,0.998,0.998,0.002,0.002
0.1350,0.99980,0.99980,0.99980,-0.00034,0.00034,1.57274,-0.00450,-0.00450,-0.00450,-0.01013,0.01012,0.05735,0.00000,0.00000,0.00000,0.00000,0.00000,0.00000,-0.99980,-0.99980,-0.99980,0.00034,-0.00034,-1.57274,"[0.998, 0.002, 0.002, 0.998, 0.998, 0.002]",0.998,0.998,0.002,0.002,0.002,0.002,0.998,0.998,0.998,0.998,0.002,0.002
0.1400,0.99977,0.99977,0.99977,-0.00040,0.00040,1.57304,-0.00475,-0.00475,-0.00475,-0.01100,0.01100,0.06230,0.00000,0.00000,0.00000,0.00000,0.00000,0.00000,-0.99977,-0.99977,-0.99977,0.00040,-0.00040,-1.57304,"[0.998, 0.002, 0.002, 0.998, 0.998, 0.002]",0.998,0.998,0.002,0.002,0.002,0.002,0.998,0.998,0.998,0.998,0.002,0.002
0.1450,0.99975,0.99975,0.99975,-0.00045,0.00045,1.57337,-0.00500,-0.00500,-0.00500,-0.01187,0.01187,0.06724,0.00000,0.00000,0.00000,0.00000,0.00000,0.00000,-0.99975,-0.99975,-0.99975,0.00045,-0.00045,-1.57337,"[0.998, 0.002, 0.002, 0.998, 0.998, 0.002]",0.998,0.998,0.002,0.002,0.002,0.002,0.998,0.998,0.998,0.998,0.002,0.002
0.1500,0.99972,0.99972,0.99972,-0.00052,0.00052,1.57374,-0.00525,-0.00525,-0.00525,-0.01431,0.01430,0.08102,0.00000,0.00000,0.00000,0.00000,0.00000,0.00000,-0.99972,-0.99972,-0.99972,0.00052,-0.00052,-1.57374,"[0.998, 0.002, 0.002, 0.998, 0.998, 0.002]",0.998,0.998,0.002,0.002,0.002,0.002,0.998,0.998,0.998,0.998,0.002,0.002
0.1550,0.99970,0.99970,0.99970,-0.00060,0.00060,1.57418,-0.00549,-0.00551,-0.00550,-0.01674,0.01673,0.09480,0.00000,0.00000,0.00000,0.00000,0.00000,0.00000,-0.99970,-0.99970,-0.99970,0.00060,-0.00060,-1.57418,"[0.998, 0.002, 0.002, 0.998, 0.998, 0.002]",0.998,0.998,0.002,0.002,0.002,0.002,0.998,0.998,0.998,0.998,0.002,0.002
0.1600,0.99967,0.99967,0.99967,-0.00069,0.00069,1.57468,-0.00574,-0.00576,-0.00575,-0.01917,0.01917,0.10857,0.00000,0.00000,0.00000,0.00000,0.00000,0.00000,-0.99967,-0.99967,-0.99967,0.00069,-0.00069,-1.57468,"[0.998, 0.002, 0.002, 0.998, 0.998, 0.002]",0.998,0.998,0.002,0.002,0.002,0.002,0.998,0.998,0.998,0.998,0.002,0.002
0.1650,0.99964,0.99964,0.99964,-0.00079,0.00079,1.57526,-0.00599,-0.00601,-0.00600,-0.02160,0.02160,0.12235,0.00000,0.00000,0.00000,0.00000,0.00000,0.00000,-0.99964,-0.99964,-0.99964,0.00079,-0.00079,-1.57526,"[0.998, 0.002, 0.002, 0.998, 0.998, 0.002]",0.998,0.998,0.002,0.002,0.002,0.002,0.998,0.998,0.998,0.998,0.002,0.002
0.1700,0.99961,0.99961,0.99961,-0.00090,0.00090,1.57591,-0.00624,-0.00626,-0.00625,-0.02404,0.02403,0.13613,0.00000,0.00000,0.00000,0.00000,0.00000,0.00000,-0.99961,-0.99961,-0.99961,0.00090,-0.00090,-1.57591,"[0.998, 0.002, 0.002, 0.998, 0.998, 0.002]",0.998,0.998,0.002,0.002,0.002,0.002,0.998,0.998,0.998,0.998,0.002,0.002
0.1750,0.99958,0.99958,0.99958,-0.00103,0.00103,1.57662,-0.00649,-0.00651,-0.00650,-0.02647,0.02646,0.14991,0.00000,0.00000,0.00000,0.00000,0.00000,0.00000,-0.99958,-0.99958,-0.99958,0.00103,-0.00103,-1.57662,"[0.998, 0.002, 0.002, 0.998, 0.998, 0.002]",0.998,0.998,0.002,0.002,0.002,0.002,0.998,0.998,0.998,0.998,0.002,0.002
0.1800,0.99954,0.99954,0.99954,-0.00116,0.00117,1.57741,-0.00674,-0.00676,-0.00675,-0.02890,0.02889,0.16368,0.00000,0.00000,0.00000,0.00000,0.00000,0.00000,-0.99954,-0.99954,-0.99954,0.00116,-0.00117,-1.57741,"[0.998, 0.002, 0.002, 0.998, 0.998, 0.002]",0.998,0.998,0.002,0.002,0.002,0.002,0.998,0.998,0.998,0.998,0.002,0.002
0.1850,0.99951,0.99951,0.99951,-0.00131,0.00132,1.57826,-0.00699,-0.00701,-0.00700,-0.03134,0.03133,0.17746,0.00000,0.00000,0.00000,0.00000,0.00000,0.00000,-0.99951,-0.99951,-0.99951,0.00131,-0.00132,-1.57826,"[0.998, 0.002, 0.002, 0.998, 0.998, 0.002]",0.998,0.998,0.002,0.002,0.002,0.002,0.998,0.998,0.998,0.998,0.002,0.002
0.1900,0.99947,0.99947,0.99947,-0.00147,0.00149,1.57918,-0.00723,-0.00727,-0.00725,-0.03377,0.03376,0.19124,0.00000,0.00000,0.00000,0.00000,0.00000,0.00000,-0.99947,-0.99947,-0.99947,0.00147,-0.00149,-1.57918,"[0.998, 0.002, 0.002, 0.998, 0.998, 0.002]",0.998,0.998,0.002,0.002,0.002,0.002,0.998,0.998,0.998,0.998,0.002,0.002
0.1950,0.99944,0.99944,0.99944,-0.00165,0.00166,1.58017,-0.00748,-0.00752,-0.00750,-0.03620,0.03619,0.20501,0.00000,0.00000,0.00000,0.00000,0.00000,0.00000,-0.99944,-0.99944,-0.99944,0.00165,-0.00166,-1.58017,"[0.998, 0.002, 0.002, 0.998, 0.998, 0.002]",0.998,0.998,0.002,0.002,0.002,0.002,0.998,0.998,0.998,0.998,0.002,0.002
0.2000,0.99940,0.99940,0.99940,-0.00184,0.00186,1.58129,-0.00773,-0.00777,-0.00775,-0.04298,0.04296,0.24338,0.00000,0.00000,0.00000,0.00000,0.00000,0.00000,-0.99940,-0.99940,-0.99940,0.00184,-0.00186,-1.58129,"[0.998, 0.002, 0.002, 0.998, 0.998, 0.002]",0.998,0.998,0.002,0.002,0.002,0.002,0.998,0.998,0.998,0.998,0.002,0.002
0.2050,0.99936,0.99936,0.99936,-0.00207,0.00210,1.58260,-0.00798,-0.00802,-0.00800,-0.04975,0.04973,0.28174,0.00000,0.00000,0.00000,0.00000,0.00000,0.00000,-0.99936,-0.99936,-0.99936,0.00207,-0.00210,-1.58260,"[0.998, 0.002, 0.002, 0.998, 0.998, 0.002]",0.998,0.998,0.002,0.002,0.002,0.002,0.998,0.998,0.998,0.998,0.002,0.002
0.2100,0.99932,0.99932,0.99932,-0.00234,0.00237,1.58411,-0.00822,-0.00828,-0.00825,-0.05653,0.05650,0.32011,0.00000,0.00000,0.00000,0.00000,0.00000,0.00000,-0.99932,-0.99932,-0.99932,0.00234,-0.00237,-1.58411,"[0.998, 0.002, 0.002, 0.998, 0.998, 0.002]",0.998,0.998,0.002,0.002,0.002,0.002,0.998,0.998,0.998,0.998,0.002,0.002
0.2150,0.99928,0.99928,0.99928,-0.00263,0.00267,1.58580,-0.00847,-0.00853,-0.00850,-0.06330,0.06327,0.35847,0.00000,0.00000,0.00000,0.00000,0.00000,0.00000,-0.99928,-0.99928,-0.99928,0.00263,-0.00267,-1.58580,"[0.998, 0.002, 0.002, 0.998, 0.998, 0.002]",0.998,0.998,0.002,0.002,0.002,0.002,0.998,0.998,0.998,0.998,0.002,0.002
0.2200,0.99924,0.99923,0.99923,-0.00296,0.00301,1.58769,-0.00871,-0.00879,-0.00875,-0.07008,0.07004,0.39683,0.00000,0.00000,0.00000,0.00000,0.00000,0.00000,-0.99924,-0.99923,-0.99923,0.00296,-0.00301,-1.58769,"[0.998, 0.002, 0.002, 0.998, 0.998, 0.002]",0.998,0.998,0.002,0.002,0.002,0.002,0.998,0.998,0.998,0.998,0.002,0.002
0.2250,0.99919,0.99919,0.99919,-0.00332,0.00338,1.58977,-0.00896,-0.00904,-0.00900,-0.07686,0.07681,0.43520,0.00000,0.00000,0.00000,0.00000,0.00000,0.00000,-0.99919,-0.99919,-0.99919,0.00332,-0.00338,-1.58977,"[0.998, 0.002, 0.002, 0.998, 0.998, 0.002]",0.998,0.998,0.002,0.002,0.002,0.002,0.998,0.998,0.998,0.998,0.002,0.002
0.2300,0.99915,0.99914,0.99914,-0.00371,0.00379,1.59204,-0.00920,-0.00930,-0.00925,-0.08363,0.08358,0.47356,0.00000,0.00000,0.00000,0.00000,0.00000,0.00000,-0.99915,-0.99914,-0.99914,0.00371,-0.00379,-1.59204,"[0.998, 0.002, 0.002, 0.998, 0.998, 0.002]",0.998,0.998,0.002,0.002,0.002,0.002,0.998,0.998,0.998,0.998,0.002,0.002
0.2350,0.99910,0.99910,0.99910,-0.00414,0.00424,1.59450,-0.00945,-0.00955,-0.00950,-0.09041,0.09035,0.51193,0.00000,0.00000,0.00000,0.00000,0.00000,0.00000,-0.99910,-0.99910,-0.99910,0.00414,-0.00424,-1.59450,"[0.998, 0.002, 0.002, 0.998, 0.998, 0.002]",0.998,0.998,0.002,0.002,0.002,0.002,0.998,0.998,0.998,0.998,0.002,0.002
0.2400,0.99905,0.99905,0.99905,-0.00459,0.00472,1.59716,-0.00969,-0.00981,-0.00975,-0.09718,0.09712,0.55029,0.00000,0.00000,0.00000,0.00000,0.00000,0.00000,-0.99905,-0.99905,-0.99905,0.00459,-0.00472,-1.59716,"[0.998, 0.002, 0.002, 0.998, 0.998, 0.002]",0.998,0.998,0.002,0.002,0.002,0.002,0.998,0.998,0.998,0.998,0.002,0.002
0.2450,0.99900,0.99900,0.99900,-0.00508,0.00523,1.60000,-0.00993,-0.01007,-0.01000,-0.10396,0.10390,0.58866,0.00000,0.00000,0.00000,0.00000,0.00000,0.00000,-0.99900,-0.99900,-0.99900,0.00508,-0.00523,-1.60000,"[0.998, 0.002, 0.002, 0.998, 0.998, 0.002]",0.998,0.998,0.002,0.002,0.002,0.002,0.998,0.998,0.998,0.998,0.002,0.002
0.2500,0.99895,0.99895,0.99895,-0.00563,0.00582,1.60321,-0.01017,-0.01033,-0.01025,-0.12283,0.12275,0.69549,0.00000,0.00000,0.00000,0.00000,0.00000,0.00000,-0.99895,-0.99895,-0.99895,0.00563,-0.00582,-1.60321,"[0.998, 0.002, 0.002, 0.998, 0.998, 0.002]",0.998,0.998,0.002,0.002,0.002,0.002,0.998,0.998,0.998,0.998,0.002,0.002
0.2550,0.99890,0.99889,0.99890,-0.00627,0.00650,1.60695,-0.01041,-0.01059,-0.01050,-0.14170,0.14160,0.80232,0.00000,0.00000,0.00000,0.00000,0.00000,0.00000,-0.99890,-0.99889,-0.99890,0.00627,-0.00650,-1.60695,"[0.998, 0.002, 0.002, 0.998, 0.998, 0.002]",0.998,0.998,0.002,0.002,0.002,0.002,0.998,0.998,0.998,0.998,0.002,0.002
0.2600,0.99885,0.99884,0.99884,-0.00700,0.00728,1.61122,-0.01065,-0.01085,-0.01075,-0.16057,0.16045,0.90916,0.00000,0.00000,0.00000,0.00000,0.00000,0.00000,-0.99885,-0.99884,-0.99884,0.00700,-0.00728,-1.61122,"[0.998, 0.002, 0.002, 0.998, 0.998, 0.002]",0.998,0.998,0.002,0.002,0.002,0.002,0.998,0.998,0.998,0.998,0.002,0.002
0.2650,0.99879,0.99879,0.99879,-0.00781,0.00817,1.61603,-0.01089,-0.01111,-0.01100,-0.17945,0.17930,1.01599,0.00000,0.00000,0.00000,0.00000,0.00000,0.00000,-0.99879,-0.99879,-0.99879,0.00781,-0.00817,-1.61603,"[0.998, 0.002, 0.002, 0.998, 0.998, 0.002]",0.998,0.998,0.002,0.002,0.002,0.002,0.998,0.998,0.998,0.998,0.002,0.002
0.2700,0.99874,0.99873,0.99873,-0.00871,0.00915,1.62137,-0.01113,-0.01137,-0.01125,-0.19832,0.19815,1.12282,0.00000,0.00000,0.00000,0.00000,0.00000,0.00000,-0.99874,-0.99873,-0.99873,0.00871,-0.00915,-1.62137,"[0.998, 0.002, 0.002, 0.998, 0.998, 0.002]",0.998,0.998,0.002,0.002,0.002,0.002,0.998,0.998,0.998,0.998,0.002,0.002
0.2750,0.99868,0.99867,0.99868,-0.00969,0.01025,1.62724,-0.01136,-0.01163,-0.01150,-0.21719,0.21700,1.22966,0.00000,0.00000,0.00000,0.00000,0.00000,0.00000,-0.99868,-0.99867,-0.99868,0.00969,-0.01025,-1.62724,"[0.998, 0.002, 0.002, 0.998, 0.998, 0.002]",0.998,0.998,0.002,0.002,0.002,0.002,0.998,0.998,0.998,0.998,0.002,0.002
0.2800,0.99863,0.99861,0.99862,-0.01075,0.01144,1.63364,-0.01159,-0.01190,-0.01175,-0.23606,0.23585,1.33649,0.00000,0.00000,0.00000,0.00000,0.00000,0.00000,-0.99863,-0.99861,-0.99862,0.01075,-0.01144,-1.63364,"[0.998, 0.002, 0.002, 0.998, 0.998, 0.002]",0.998,0.998,0.002,0.002,0.002,0.002,0.998,0.998,0.998,0.998,0.002,0.002
0.2850,0.99857,0.99855,0.99856,-0.01190,0.01275,1.64058,-0.01183,-0.01217,-0.01200,-0.25493,0.25470,1.44332,0.00000,0.00000,0.00000,0.00000,0.00000,0.00000,-0.99857,-0.99855,-0.99856,0.01190,-0.01275,-1.64058,"[0.998, 0.002, 0.002, 0.998, 0.998, 0.002]",0.998,0.998,0.002,0.002,0.002,0.002,0.998,0.998,0.998,0.998,0.002,0.002
0.2900,0.99851,0.99849,0.99850,-0.01312,0.01416,1.64805,-0.01205,-0.01244,-0.01225,-0.27381,0.27355,1.55016,0.00000,0.00000,0.00000,0.00000,0.00000,0.00000,-0.99851,-0.99849,-0.99850,0.01312,-0.01416,-1.64805,"[0.998, 0.002, 0.002, 0.998, 0.998, 0.002]",0.998,0.998,0.002,0.002,0.002,0.002,0.998,0.998,0.998,0.998,0.002,0.002
0.2950,0.99845,0.99843,0.99844,-0.01442,0.01569,1.65605,-0.01228,-0.01271,-0.01250,-0.29268,0.29241,1.65699,0.00000,0.00000,0.00000,0.00000,0.00000,0.00000,-0.99845,-0.99843,-0.99844,0.01442,-0.01569,-1.65605,"[0.998, 0.002, 0.002, 0.998, 0.998, 0.002]",0.998,0.998,0.002,0.002,0.002,0.002,0.998,0.998,0.998,0.998,0.002,0.002
0.3000,0.99839,0.99837,0.99838,-0.01574,0.01728,1.66431,-0.01228,-0.01271,-0.01250,-0.29268,0.29241,1.65699,0.00000,0.00000,0.00000,0.00000,0.00000,0.00000,-0.99839,-0.99837,-0.99838,0.01574,-0.01728,-1.66431,"[0.000, 0.000, 0.000, 0.000, 0.000, 0.000]",0.000,0.000,0.000,0.000,0.000,0.000,0.000,0.000,0.000,0.000,0.000,0.000
0.3050,0.99832,0.99830,0.99831,-0.01706,0.01887,1.67257,-0.01228,-0.01271,-0.01250,-0.29268,0.29241,1.65699,0.00000,0.00000,0.00000,0.00000,0.00000,0.00000,-0.99832,-0.99830,-0.99831,0.01706,-0.01887,-1.67257,"[0.000, 0.000, 0.000, 0.000, 0.000, 0.000]",0.000,0.000,0.000,0.000,0.000,0.000,0.000,0.000,0.000,0.000,0.000,0.000
0.3100,0.99826,0.99824,0.99825,-0.01836,0.02048,1.68083,-0.01228,-0.01271,-0.01250,-0.29268,0.29241,1.65699,0.00000,0.00000,0.00000,0.00000,0.00000,0.00000,-0.99826,-0.99824,-0.99825,0.01836,-0.02048,-1.68083,"[0.000, 0.000, 0.000, 0.000, 0.000, 0.000]",0.000,0.000,0.000,0.000,0.000,0.000,0.000,0.000,0.000,0.000,0.000,0.000
0.3150,0.99820,0.99817,0.99819,-0.01965,0.02210,1.68909,-0.01228,-0.01271,-0.01250,-0.29268,0.29241,1.65699,0.00000,0.00000,0.00000,0.00000,0.00000,0.00000,-0.99820,-0.99817,-0.99819,0.01965,-0.02210,-1.68909,"[0.000, 0.000, 0.000, 0.000, 0.000, 0.000]",0.000,0.000,0.000,0.000,0.000,0.000,0.000,0.000,0.000,0.000,0.000,0.000
0.3200,0.99814,0.99811,0.99813,-0.02092,0.02373,1.69734,-0.01228,-0.01271,-0.01250,-0.29268,0.29241,1.65699,0.00000,0.00000,0.00000,0.00000,0.00000,0.00000,-0.99814,-0.99811,-0.99813,0.02092,-0.02373,-1.69734,"[0.000, 0.000, 0.000, 0.000, 0.000, 0.000]",0.000,0.000,0.000,0.000,0.000,0.000,0.000,0.000,0.000,0.000,0.000,0.000
0.3250,0.99808,0.99805,0.99806,-0.02218,0.02537,1.70560,-0.01228,-0.01271,-0.01250,-0.29268,0.29241,1.65699,0.00000,0.00000,0.00000,0.00000,0.00000,0.00000,-0.99808,-0.99805,-0.99806,0.02218,-0.02537,-1.70560,"[0.000, 0.000, 0.000, 0.000, 0.000, 0.000]",0.000,0.000,0.000,0.000,0.000,0.000,0.000,0.000,0.000,0.000,0.000,0.000
0.3300,0.99802,0.99798,0.99800,-0.02343,0.02702,1.71385,-0.01228,-0.01271,-0.01250,-0.29268,0.29241,1.65699,0.00000,0.00000,0.00000,0.00000,0.00000,0.00000,-0.99802,-0.99798,-0.99800,0.02343,-0.02702,-1.71385,"[0.000, 0.000, 0.000, 0.000, 0.000, 0.000]",0.000,0.000,0.000,0.000,0.000,0.000,0.000,0.000,0.000,0.000,0.000,0.000
0.3350,0.99796,0.99792,0.99794,-0.02466,0.02868,1.72210,-0.01228,-0.01271,-0.01250,-0.29268,0.29241,1.65699,0.00000,0.00000,0.00000,0.00000,0.00000,0.00000,-0.99796,-0.99792,-0.99794,0.02466,-0.02868,-1.72210,"[0.000, 0.000, 0.000, 0.000, 0.000, 0.000]",0.000,0.000,0.000,0.000,0.000,0.000,0.000,0.000,0.000,0.000,0.000,0.000
0.3400,0.99789,0.99786,0.99788,-0.02588,0.03035,1.73035,-0.01228,-0.01271,-0.01250,-0.29268,0.29241,1.65699,0.00000,0.00000,0.00000,0.00000,0.00000,0.00000,-0.99789,-0.99786,-0.99788,0.02588,-0.03035,-1.73035,"[0.000, 0.000, 0.000, 0.000, 0.000, 0.000]",0.000,0.000,0.000,0.000,0.000,0.000,0.000,0.000,0.000,0.000,0.000,0.000
0.3450,0.99783,0.99779,0.99781,-0.02709,0.03203,1.73860,-0.01228,-0.01271,-0.01250,-0.29268,0.29241,1.65699,0.00000,0.00000,0.00000,0.00000,0.00000,0.00000,-0.99783,-0.99779,-0.99781,0.02709,-0.03203,-1.73860,"[0.000, 0.000, 0.000, 0.000, 0.000, 0.000]",0.000,0.000,0.000,0.000,0.000,0.000,0.000,0.000,0.000,0.000,0.000,0.000
0.3500,0.99777,0.99773,0.99775,-0.02840,0.03387,1.74713,-0.01248,-0.01301,-0.01275,-0.34513,0.34502,1.77589,0.00000,0.00000,0.00000,0.00000,0.00000,0.00000,-0.99777,-0.99773,-0.99775,0.02840,-0.03387,-1.74713,"[1.000, 0.000, 0.000, 1.000, 1.000, 0.000]",1.000,1.000,0.000,0.000,0.000,0.000,1.000,1.000,1.000,1.000,0.000,0.000
0.3550,0.99771,0.99766,0.99769,-0.02994,0.03599,1.75626,-0.01267,-0.01330,-0.01300,-0.39759,0.39764,1.89480,0.00000,0.00000,0.00000,0.00000,0.00000,0.00000,-0.99771,-0.99766,-0.99769,0.02994,-0.03599,-1.75626,"[1.000, 0.000, 0.000, 1.000, 1.000, 0.000]",1.000,1.000,0.000,0.000,0.000,0.000,1.000,1.000,1.000,1.000,0.000,0.000
0.3600,0.99764,0.99760,0.99762,-0.03170,0.03841,1.76597,-0.01286,-0.01360,-0.01324,-0.45005,0.45025,2.01370,0.00000,0.00000,0.00000,0.00000,0.00000,0.00000,-0.99764,-0.99760,-0.99762,0.03170,-0.03841,-1.76597,"[1.000, 0.000, 0.000, 1.000, 1.000, 0.000]",1.000,1.000,0.000,0.000,0.000,0.000,1.000,1.000,1.000,1.000,0.000,0.000
0.3650,0.99758,0.99753,0.99755,-0.03367,0.04113,1.77626,-0.01305,-0.01390,-0.01349,-0.50251,0.50287,2.13261,0.00000,0.00000,0.00000,0.00000,0.00000,0.00000,-0.99758,-0.99753,-0.99755,0.03367,-0.04113,-1.77626,"[1.000, 0.000, 0.000, 1.000, 1.000, 0.000]",1.000,1.000,0.000,0.000,0.000,0.000,1.000,1.000,1.000,1.000,0.000,0.000
0.3700,0.99751,0.99746,0.99748,-0.03585,0.04415,1.78713,-0.01323,-0.01421,-0.01374,-0.55496,0.55549,2.25151,0.00000,0.00000,0.00000,0.00000,0.00000,0.00000,-0.99751,-0.99746,-0.99748,0.03585,-0.04415,-1.78713,"[1.000, 0.000, 0.000, 1.000, 1.000, 0.000]",1.000,1.000,0.000,0.000,0.000,0.000,1.000,1.000,1.000,1.000,0.000,0.000
0.3750,0.99745,0.99738,0.99742,-0.03823,0.04749,1.79858,-0.01341,-0.01451,-0.01399,-0.60742,0.60810,2.37042,0.00000,0.00000,0.00000,0.00000,0.00000,0.00000,-0.99745,-0.99738,-0.99742,0.03823,-0.04749,-1.79858,"[1.000, 0.000, 0.000, 1.000, 1.000, 0.000]",1.000,1.000,0.000,0.000,0.000,0.000,1.000,1.000,1.000,1.000,0.000,0.000
0.3800,0.99738,0.99731,0.99734,-0.04081,0.05114,1.81061,-0.01359,-0.01482,-0.01423,-0.65988,0.66072,2.48932,0.00000,0.00000,0.00000,0.00000,0.00000,0.00000,-0.99738,-0.99731,-0.99734,0.04081,-0.05114,-1.81061,"[1.000, 0.000, 0.000, 1.000, 1.000, 0.000]",1.000,1.000,0.000,0.000,0.000,0.000,1.000,1.000,1.000,1.000,0.000,0.000
0.3850,0.99731,0.99724,0.99727,-0.04357,0.05511,1.82321,-0.01376,-0.01514,-0.01448,-0.71233,0.71333,2.60823,0.00000,0.00000,0.00000,0.00000,0.00000,0.00000,-0.99731,-0.99724,-0.99727,0.04357,-0.05511,-1.82321,"[1.000, 0.000, 0.000, 1.000, 1.000, 0.000]",1.000,1.000,0.000,0.000,0.000,0.000,1.000,1.000,1.000,1.000,0.000,0.000
0.3900,0.99724,0.99716,0.99720,-0.04651,0.05940,1.83639,-0.01392,-0.01545,-0.01473,-0.76479,0.76595,2.72713,0.00000,0.00000,0.00000,0.00000,0.00000,0.00000,-0.99724,-0.99716,-0.99720,0.04651,-0.05940,-1.83639,"[1.000, 0.000, 0.000, 1.000, 1.000, 0.000]",1.000,1.000,0.000,0.000,0.000,0.000,1.000,1.000,1.000,1.000,0.000,0.000
0.3950,0.99717,0.99708,0.99713,-0.04961,0.06403,1.85015,-0.01408,-0.01577,-0.01497,-0.81725,0.81857,2.84604,0.00000,0.00000,0.00000,0.00000,0.00000,0.00000,-0.99717,-0.99708,-0.99713,0.04961,-0.06403,-1.85015,"[1.000, 0.000, 0.000, 1.000, 1.000, 0.000]",1.000,1.000,0.000,0.000,0.000,0.000,1.000,1.000,1.000,1.000,0.000,0.000
0.4000,0.99710,0.99700,0.99705,-0.05304,0.06916,1.86446,-0.01424,-0.01609,-0.01522,-0.93555,0.93807,2.96494,0.00000,0.00000,0.00000,0.00000,0.00000,0.00000,-0.99710,-0.99700,-0.99705,0.05304,-0.06916,-1.86446,"[1.000, 0.000, 0.000, 1.000, 1.000, 0.000]",1.000,1.000,0.000,0.000,0.000,0.000,1.000,1.000,1.000,1.000,0.000,0.000
0.4050,0.99703,0.99692,0.99697,-0.05695,0.07497,1.87933,-0.01438,-0.01642,-0.01546,-1.05385,1.05758,3.08385,0.00000,0.00000,0.00000,0.00000,0.00000,0.00000,-0.99703,-0.99692,-0.99697,0.05695,-0.07497,-1.87933,"[1.000, 0.000, 0.000, 1.000, 1.000, 0.000]",1.000,1.000,0.000,0.000,0.000,0.000,1.000,1.000,1.000,1.000,0.000,0.000
0.4100,0.99696,0.99684,0.99690,-0.06131,0.08148,1.89473,-0.01453,-0.01674,-0.01571,-1.17215,1.17709,3.20276,0.00000,0.00000,0.00000,0.00000,0.00000,0.00000,-0.99696,-0.99684,-0.99690,0.06131,-0.08148,-1.89473,"[1.000, 0.000, 0.000, 1.000, 1.000, 0.000]",1.000,1.000,0.000,0.000,0.000,0.000,1.000,1.000,1.000,1.000,0.000,0.000
0.4150,0.99688,0.99675,0.99682,-0.06611,0.08869,1.91067,-0.01466,-0.01708,-0.01595,-1.29045,1.29659,3.32166,0.00000,0.00000,0.00000,0.00000,0.00000,0.00000,-0.99688,-0.99675,-0.99682,0.06611,-0.08869,-1.91067,"[1.000, 0.000, 0.000, 1.000, 1.000, 0.000]",1.000,1.000,0.000,0.000,0.000,0.000,1.000,1.000,1.000,1.000,0.000,0.000
0.4200,0.99681,0.99667,0.99674,-0.07134,0.09661,1.92714,-0.01479,-0.01741,-0.01619,-1.40875,1.41610,3.44057,0.00000,0.00000,0.00000,0.00000,0.00000,0.00000,-0.99681,-0.99667,-0.99674,0.07134,-0.09661,-1.92714,"[1.000, 0.000, 0.000, 1.000, 1.000, 0.000]",1.000,1.000,0.000,0.000,0.000,0.000,1.000,1.000,1.000,1.000,0.000,0.000
0.4250,0.99674,0.99658,0.99665,-0.07696,0.10527,1.94414,-0.01491,-0.01775,-0.01644,-1.52705,1.53561,3.55948,0.00000,0.00000,0.00000,0.00000,0.00000,0.00000,-0.99674,-0.99658,-0.99665,0.07696,-0.10527,-1.94414,"[1.000, 0.000, 0.000, 1.000, 1.000, 0.000]",1.000,1.000,0.000,0.000,0.000,0.000,1.000,1.000,1.000,1.000,0.000,0.000
0.4300,0.99666,0.99649,0.99657,-0.08298,0.11466,1.96164,-0.01503,-0.01809,-0.01668,-1.64535,1.65511,3.67838,0.00000,0.00000,0.00000,0.00000,0.00000,0.00000,-0.99666,-0.99649,-0.99657,0.08298,-0.11466,-1.96164,"[1.000, 0.000, 0.000, 1.000, 1.000, 0.000]",1.000,1.000,0.000,0.000,0.000,0.000,1.000,1.000,1.000,1.000,0.000,0.000
0.4350,0.99659,0.99640,0.99649,-0.08935,0.12482,1.97965,-0.01513,-0.01843,-0.01692,-1.76366,1.77462,3.79729,0.00000,0.00000,0.00000,0.00000,0.00000,0.00000,-0.99659,-0.99640,-0.99649,0.08935,-0.12482,-1.97965,"[1.000, 0.000, 0.000, 1.000, 1.000, 0.000]",1.000,1.000,0.000,0.000,0.000,0.000,1.000,1.000,1.000,1.000,0.000,0.000
0.4400,0.99651,0.99631,0.99640,-0.09606,0.13573,1.99816,-0.01523,-0.01878,-0.01715,-1.88196,1.89413,3.91620,0.00000,0.00000,0.00000,0.00000,0.00000,0.00000,-0.99651,-0.99631,-0.99640,0.09606,-0.13573,-1.99816,"[1.000, 0.000, 0.000, 1.000, 1.000, 0.000]",1.000,1.000,0.000,0.000,0.000,0.000,1.000,1.000,1.000,1.000,0.000,0.000
0.4450,0.99643,0.99621,0.99632,-0.10308,0.14743,2.01716,-0.01531,-0.01914,-0.01739,-2.00026,2.01363,4.03510,0.00000,0.00000,0.00000,0.00000,0.00000,0.00000,-0.99643,-0.99621,-0.99632,0.10308,-0.14743,-2.01716,"[1.000, 0.000, 0.000, 1.000, 1.000, 0.000]",1.000,1.000,0.000,0.000,0.000,0.000,1.000,1.000,1.000,1.000,0.000,0.000
0.4500,0.99636,0.99611,0.99623,-0.11040,0.15992,2.03664,-0.01539,-0.01949,-0.01763,-2.11856,2.13314,4.15401,0.00000,0.00000,0.00000,0.00000,0.00000,0.00000,-0.99636,-0.99611,-0.99623,0.11040,-0.15992,-2.03664,"[1.000, 0.000, 0.000, 1.000, 1.000, 0.000]",1.000,1.000,0.000,0.000,0.000,0.000,1.000,1.000,1.000,1.000,0.000,0.000
0.4550,0.99628,0.99602,0.99614,-0.11798,0.17321,2.05660,-0.01546,-0.01985,-0.01786,-2.23686,2.25265,4.27292,0.00000,0.00000,0.00000,0.00000,0.00000,0.00000,-0.99628,-0.99602,-0.99614,0.11798,-0.17321,-2.05660,"[1.000, 0.000, 0.000, 1.000, 1.000, 0.000]",1.000,1.000,0.000,0.000,0.000,0.000,1.000,1.000,1.000,1.000,0.000,0.000
0.4600,0.99620,0.99592,0.99605,-0.12580,0.18732,2.07702,-0.01551,-0.02021,-0.01809,-2.35516,2.37215,4.39182,0.00000,0.00000,0.00000,0.00000,0.00000,0.00000,-0.99620,-0.99592,-0.99605,0.12580,-0.18732,-2.07702,"[1.000, 0.000, 0.000, 1.000, 1.000, 0.000]",1.000,1.000,0.000,0.000,0.000,0.000,1.000,1.000,1.000,1.000,0.000,0.000
0.4650,0.99612,0.99581,0.99596,-0.13383,0.20226,2.09791,-0.01556,-0.02058,-0.01832,-2.47346,2.49166,4.51073,0.00000,0.00000,0.00000,0.00000,0.00000,0.00000,-0.99612,-0.99581,-0.99596,0.13383,-0.20226,-2.09791,"[1.000, 0.000, 0.000, 1.000, 1.000, 0.000]",1.000,1.000,0.000,0.000,0.000,0.000,1.000,1.000,1.000,1.000,0.000,0.000
0.4700,0.99605,0.99571,0.99587,-0.14204,0.21804,2.11926,-0.01559,-0.02095,-0.01854,-2.59176,2.61117,4.62963,0.00000,0.00000,0.00000,0.00000,0.00000,0.00000,-0.99605,-0.99571,-0.99587,0.14204,-0.21804,-2.11926,"[1.000, 0.000, 0.000, 1.000, 1.000, 0.000]",1.000,1.000,0.000,0.000,0.000,0.000,1.000,1.000,1.000,1.000,0.000,0.000
0.4750,0.99597,0.99560,0.99577,-0.15040,0.23467,2.14107,-0.01561,-0.02132,-0.01876,-2.71006,2.73067,4.74854,0.00000,0.00000,0.00000,0.00000,0.00000,0.00000,-0.99597,-0.99560,-0.99577,0.15040,-0.23467,-2.14107,"[1.000, 0.000, 0.000, 1.000, 1.000, 0.000]",1.000,1.000,0.000,0.000,0.000,0.000,1.000,1.000,1.000,1.000,0.000,0.000
0.4800,0.99589,0.99550,0.99568,-0.15888,0.25215,2.16333,-0.01562,-0.02169,-0.01898,-2.82837,2.85018,4.86744,0.00000,0.00000,0.00000,0.00000,0.00000,0.00000,-0.99589,-0.99550,-0.99568,0.15888,-0.25215,-2.16333,"[1.000, 0.000, 0.000, 1.000, 1.000, 0.000]",1.000,1.000,0.000,0.000,0.000,0.000,1.000,1.000,1.000,1.000,0.000,0.000
0.4850,0.99581,0.99539,0.99558,-0.16745,0.27051,2.18604,-0.01562,-0.02207,-0.01920,-2.94667,2.96969,4.98635,0.00000,0.00000,0.00000,0.00000,0.00000,0.00000,-0.99581,-0.99539,-0.99558,0.16745,-0.27051,-2.18604,"[1.000, 0.000, 0.000, 1.000, 1.000, 0.000]",1.000,1.000,0.000,0.000,0.000,0.000,1.000,1.000,1.000,1.000,0.000,0.000
0.4900,0.99573,0.99528,0.99549,-0.17608,0.28975,2.20921,-0.01560,-0.02244,-0.01941,-3.06497,3.08920,5.10525,0.00000,0.00000,0.00000,0.00000,0.00000,0.00000,-0.99573,-0.99528,-0.99549,0.17608,-0.28975,-2.20921,"[1.000, 0.000, 0.000, 1.000, 1.000, 0.000]",1.000,1.000,0.000,0.000,0.000,0.000,1.000,1.000,1.000,1.000,0.000,0.000
0.4950,0.99566,0.99516,0.99539,-0.18472,0.30987,2.23285,-0.01557,-0.02282,-0.01962,-3.18327,3.20870,5.22416,0.00000,0.00000,0.00000,0.00000,0.00000,0.00000,-0.99566,-0.99516,-0.99539,0.18472,-0.30987,-2.23285,"[1.000, 0.000, 0.000, 1.000, 1.000, 0.000]",1.000,1.000,0.000,0.000,0.000,0.000,1.000,1.000,1.000,1.000,0.000,0.000
0.5000,0.99558,0.99505,0.99529,-0.19334,0.33089,2.25695,-0.01582,-0.02283,-0.01997,-3.30157,3.32821,5.34306,0.00000,0.00000,0.00000,0.00000,0.00000,0.00000,-0.99558,-0.99505,-0.99529,0.19334,-0.33089,-2.25695,"[0.000, 1.000, 0.000, 1.000, 1.000, 0.000]",0.000,0.000,1.000,1.000,0.000,0.000,1.000,1.000,1.000,1.000,0.000,0.000
0.5050,0.99550,0.99493,0.99519,-0.20190,0.35280,2.28153,-0.01607,-0.02285,-0.02033,-3.41987,3.44772,5.46197,0.00000,0.00000,0.00000,0.00000,0.00000,0.00000,-0.99550,-0.99493,-0.99519,0.20190,-0.35280,-2.28153,"[0.000, 1.000, 0.000, 1.000, 1.000, 0.000]",0.000,0.000,1.000,1.000,0.000,0.000,1.000,1.000,1.000,1.000,0.000,0.000
0.5100,0.99542,0.99482,0.99509,-0.21037,0.37562,2.30661,-0.01630,-0.02287,-0.02069,-3.53818,3.56723,5.58087,0.00000,0.00000,0.00000,0.00000,0.00000,0.00000,-0.99542,-0.99482,-0.99509,0.21037,-0.37562,-2.30661,"[0.000, 1.000, 0.000, 1.000, 1.000, 0.000]",0.000,0.000,1.000,1.000,0.000,0.000,1.000,1.000,1.000,1.000,0.000,0.000
0.5150,0.99534,0.99471,0.99498,-0.21868,0.39934,2.33220,-0.01653,-0.02291,-0.02106,-3.65648,3.68673,5.69978,0.00000,0.00000,0.00000,0.00000,0.00000,0.00000,-0.99534,-0.99471,-0.99498,0.21868,-0.39934,-2.33220,"[0.000, 1.000, 0.000, 1.000, 1.000, 0.000]",0.000,0.000,1.000,1.000,0.000,0.000,1.000,1.000,1.000,1.000,0.000,0.000
0.5200,0.99525,0.99459,0.99488,-0.22681,0.42397,2.35833,-0.01674,-0.02296,-0.02143,-3.77478,3.80624,5.81868,0.00000,0.00000,0.00000,0.00000,0.00000,0.00000,-0.99525,-0.99459,-0.99488,0.22681,-0.42397,-2.35833,"[0.000, 1.000, 0.000, 1.000, 1.000, 0.000]",0.000,0.000,1.000,1.000,0.000,0.000,1.000,1.000,1.000,1.000,0.000,0.000
0.5250,0.99517,0.99448,0.99477,-0.23469,0.44951,2.38503,-0.01695,-0.02302,-0.02181,-3.89308,3.92575,5.93759,0.00000,0.00000,0.00000,0.00000,0.00000,0.00000,-0.99517,-0.99448,-0.99477,0.23469,-0.44951,-2.38503,"[0.000, 1.000, 0.000, 1.000, 1.000, 0.000]",0.000,0.000,1.000,1.000,0.000,0.000,1.000,1.000,1.000,1.000,0.000,0.000
0.5300,0.99508,0.99436,0.99466,-0.24226,0.47596,2.41233,-0.01714,-0.02309,-0.02219,-4.01138,4.04526,6.05649,0.00000,0.00000,0.00000,0.00000,0.00000,0.00000,-0.99508,-0.99436,-0.99466,0.24226,-0.47596,-2.41233,"[0.000, 1.000, 0.000, 1.000, 1.000, 0.000]",0.000,0.000,1.000,1.000,0.000,0.000,1.000,1.000,1.000,1.000,0.000,0.000
0.5350,0.99500,0.99425,0.99455,-0.24947,0.50331,2.44027,-0.01733,-0.02317,-0.02257,-4.12969,4.16477,6.17540,0.00000,0.00000,0.00000,0.00000,0.00000,0.00000,-0.99500,-0.99425,-0.99455,0.24947,-0.50331,-2.44027,"[0.000, 1.000, 0.000, 1.000, 1.000, 0.000]",0.000,0.000,1.000,1.000,0.000,0.000,1.000,1.000,1.000,1.000,0.000,0.000
0.5400,0.99491,0.99413,0.99443,-0.25625,0.53156,2.46892,-0.01750,-0.02326,-0.02296,-4.24799,4.28427,6.29430,0.00000,0.00000,0.00000,0.00000,0.00000,0.00000,-0.99491,-0.99413,-0.99443,0.25625,-0.53156,-2.46892,"[0.000, 1.000, 0.000, 1.000, 1.000, 0.000]",0.000,0.000,1.000,1.000,0.000,0.000,1.000,1.000,1.000,1.000,0.000,0.000
0.5450,0.99482,0.99401,0.99432,-0.26251,0.56071,2.49833,-0.01766,-0.02336,-0.02335,-4.36629,4.40378,6.41320,0.00000,0.00000,0.00000,0.00000,0.00000,0.00000,-0.99482,-0.99401,-0.99432,0.26251,-0.56071,-2.49833,"[0.000, 1.000, 0.000, 1.000, 1.000, 0.000]",0.000,0.000,1.000,1.000,0.000,0.000,1.000,1.000,1.000,1.000,0.000,0.000
0.5500,0.99473,0.99390,0.99420,-0.26816,0.59073,2.52859,-0.01780,-0.02347,-0.02374,-4.48459,4.52329,6.53211,0.00000,0.00000,0.00000,0.00000,0.00000,0.00000,-0.99473,-0.99390,-0.99420,0.26816,-0.59073,-2.52859,"[0.000, 1.000, 0.000, 1.000, 1.000, 0.000]",0.000,0.000,1.000,1.000,0.000,0.000,1.000,1.000,1.000,1.000,0.000,0.000
0.5550,0.99464,0.99378,0.99408,-0.27311,0.62163,2.55977,-0.01793,-0.02359,-0.02413,-4.60289,4.64280,6.65101,0.00000,0.00000,0.00000,0.00000,0.00000,0.00000,-0.99464,-0.99378,-0.99408,0.27311,-0.62163,-2.55977,"[0.000, 1.000, 0.000, 1.000, 1.000, 0.000]",0.000,0.000,1.000,1.000,0.000,0.000,1.000,1.000,1.000,1.000,0.000,0.000
0.5600,0.99455,0.99366,0.99396,-0.27724,0.65337,2.59201,-0.01805,-0.02373,-0.02453,-4.72120,4.76231,6.76991,0.00000,0.00000,0.00000,0.00000,0.00000,0.00000,-0.99455,-0.99366,-0.99396,0.27724,-0.65337,-2.59201,"[0.000, 1.000, 0.000, 1.000, 1.000, 0.000]",0.000,0.000,1.000,1.000,0.000,0.000,1.000,1.000,1.000,1.000,0.000,0.000
0.5650,0.99446,0.99354,0.99383,-0.28041,0.68595,2.62541,-0.01815,-0.02387,-0.02493,-4.83950,4.88181,6.88882,0.00000,0.00000,0.00000,0.00000,0.00000,0.00000,-0.99446,-0.99354,-0.99383,0.28041,-0.68595,-2.62541,"[0.000, 1.000, 0.000, 1.000, 1.000, 0.000]",0.000,0.000,1.000,1.000,0.000,0.000,1.000,1.000,1.000,1.000,0.000,0.000
0.5700,0.99437,0.99342,0.99371,-0.28245,0.71934,2.66015,-0.01823,-0.02402,-0.02533,-4.95780,5.00132,7.00772,0.00000,0.00000,0.00000,0.00000,0.00000,0.00000,-0.99437,-0.99342,-0.99371,0.28245,-0.71934,-2.66015,"[0.000, 1.000, 0.000, 1.000, 1.000, 0.000]",0.000,0.000,1.000,1.000,0.000,0.000,1.000,1.000,1.000,1.000,0.000,0.000
0.5750,0.99428,0.99330,0.99358,-0.28318,0.75350,2.69642,-0.01830,-0.02418,-0.02572,-5.07610,5.12083,7.12662,0.00000,0.00000,0.00000,0.00000,0.00000,0.00000,-0.99428,-0.99330,-0.99358,0.28318,-0.75350,-2.69642,"[0.000, 1.000, 0.000, 1.000, 1.000, 0.000]",0.000,0.000,1.000,1.000,0.000,0.000,1.000,1.000,1.000,1.000,0.000,0.000
0.5800,0.99419,0.99318,0.99345,-0.28235,0.78841,2.73445,-0.01834,-0.02434,-0.02612,-5.19441,5.24034,7.24553,0.00000,0.00000,0.00000,0.00000,0.00000,0.00000,-0.99419,-0.99318,-0.99345,0.28235,-0.78841,-2.73445,"[0.000, 1.000, 0.000, 1.000, 1.000, 0.000]",0.000,0.000,1.000,1.000,0.000,0.000,1.000,1.000,1.000,1.000,0.000,0.000
0.5850,0.99410,0.99306,0.99332,-0.27970,0.82400,2.77452,-0.01837,-0.02452,-0.02652,-5.31271,5.35985,7.36443,0.00000,0.00000,0.00000,0.00000,0.00000,0.00000,-0.99410,-0.99306,-0.99332,0.27970,-0.82400,-2.77452,"[0.000, 1.000, 0.000, 1.000, 1.000, 0.000]",0.000,0.000,1.000,1.000,0.000,0.000,1.000,1.000,1.000,1.000,0.000,0.000
0.5900,0.99401,0.99293,0.99319,-0.27487,0.86023,2.81699,-0.01838,-0.02470,-0.02691,-5.43101,5.47936,7.48333,0.00000,0.00000,0.00000,0.00000,0.00000,0.00000,-0.99401,-0.99293,-0.99319,0.27487,-0.86023,-2.81699,"[0.000, 1.000, 0.000, 1.000, 1.000, 0.000]",0.000,0.000,1.000,1.000,0.000,0.000,1.000,1.000,1.000,1.000,0.000,0.000
0.5950,0.99391,0.99281,0.99305,-0.26743,0.89702,2.86230,-0.01837,-0.02488,-0.02730,-5.54931,5.59887,7.60224,0.00000,0.00000,0.00000,0.00000,0.00000,0.00000,-0.99391,-0.99281,-0.99305,0.26743,-0.89702,-2.86230,"[0.000, 1.000, 0.000, 1.000, 1.000, 0.000]",0.000,0.000,1.000,1.000,0.000,0.000,1.000,1.000,1.000,1.000,0.000,0.000
0.6000,0.99382,0.99269,0.99291,-0.25686,0.93429,2.91100,-0.01873,-0.02510,-0.02739,-5.66762,5.71837,7.72114,0.00000,0.00000,0.00000,0.00000,0.00000,0.00000,-0.99382,-0.99269,-0.99291,0.25686,-0.93429,-2.91100,"[0.000, 1.000, 0.000, 1.000, 0.000, 1.000]",0.000,0.000,1.000,1.000,0.000,0.000,1.000,1.000,0.000,0.000,1.000,1.000
0.6050,0.99373,0.99256,0.99278,-0.24248,0.97190,2.96376,-0.01909,-0.02533,-0.02748,-5.78592,5.83788,7.84004,0.00000,0.00000,0.00000,0.00000,0.00000,0.00000,-0.99373,-0.99256,-0.99278,0.24248,-0.97190,-2.96376,"[0.000, 1.000, 0.000, 1.000, 0.000, 1.000]",0.000,0.000,1.000,1.000,0.000,0.000,1.000,1.000,0.000,0.000,1.000,1.000
0.6100,0.99363,0.99243,0.99264,-0.22343,1.00973,3.02146,-0.01943,-0.02557,-0.02758,-5.90422,5.95739,7.95894,0.00000,0.00000,0.00000,0.00000,0.00000,0.00000,-0.99363,-0.99243,-0.99264,0.22343,-1.00973,-3.02146,"[0.000, 1.000, 0.000, 1.000, 0.000, 1.000]",0.000,0.000,1.000,1.000,0.000,0.000,1.000,1.000,0.000,0.000,1.000,1.000
0.6150,0.99353,0.99230,0.99250,-0.19862,1.04756,3.08523,-0.01975,-0.02584,-0.02770,-6.02253,6.07690,8.07785,0.00000,0.00000,0.00000,0.00000,0.00000,0.00000,-0.99353,-0.99230,-0.99250,0.19862,-1.04756,-3.08523,"[0.000, 1.000, 0.000, 1.000, 0.000, 1.000]",0.000,0.000,1.000,1.000,0.000,0.000,1.000,1.000,0.000,0.000,1.000,1.000
0.6200,0.99343,0.99217,0.99236,-0.16663,1.08514,-3.12670,-0.02006,-0.02611,-0.02782,-6.14083,6.19641,8.19675,0.00000,0.00000,0.00000,0.00000,0.00000,0.00000,-0.99343,-0.99217,-0.99236,0.16663,-1.08514,3.12670,"[0.000, 1.000, 0.000, 1.000, 0.000, 1.000]",0.000,0.000,1.000,1.000,0.000,0.000,1.000,1.000,0.000,0.000,1.000,1.000
0.6250,0.99333,0.99204,0.99222,-0.12567,1.12212,-3.04612,-0.02036,-0.02641,-0.02794,-6.25913,6.31592,8.31565,0.00000,0.00000,0.00000,0.00000,0.00000,0.00000,-0.99333,-0.99204,-0.99222,0.12567,-1.12212,3.04612,"[0.000, 1.000, 0.000, 1.000, 0.000, 1.000]",0.000,0.000,1.000,1.000,0.000,0.000,1.000,1.000,0.000,0.000,1.000,1.000
0.6300,0.99323,0.99191,0.99208,-0.07344,1.15804,-2.95389,-0.02063,-0.02671,-0.02807,-6.37744,6.43543,8.43455,0.00000,0.00000,0.00000,0.00000,0.00000,0.00000,-0.99323,-0.99191,-0.99208,0.07344,-1.15804,2.95389,"[0.000, 1.000, 0.000, 1.000, 0.000, 1.000]",0.000,0.000,1.000,1.000,0.000,0.000,1.000,1.000,0.000,0.000,1.000,1.000
0.6350,0.99313,0.99178,0.99194,-0.00711,1.19225,-2.84715,-0.02089,-0.02703,-0.02821,-6.49574,6.55494,8.55345,0.00000,0.00000,0.00000,0.00000,0.00000,0.00000,-0.99313,-0.99178,-0.99194,0.00711,-1.19225,2.84715,"[0.000, 1.000, 0.000, 1.000, 0.000, 1.000]",0.000,0.000,1.000,1.000,0.000,0.000,1.000,1.000,0.000,0.000,1.000,1.000
0.6400,0.99302,0.99164,0.99180,0.07662,1.22386,-2.72256,-0.02113,-0.02737,-0.02835,-6.61404,6.67445,8.67235,0.00000,0.00000,0.00000,0.00000,0.00000,0.00000,-0.99302,-0.99164,-0.99180,-0.07662,-1.22386,2.72256,"[0.000, 1.000, 0.000, 1.000, 0.000, 1.000]",0.000,0.000,1.000,1.000,0.000,0.000,1.000,1.000,0.000,0.000,1.000,1.000
0.6450,0.99291,0.99150,0.99166,0.18107,1.25171,-2.57677,-0.02134,-0.02772,-0.02849,-6.73235,6.79396,8.79126,0.00000,0.00000,0.00000,0.00000,0.00000,0.00000,-0.99291,-0.99150,-0.99166,-0.18107,-1.25171,2.57677,"[0.000, 1.000, 0.000, 1.000, 0.000, 1.000]",0.000,0.000,1.000,1.000,0.000,0.000,1.000,1.000,0.000,0.000,1.000,1.000
0.6500,0.99281,0.99136,0.99152,0.30850,1.27431,-2.40746,-0.02153,-0.02807,-0.02864,-6.85065,6.91347,8.91016,0.00000,0.00000,0.00000,0.00000,0.00000,0.00000,-0.99281,-0.99136,-0.99152,-0.30850,-1.27431,2.40746,"[0.000, 1.000, 0.000, 1.000, 0.000, 1.000]",0.000,0.000,1.000,1.000,0.000,0.000,1.000,1.000,0.000,0.000,1.000,1.000
0.6550,0.99270,0.99122,0.99137,0.45821,1.28994,-2.21529,-0.02170,-0.02845,-0.02879,-6.96895,7.03298,9.02906,0.00000,0.00000,0.00000,0.00000,0.00000,0.00000,-0.99270,-0.99122,-0.99137,-0.45821,-1.28994,2.21529,"[0.000, 1.000, 0.000, 1.000, 0.000, 1.000]",0.000,0.000,1.000,1.000,0.000,0.000,1.000,1.000,0.000,0.000,1.000,1.000
0.6600,0.99259,0.99108,0.99123,0.62443,1.29695,-2.00597,-0.02184,-0.02883,-0.02893,-7.08726,7.15248,9.14796,0.00000,0.00000,0.00000,0.00000,0.00000,0.00000,-0.99259,-0.99108,-0.99123,-0.62443,-1.29695,2.00597,"[0.000, 1.000, 0.000, 1.000, 0.000, 1.000]",0.000,0.000,1.000,1.000,0.000,0.000,1.000,1.000,0.000,0.000,1.000,1.000
0.6650,0.99248,0.99093,0.99108,0.79601,1.29427,-1.79061,-0.02196,-0.02922,-0.02908,-7.20556,7.27199,9.26686,0.00000,0.00000,0.00000,0.00000,0.00000,0.00000,-0.99248,-0.99093,-0.99108,-0.79601,-1.29427,1.79061,"[0.000, 1.000, 0.000, 1.000, 0.000, 1.000]",0.000,0.000,1.000,1.000,0.000,0.000,1.000,1.000,0.000,0.000,1.000,1.000
0.6700,0.99237,0.99079,0.99094,0.95963,1.28174,-1.58245,-0.02206,-0.02961,-0.02922,-7.32386,7.39150,9.38576,0.00000,0.00000,0.00000,0.00000,0.00000,0.00000,-0.99237,-0.99079,-0.99094,-0.95963,-1.28174,1.58245,"[0.000, 1.000, 0.000, 1.000, 0.000, 1.000]",0.000,0.000,1.000,1.000,0.000,0.000,1.000,1.000,0.000,0.000,1.000,1.000
0.6750,0.99226,0.99064,0.99079,1.10481,1.26022,-1.39190,-0.02212,-0.03002,-0.02936,-7.44217,7.51101,9.50466,0.00000,0.00000,0.00000,0.00000,0.00000,0.00000,-0.99226,-0.99064,-0.99079,-1.10481,-1.26022,1.39190,"[0.000, 1.000, 0.000, 1.000, 0.000, 1.000]",0.000,0.000,1.000,1.000,0.000,0.000,1.000,1.000,0.000,0.000,1.000,1.000
0.6800,0.99215,0.99049,0.99064,1.22661,1.23109,-1.22383,-0.02216,-0.03043,-0.02950,-7.56047,7.63052,9.62356,0.00000,0.00000,0.00000,0.00000,0.00000,0.00000,-0.99215,-0.99049,-0.99064,-1.22661,-1.23109,1.22383,"[0.000, 1.000, 0.000, 1.000, 0.000, 1.000]",0.000,0.000,1.000,1.000,0.000,0.000,1.000,1.000,0.000,0.000,1.000,1.000
0.6850,0.99204,0.99033,0.99050,1.32488,1.19586,-1.07830,-0.02217,-0.03084,-0.02963,-7.67877,7.75003,9.74246,0.00000,0.00000,0.00000,0.00000,0.00000,0.00000,-0.99204,-0.99033,-0.99050,-1.32488,-1.19586,1.07830,"[0.000, 1.000, 0.000, 1.000, 0.000, 1.000]",0.000,0.000,1.000,1.000,0.000,0.000,1.000,1.000,0.000,0.000,1.000,1.000
0.6900,0.99193,0.99018,0.99035,1.40215,1.15586,-0.95271,-0.02215,-0.03126,-0.02975,-7.79708,7.86954,9.86136,0.00000,0.00000,0.00000,0.00000,0.00000,0.00000,-0.99193,-0.99018,-0.99035,-1.40215,-1.15586,0.95271,"[0.000, 1.000, 0.000, 1.000, 0.000, 1.000]",0.000,0.000,1.000,1.000,0.000,0.000,1.000,1.000,0.000,0.000,1.000,1.000
0.6950,0.99182,0.99002,0.99020,1.46173,1.11216,-0.84364,-0.02211,-0.03167,-0.02986,-7.91538,7.98905,9.98026,0.00000,0.00000,0.00000,0.00000,0.00000,0.00000,-0.99182,-0.99002,-0.99020,-1.46173,-1.11216,0.84364,"[0.000, 1.000, 0.000, 1.000, 0.000, 1.000]",0.000,0.000,1.000,1.000,0.000,0.000,1.000,1.000,0.000,0.000,1.000,1.000
0.7000,0.99171,0.98986,0.99005,1.50655,1.06586,-0.74842,-0.02211,-0.03167,-0.02986,-7.91538,7.98905,9.98026,0.00000,0.00000,0.00000,0.00000,0.00000,0.00000,-0.99171,-0.98986,-0.99005,-1.50655,-1.06586,0.74842,"[0.000, 0.000, 0.000, 0.000, 0.000, 0.000]",0.000,0.000,0.000,0.000,0.000,0.000,0.000,0.000,0.000,0.000,0.000,0.000
0.7050,0.99160,0.98970,0.98990,1.53935,1.01789,-0.66461,-0.02211,-0.03167,-0.02986,-7.91538,7.98905,9.98026,0.00000,0.00000,0.00000,0.00000,0.00000,0.00000,-0.99160,-0.98970,-0.98990,-1.53935,-1.01789,0.66461,"[0.000, 0.000, 0.000, 0.000, 0.000, 0.000]",0.000,0.000,0.000,0.000,0.000,0.000,0.000,0.000,0.000,0.000,0.000,0.000
0.7100,0.99149,0.98954,0.98975,1.56260,0.96876,-0.58964,-0.02211,-0.03167,-0.02986,-7.91538,7.98905,9.98026,0.00000,0.00000,0.00000,0.00000,0.00000,0.00000,-0.99149,-0.98954,-0.98975,-1.56260,-0.96876,0.58964,"[0.000, 0.000, 0.000, 0.000, 0.000, 0.000]",0.000,0.000,0.000,0.000,0.000,0.000,0.000,0.000,0.000,0.000,0.000,0.000
0.7150,0.99138,0.98939,0.98960,1.57819,0.91886,-0.52153,-0.02211,-0.03167,-0.02986,-7.91538,7.98905,9.98026,0.00000,0.00000,0.00000,0.00000,0.00000,0.00000,-0.99138,-0.98939,-0.98960,-1.57819,-0.91886,0.52153,"[0.000, 0.000, 0.000, 0.000, 0.000, 0.000]",0.000,0.000,0.000,0.000,0.000,0.000,0.000,0.000,0.000,0.000,0.000,0.000
0.7200,0.99126,0.98923,0.98945,1.58756,0.86846,-0.45875,-0.02211,-0.03167,-0.02986,-7.91538,7.98905,9.98026,0.00000,0.00000,0.00000,0.00000,0.00000,0.00000,-0.99126,-0.98923,-0.98945,-1.58756,-0.86846,0.45875,"[0.000, 0.000, 0.000, 0.000, 0.000, 0.000]",0.000,0.000,0.000,0.000,0.000,0.000,0.000,0.000,0.000,0.000,0.000,0.000
0.7250,0.99115,0.98907,0.98930,1.59176,0.81780,-0.40012,-0.02211,-0.03167,-0.02986,-7.91538,7.98905,9.98026,0.00000,0.00000,0.00000,0.00000,0.00000,0.00000,-0.99115,-0.98907,-0.98930,-1.59176,-0.81780,0.40012,"[0.000, 0.000, 0.000, 0.000, 0.000, 0.000]",0.000,0.000,0.000,0.000,0.000,0.000,0.000,0.000,0.000,0.000,0.000,0.000
0.7300,0.99104,0.98891,0.98915,1.59163,0.76706,-0.34473,-0.02211,-0.03167,-0.02986,-7.91538,7.98905,9.98026,0.00000,0.00000,0.00000,0.00000,0.00000,0.00000,-0.99104,-0.98891,-0.98915,-1.59163,-0.76706,0.34473,"[0.000, 0.000, 0.000, 0.000, 0.000, 0.000]",0.000,0.000,0.000,0.000,0.000,0.000,0.000,0.000,0.000,0.000,0.000,0.000
0.7350,0.99093,0.98875,0.98900,1.58778,0.71640,-0.29185,-0.02211,-0.03167,-0.02986,-7.91538,7.98905,9.98026,0.00000,0.00000,0.00000,0.00000,0.00000,0.00000,-0.99093,-0.98875,-0.98900,-1.58778,-0.71640,0.29185,"[0.000, 0.000, 0.000, 0.000, 0.000, 0.000]",0.000,0.000,0.000,0.000,0.000,0.000,0.000,0.000,0.000,0.000,0.000,0.000
0.7400,0.99082,0.98859,0.98885,1.58069,0.66596,-0.24089,-0.02211,-0.03167,-0.02986,-7.91538,7.98905,9.98026,0.00000,0.00000,0.00000,0.00000,0.00000,0.00000,-0.99082,-0.98859,-0.98885,-1.58069,-0.66596,0.24089,"[0.000, 0.000, 0.000, 0.000, 0.000, 0.000]",0.000,0.000,0.000,0.000,0.000,0.000,0.000,0.000,0.000,0.000,0.000,0.000
0.7450,0.99071,0.98844,0.98871,1.57072,0.61585,-0.19137,-0.02211,-0.03167,-0.02986,-7.91538,7.98905,9.98026,0.00000,0.00000,0.00000,0.00000,0.00000,0.00000,-0.99071,-0.98844,-0.98871,-1.57072,-0.61585,0.19137,"[0.000, 0.000, 0.000, 0.000, 0.000, 0.000]",0.000,0.000,0.000,0.000,0.000,0.000,0.000,0.000,0.000,0.000,0.000,0.000
0.7500,0.99060,0.98828,0.98856,1.55806,0.56590,-0.14253,-0.02250,-0.03185,-0.02992,-8.03369,8.10856,10.09916,0.00000,0.00000,0.00000,0.00000,0.00000,0.00000,-0.99060,-0.98828,-0.98856,-1.55806,-0.56590,0.14253,"[1.000, 0.000, 1.000, 0.000, 0.000, 1.000]",1.000,1.000,0.000,0.000,1.000,1.000,0.000,0.000,0.000,0.000,1.000,1.000
0.7550,0.99049,0.98812,0.98841,1.54273,0.51595,-0.09369,-0.02288,-0.03205,-0.03000,-8.15199,8.22807,10.21806,0.00000,0.00000,0.00000,0.00000,0.00000,0.00000,-0.99049,-0.98812,-0.98841,-1.54273,-0.51595,0.09369,"[1.000, 0.000, 1.000, 0.000, 0.000, 1.000]",1.000,1.000,0.000,0.000,1.000,1.000,0.000,0.000,0.000,0.000,1.000,1.000
0.7600,0.99037,0.98796,0.98826,1.52483,0.46612,-0.04459,-0.02324,-0.03228,-0.03008,-8.27029,8.34758,10.33696,0.00000,0.00000,0.00000,0.00000,0.00000,0.00000,-0.99037,-0.98796,-0.98826,-1.52483,-0.46612,0.04459,"[1.000, 0.000, 1.000, 0.000, 0.000, 1.000]",1.000,1.000,0.000,0.000,1.000,1.000,0.000,0.000,0.000,0.000,1.000,1.000
0.7650,0.99025,0.98779,0.98811,1.50438,0.41657,0.00505,-0.02358,-0.03252,-0.03018,-8.38860,8.46709,10.45586,0.00000,0.00000,0.00000,0.00000,0.00000,0.00000,-0.99025,-0.98779,-0.98811,-1.50438,-0.41657,-0.00505,"[1.000, 0.000, 1.000, 0.000, 0.000, 1.000]",1.000,1.000,0.000,0.000,1.000,1.000,0.000,0.000,0.000,0.000,1.000,1.000
0.7700,0.99014,0.98763,0.98795,1.48140,0.36747,0.05547,-0.02390,-0.03279,-0.03030,-8.50690,8.58660,10.57476,0.00000,0.00000,0.00000,0.00000,0.00000,0.00000,-0.99014,-0.98763,-0.98795,-1.48140,-0.36747,-0.05547,"[1.000, 0.000, 1.000, 0.000, 0.000, 1.000]",1.000,1.000,0.000,0.000,1.000,1.000,0.000,0.000,0.000,0.000,1.000,1.000
0.7750,0.99002,0.98747,0.98780,1.45586,0.31897,0.10689,-0.02420,-0.03308,-0.03042,-8.62521,8.70611,10.69366,0.00000,0.00000,0.00000,0.00000,0.00000,0.00000,-0.99002,-0.98747,-0.98780,-1.45586,-0.31897,-0.10689,"[1.000, 0.000, 1.000, 0.000, 0.000, 1.000]",1.000,1.000,0.000,0.000,1.000,1.000,0.000,0.000,0.000,0.000,1.000,1.000
0.7800,0.98989,0.98730,0.98765,1.42774,0.27129,0.15954,-0.02447,-0.03339,-0.03055,-8.74351,8.82562,10.81256,0.00000,0.00000,0.00000,0.00000,0.00000,0.00000,-0.98989,-0.98730,-0.98765,-1.42774,-0.27129,-0.15954,"[1.000, 0.000, 1.000, 0.000, 0.000, 1.000]",1.000,1.000,0.000,0.000,1.000,1.000,0.000,0.000,0.000,0.000,1.000,1.000
0.7850,0.98977,0.98713,0.98750,1.39699,0.22461,0.21363,-0.02472,-0.03371,-0.03069,-8.86181,8.94513,10.93146,0.00000,0.00000,0.00000,0.00000,0.00000,0.00000,-0.98977,-0.98713,-0.98750,-1.39699,-0.22461,-0.21363,"[1.000, 0.000, 1.000, 0.000, 0.000, 1.000]",1.000,1.000,0.000,0.000,1.000,1.000,0.000,0.000,0.000,0.000,1.000,1.000
0.7900,0.98965,0.98696,0.98734,1.36355,0.17917,0.26937,-0.02494,-0.03406,-0.03083,-8.98012,9.06465,11.05036,0.00000,0.00000,0.00000,0.00000,0.00000,0.00000,-0.98965,-0.98696,-0.98734,-1.36355,-0.17917,-0.26937,"[1.000, 0.000, 1.000, 0.000, 0.000, 1.000]",1.000,1.000,0.000,0.000,1.000,1.000,0.000,0.000,0.000,0.000,1.000,1.000
0.7950,0.98952,0.98679,0.98719,1.32735,0.13521,0.32695,-0.02513,-0.03442,-0.03097,-9.09842,9.18416,11.16926,0.00000,0.00000,0.00000,0.00000,0.00000,0.00000,-0.98952,-0.98679,-0.98719,-1.32735,-0.13521,-0.32695,"[1.000, 0.000, 1.000, 0.000, 0.000, 1.000]",1.000,1.000,0.000,0.000,1.000,1.000,0.000,0.000,0.000,0.000,1.000,1.000
0.8000,0.98940,0.98662,0.98703,1.28859,0.09320,0.38618,-0.02513,-0.03442,-0.03097,-9.09842,9.18416,11.16926,0.00000,0.00000,0.00000,0.00000,0.00000,0.00000,-0.98940,-0.98662,-0.98703,-1.28859,-0.09320,-0.38618,"[0.000, 0.000, 0.000, 0.000, 0.000, 0.000]",0.000,0.000,0.000,0.000,0.000,0.000,0.000,0.000,0.000,0.000,0.000,0.000
0.8050,0.98927,0.98645,0.98688,1.24753,0.05357,0.44681,-0.02513,-0.03442,-0.03097,-9.09842,9.18416,11.16926,0.00000,0.00000,0.00000,0.00000,0.00000,0.00000,-0.98927,-0.98645,-0.98688,-1.24753,-0.05357,-0.44681,"[0.000, 0.000, 0.000, 0.000, 0.000, 0.000]",0.000,0.000,0.000,0.000,0.000,0.000,0.000,0.000,0.000,0.000,0.000,0.000
0.8100,0.98914,0.98628,0.98672,1.20420,0.01654,0.50894,-0.02513,-0.03442,-0.03097,-9.09842,9.18416,11.16926,0.00000,0.00000,0.00000,0.00000,0.00000,0.00000,-0.98914,-0.98628,-0.98672,-1.20420,-0.01654,-0.50894,"[0.000, 0.000, 0.000, 0.000, 0.000, 0.000]",0.000,0.000,0.000,0.000,0.000,0.000,0.000,0.000,0.000,0.000,0.000,0.000
0.8150,0.98902,0.98610,0.98657,1.15865,-0.01771,0.57262,-0.02513,-0.03442,-0.03097,-9.09842,9.18416,11.16926,0.00000,0.00000,0.00000,0.00000,0.00000,0.00000,-0.98902,-0.98610,-0.98657,-1.15865,0.01771,-0.57262,"[0.000, 0.000, 0.000, 0.000, 0.000, 0.000]",0.000,0.000,0.000,0.000,0.000,0.000,0.000,0.000,0.000,0.000,0.000,0.000
0.8200,0.98889,0.98593,0.98641,1.11096,-0.04894,0.63785,-0.02513,-0.03442,-0.03097,-9.09842,9.18416,11.16926,0.00000,0.00000,0.00000,0.00000,0.00000,0.00000,-0.98889,-0.98593,-0.98641,-1.11096,0.04894,-0.63785,"[0.000, 0.000, 0.000, 0.000, 0.000, 0.000]",0.000,0.000,0.000,0.000,0.000,0.000,0.000,0.000,0.000,0.000,0.000,0.000
0.8250,0.98877,0.98576,0.98626,1.06124,-0.07697,0.70463,-0.02513,-0.03442,-0.03097,-9.09842,9.18416,11.16926,0.00000,0.00000,0.00000,0.00000,0.00000,0.00000,-0.98877,-0.98576,-0.98626,-1.06124,0.07697,-0.70463,"[0.000, 0.000, 0.000, 0.000, 0.000, 0.000]",0.000,0.000,0.000,0.000,0.000,0.000,0.000,0.000,0.000,0.000,0.000,0.000
0.8300,0.98864,0.98559,0.98610,1.00964,-0.10158,0.77288,-0.02513,-0.03442,-0.03097,-9.09842,9.18416,11.16926,0.00000,0.00000,0.00000,0.00000,0.00000,0.00000,-0.98864,-0.98559,-0.98610,-1.00964,0.10158,-0.77288,"[0.000, 0.000, 0.000, 0.000, 0.000, 0.000]",0.000,0.000,0.000,0.000,0.000,0.000,0.000,0.000,0.000,0.000,0.000,0.000
0.8350,0.98852,0.98542,0.98595,0.95634,-0.12260,0.84249,-0.02513,-0.03442,-0.03097,-9.09842,9.18416,11.16926,0.00000,0.00000,0.00000,0.00000,0.00000,0.00000,-0.98852,-0.98542,-0.98595,-0.95634,0.12260,-0.84249,"[0.000, 0.000, 0.000, 0.000, 0.000, 0.000]",0.000,0.000,0.000,0.000,0.000,0.000,0.000,0.000,0.000,0.000,0.000,0.000
0.8400,0.98839,0.98524,0.98579,0.90156,-0.13985,0.91331,-0.02513,-0.03442,-0.03097,-9.09842,9.18416,11.16926,0.00000,0.00000,0.00000,0.00000,0.00000,0.00000,-0.98839,-0.98524,-0.98579,-0.90156,0.13985,-0.91331,"[0.000, 0.000, 0.000, 0.000, 0.000, 0.000]",0.000,0.000,0.000,0.000,0.000,0.000,0.000,0.000,0.000,0.000,0.000,0.000
0.8450,0.98826,0.98507,0.98564,0.84556,-0.15318,0.98514,-0.02513,-0.03442,-0.03097,-9.09842,9.18416,11.16926,0.00000,0.00000,0.00000,0.00000,0.00000,0.00000,-0.98826,-0.98507,-0.98564,-0.84556,0.15318,-0.98514,"[0.000, 0.000, 0.000, 0.000, 0.000, 0.000]",0.000,0.000,0.000,0.000,0.000,0.000,0.000,0.000,0.000,0.000,0.000,0.000
0.8500,0.98814,0.98490,0.98548,0.78827,-0.16247,1.05816,-0.02526,-0.03457,-0.03136,-9.21673,9.30367,11.28816,0.00000,0.00000,0.00000,0.00000,0.00000,0.00000,-0.98814,-0.98490,-0.98548,-0.78827,0.16247,-1.05816,"[1.000, 0.000, 1.000, 0.000, 1.000, 0.000]",1.000,1.000,0.000,0.000,1.000,1.000,0.000,0.000,1.000,1.000,0.000,0.000
0.8550,0.98801,0.98473,0.98533,0.72964,-0.16755,1.13255,-0.02535,-0.03473,-0.03175,-9.33503,9.42318,11.40706,0.00000,0.00000,0.00000,0.00000,0.00000,0.00000,-0.98801,-0.98473,-0.98533,-0.72964,0.16755,-1.13255,"[1.000, 0.000, 1.000, 0.000, 1.000, 0.000]",1.000,1.000,0.000,0.000,1.000,1.000,0.000,0.000,1.000,1.000,0.000,0.000
0.8600,0.98789,0.98455,0.98517,0.67003,-0.16821,1.20800,-0.02541,-0.03491,-0.03214,-9.45334,9.54269,11.52596,0.00000,0.00000,0.00000,0.00000,0.00000,0.00000,-0.98789,-0.98455,-0.98517,-0.67003,0.16821,-1.20800,"[1.000, 0.000, 1.000, 0.000, 1.000, 0.000]",1.000,1.000,0.000,0.000,1.000,1.000,0.000,0.000,1.000,1.000,0.000,0.000
0.8650,0.98776,0.98438,0.98500,0.60984,-0.16429,1.28418,-0.02544,-0.03510,-0.03253,-9.57164,9.66220,11.64486,0.00000,0.00000,0.00000,0.00000,0.00000,0.00000,-0.98776,-0.98438,-0.98500,-0.60984,0.16429,-1.28418,"[1.000, 0.000, 1.000, 0.000, 1.000, 0.000]",1.000,1.000,0.000,0.000,1.000,1.000,0.000,0.000,1.000,1.000,0.000,0.000
0.8700,0.98763,0.98420,0.98484,0.54946,-0.15567,1.36074,-0.02544,-0.03530,-0.03291,-9.68995,9.78171,11.76375,0.00000,0.00000,0.00000,0.00000,0.00000,0.00000,-0.98763,-0.98420,-0.98484,-0.54946,0.15567,-1.36074,"[1.000, 0.000, 1.000, 0.000, 1.000, 0.000]",1.000,1.000,0.000,0.000,1.000,1.000,0.000,0.000,1.000,1.000,0.000,0.000
0.8750,0.98750,0.98402,0.98468,0.48931,-0.14229,1.43732,-0.02540,-0.03551,-0.03329,-9.80825,9.90122,11.88265,0.00000,0.00000,0.00000,0.00000,0.00000,0.00000,-0.98750,-0.98402,-0.98468,-0.48931,0.14229,-1.43732,"[1.000, 0.000, 1.000, 0.000, 1.000, 0.000]",1.000,1.000,0.000,0.000,1.000,1.000,0.000,0.000,1.000,1.000,0.000,0.000
0.8800,0.98738,0.98385,0.98451,0.42982,-0.12413,1.51360,-0.02532,-0.03572,-0.03366,-9.92656,10.02073,12.00155,0.00000,0.00000,0.00000,0.00000,0.00000,0.00000,-0.98738,-0.98385,-0.98451,-0.42982,0.12413,-1.51360,"[1.000, 0.000, 1.000, 0.000, 1.000, 0.000]",1.000,1.000,0.000,0.000,1.000,1.000,0.000,0.000,1.000,1.000,0.000,0.000
0.8850,0.98725,0.98367,0.98434,0.37135,-0.10123,1.58925,-0.02521,-0.03593,-0.03402,-10.04486,10.14024,12.12045,0.00000,0.00000,0.00000,0.00000,0.00000,0.00000,-0.98725,-0.98367,-0.98434,-0.37135,0.10123,-1.58925,"[1.000, 0.000, 1.000, 0.000, 1.000, 0.000]",1.000,1.000,0.000,0.000,1.000,1.000,0.000,0.000,1.000,1.000,0.000,0.000
0.8900,0.98713,0.98349,0.98417,0.31427,-0.07366,1.66403,-0.02506,-0.03615,-0.03437,-10.16316,10.25975,12.23935,0.00000,0.00000,0.00000,0.00000,0.00000,0.00000,-0.98713,-0.98349,-0.98417,-0.31427,0.07366,-1.66403,"[1.000, 0.000, 1.000, 0.000, 1.000, 0.000]",1.000,1.000,0.000,0.000,1.000,1.000,0.000,0.000,1.000,1.000,0.000,0.000
0.8950,0.98700,0.98330,0.98400,0.25889,-0.04153,1.73771,-0.02488,-0.03636,-0.03470,-10.28147,10.37927,12.35825,0.00000,0.00000,0.00000,0.00000,0.00000,0.00000,-0.98700,-0.98330,-0.98400,-0.25889,0.04153,-1.73771,"[1.000, 0.000, 1.000, 0.000, 1.000, 0.000]",1.000,1.000,0.000,0.000,1.000,1.000,0.000,0.000,1.000,1.000,0.000,0.000
0.9000,0.98688,0.98312,0.98382,0.20576,-0.00525,1.80980,-0.02488,-0.03636,-0.03470,-10.28147,10.37927,12.35825,0.00000,0.00000,0.00000,0.00000,0.00000,0.00000,-0.98688,-0.98312,-0.98382,-0.20576,0.00525,-1.80980,"[0.000, 0.000, 0.000, 0.000, 0.000, 0.000]",0.000,0.000,0.000,0.000,0.000,0.000,0.000,0.000,0.000,0.000,0.000,0.000
0.9050,0.98675,0.98294,0.98365,0.15536,0.03472,1.87990,-0.02488,-0.03636,-0.03470,-10.28147,10.37927,12.35825,0.00000,0.00000,0.00000,0.00000,0.00000,0.00000,-0.98675,-0.98294,-0.98365,-0.15536,-0.03472,-1.87990,"[0.000, 0.000, 0.000, 0.000, 0.000, 0.000]",0.000,0.000,0.000,0.000,0.000,0.000,0.000,0.000,0.000,0.000,0.000,0.000
0.9100,0.98663,0.98276,0.98347,0.10777,0.07807,1.94806,-0.02488,-0.03636,-0.03470,-10.28147,10.37927,12.35825,0.00000,0.00000,0.00000,0.00000,0.00000,0.00000,-0.98663,-0.98276,-0.98347,-0.10777,-0.07807,-1.94806,"[0.000, 0.000, 0.000, 0.000, 0.000, 0.000]",0.000,0.000,0.000,0.000,0.000,0.000,0.000,0.000,0.000,0.000,0.000,0.000
