Step,MPC_Start_Time,Control_Time,Actual_Time_Interval,CONTROL_DT,Mission_Phase,Waypoint_Number,Telemetry_X_mm,Telemetry_Y_mm,Telemetry_Z_mm,Telemetry_Roll_deg,Telemetry_Pitch_deg,Telemetry_Yaw_deg,Current_X,Current_Y,Current_Z,Current_Roll,Current_Pitch,Current_Yaw,Current_VX,Current_VY,Current_VZ,Current_WX,Current_WY,Current_WZ,Target_X,Target_Y,Target_Z,Target_Roll,Target_Pitch,Target_Yaw,Target_VX,Target_VY,Target_VZ,Target_WX,Target_WY,Target_WZ,Error_X,Error_Y,Error_Z,Error_Roll,Error_Pitch,Error_Yaw,Error_VX,Error_VY,Error_VZ,Error_WX,Error_WY,Error_WZ,MPC_Computation_Time,MPC_Status,MPC_Solver,MPC_Solver_Time_Limit,MPC_Solve_Time,MPC_Time_Limit_Exceeded,MPC_Fallback_Used,MPC_Objective,MPC_Iterations,MPC_Optimality_Gap,Command_Vector,Command_Hex,Command_Sent_Time,Total_Active_Thrusters,Thruster_Switches,RW_Torque_X,RW_Torque_Y,RW_Torque_Z,Total_MPC_Loop_Time,Timing_Violation
0,0.0450,0.0450,0.0500,0.050,APPROACHING,0,1000.00,1000.00,1000.00,0.00,0.00,90.00,1.00000,1.00000,1.00000,0.00000,0.00000,1.57080,0.00000,0.00000,0.00000,0.00000,0.00000,0.00000,0.00000,0.00000,0.00000,0.00000,0.00000,0.00000,0.00000,0.00000,0.00000,0.00000,0.00000,0.00000,1.00000,1.00000,1.00000,0.00000,0.00000,-1.57080,0.00000,0.00000,0.00000,0.00000,0.00000,0.00000,0.0000,,,,0.0188,,,,,,"[1.000, 0.000, 0.000, 1.000, 1.000, 0.000]",0x100110,0.0450,3,0,0.323761,-0.323761,-0.500000,0.0000,NO
1,0.0950,0.0950,0.0500,0.050,APPROACHING,0,999.94,999.94,999.94,0.28,-0.27,89.57,0.99994,0.99994,0.99994,0.00483,-0.00479,1.56335,-0.00251,-0.00249,-0.00250,0.19249,-0.19249,-0.29727,0.00000,0.00000,0.00000,0.00000,0.00000,0.00000,0.00000,0.00000,0.00000,0.00000,0.00000,0.00000,0.99994,0.99994,0.99994,-0.00483,0.00479,-1.56335,0.00251,0.00249,0.00250,-0.19249,0.19249,0.29727,0.0000,,,,0.0061,,,,,,"[1.000, 0.000, 0.000, 1.000, 1.000, 0.000]",0x100110,0.0950,3,0,-0.273449,0.264431,-0.499937,0.0000,NO
2,0.1450,0.1450,0.0500,0.050,APPROACHING,0,999.75,999.75,999.75,0.61,-0.59,88.29,0.99975,0.99975,0.99975,0.01057,-0.01030,1.54102,-0.00507,-0.00493,-0.00500,0.02965,-0.03554,-0.59449,0.00000,0.00000,0.00000,0.00000,0.00000,0.00000,0.00000,0.00000,0.00000,0.00000,0.00000,0.00000,0.99975,0.99975,0.99975,-0.01057,0.01030,-1.54102,0.00507,0.00493,0.00500,-0.02965,0.03554,0.59449,0.0000,,,,0.0031,,,,,,"[0.999, 0.001, 0.001, 0.999, 0.999, 0.001]",0x100110,0.1450,3,0,0.213590,-0.215131,0.010912,0.0000,NO
3,0.1950,0.1950,0.0500,0.050,APPROACHING,0,999.43,999.45,999.44,0.89,-0.85,86.60,0.99943,0.99945,0.99944,0.01559,-0.01490,1.51139,-0.00770,-0.00729,-0.00750,0.15683,-0.16325,-0.58800,0.00000,0.00000,0.00000,0.00000,0.00000,0.00000,0.00000,0.00000,0.00000,0.00000,0.00000,0.00000,0.99943,0.99945,0.99944,-0.01559,0.01490,-1.51139,0.00770,0.00729,0.00750,-0.15683,0.16325,0.58800,0.0000,,,,0.0030,,,,,,"[0.999, 0.001, 0.001, 0.999, 0.999, 0.001]",0x100110,0.1950,3,0,-0.184046,0.175294,0.019460,0.0000,NO
4,0.2450,0.2450,0.0500,0.050,APPROACHING,0,998.98,999.02,999.00,1.22,-1.14,84.92,0.99898,0.99902,0.99900,0.02122,-0.01991,1.48218,-0.01042,-0.00955,-0.00999,0.04726,-0.05919,-0.57643,0.00000,0.00000,0.00000,0.00000,0.00000,0.00000,0.00000,0.00000,0.00000,0.00000,0.00000,0.00000,0.99898,0.99902,0.99900,-0.02122,0.01991,-1.48218,0.01042,0.00955,0.00999,-0.04726,0.05919,0.57643,0.0000,,,,0.0031,,,,,,"[0.999, 0.001, 0.001, 0.999, 0.999, 0.001]",0x100110,0.2450,3,0,0.140804,-0.142402,0.012449,0.0000,NO
5,0.2950,0.2950,0.0500,0.050,APPROACHING,0,998.39,998.49,998.44,1.51,-1.39,83.27,0.99839,0.99849,0.99844,0.02630,-0.02431,1.45342,-0.01321,-0.01173,-0.01249,0.13109,-0.14373,-0.56903,0.00000,0.00000,0.00000,0.00000,0.00000,0.00000,0.00000,0.00000,0.00000,0.00000,0.00000,0.00000,0.99839,0.99849,0.99844,-0.02630,0.02431,-1.45342,0.01321,0.01173,0.01249,-0.13109,0.14373,0.56903,0.0000,,,,0.0091,,,,,,"[1.000, 0.000, 0.000, 1.000, 1.000, 0.000]",0x100110,0.2950,3,0,-0.126320,0.129034,0.005031,0.0000,NO
6,0.3450,0.3450,0.0500,0.050,APPROACHING,0,997.65,997.85,997.75,1.82,-1.65,81.64,0.99765,0.99785,0.99775,0.03174,-0.02875,1.42489,-0.01608,-0.01381,-0.01498,0.05589,-0.06712,-0.56604,0.00000,0.00000,0.00000,0.00000,0.00000,0.00000,0.00000,0.00000,0.00000,0.00000,0.00000,0.00000,0.99765,0.99785,0.99775,-0.03174,0.02875,-1.42489,0.01608,0.01381,0.01498,-0.05589,0.06712,0.56604,0.0000,,,,0.0043,,,,,,"[1.000, 0.000, 0.000, 1.000, 1.000, 0.000]",0x100110,0.3450,3,0,0.094364,-0.114276,0.036255,0.0000,NO
7,0.3950,0.3950,0.0500,0.050,APPROACHING,0,996.78,997.11,996.94,2.11,-1.88,80.04,0.99678,0.99711,0.99694,0.03679,-0.03286,1.39696,-0.01901,-0.01580,-0.01747,0.11209,-0.13498,-0.54448,0.00000,0.00000,0.00000,0.00000,0.00000,0.00000,0.00000,0.00000,0.00000,0.00000,0.00000,0.00000,0.99678,0.99711,0.99694,-0.03679,0.03286,-1.39696,0.01901,0.01580,0.01747,-0.11209,0.13498,0.54448,0.0000,,,,0.0041,,,,,,"[1.000, 0.000, 0.000, 1.000, 1.000, 0.000]",0x100110,0.3950,3,0,-0.084098,0.090820,-0.000363,0.0000,NO
8,0.4450,0.4450,0.0500,0.050,APPROACHING,0,995.75,996.28,996.00,2.41,-2.13,78.47,0.99575,0.99628,0.99600,0.04211,-0.03717,1.36952,-0.02201,-0.01769,-0.01996,0.06202,-0.08105,-0.54470,0.00000,0.00000,0.00000,0.00000,0.00000,0.00000,0.00000,0.00000,0.00000,0.00000,0.00000,0.00000,0.99575,0.99628,0.99600,-0.04211,0.03717,-1.36952,0.02201,0.01769,0.01996,-0.06202,0.08105,0.54470,0.0000,,,,0.0021,,,,,,"[1.000, 0.000, 0.000, 1.000, 1.000, 0.000]",0x100110,0.4450,3,0,0.056581,-0.069322,0.027538,0.0000,NO
9,0.4950,0.4950,0.0500,0.050,APPROACHING,0,994.57,995.35,994.94,2.70,-2.35,76.92,0.99457,0.99535,0.99494,0.04711,-0.04106,1.34247,-0.02507,-0.01949,-0.02244,0.09571,-0.12222,-0.52833,0.00000,0.00000,0.00000,0.00000,0.00000,0.00000,0.00000,0.00000,0.00000,0.00000,0.00000,0.00000,0.99457,0.99535,0.99494,-0.04711,0.04106,-1.34247,0.02507,0.01949,0.02244,-0.09571,0.12222,0.52833,0.0000,,,,0.0030,,,,,,"[1.000, 0.000, 0.000, 1.000, 1.000, 0.000]",0x100110,0.4950,3,0,-0.050006,0.052052,0.006276,0.0000,NO
10,0.5450,0.5450,0.0500,0.050,APPROACHING,0,993.24,994.33,993.76,3.00,-2.58,75.40,0.99324,0.99433,0.99376,0.05230,-0.04508,1.31589,-0.02818,-0.02119,-0.02492,0.06594,-0.09131,-0.52459,0.00000,0.00000,0.00000,0.00000,0.00000,0.00000,0.00000,0.00000,0.00000,0.00000,0.00000,0.00000,0.99324,0.99433,0.99376,-0.05230,0.04508,-1.31589,0.02818,0.02119,0.02492,-0.06594,0.09131,0.52459,0.0000,,,,0.0020,,,,,,"[1.000, 0.000, 0.000, 1.000, 1.000, 0.000]",0x100110,0.5450,3,0,0.028465,-0.036838,0.021726,0.0000,NO
11,0.5950,0.5950,0.0500,0.050,APPROACHING,0,991.76,993.23,992.45,3.28,-2.79,73.90,0.99176,0.99323,0.99245,0.05725,-0.04877,1.28972,-0.03135,-0.02280,-0.02739,0.08290,-0.11319,-0.51168,0.00000,0.00000,0.00000,0.00000,0.00000,0.00000,0.00000,0.00000,0.00000,0.00000,0.00000,0.00000,0.99176,0.99323,0.99245,-0.05725,0.04877,-1.28972,0.03135,0.02280,0.02739,-0.08290,0.11319,0.51168,0.0000,,,,0.0021,,,,,,"[1.000, 0.000, 0.000, 1.000, 1.000, 0.000]",0x100110,0.5950,3,0,-0.029170,0.028677,0.010175,0.0000,NO
12,0.6450,0.6450,0.0500,0.050,APPROACHING,0,990.11,992.05,991.02,3.57,-3.01,72.42,0.99011,0.99205,0.99102,0.06226,-0.05247,1.26398,-0.03457,-0.02431,-0.02986,0.06554,-0.09616,-0.50563,0.00000,0.00000,0.00000,0.00000,0.00000,0.00000,0.00000,0.00000,0.00000,0.00000,0.00000,0.00000,0.99011,0.99205,0.99102,-0.06226,0.05247,-1.26398,0.03457,0.02431,0.02986,-0.06554,0.09616,0.50563,0.0000,,,,0.0020,,,,,,"[1.000, 0.000, 0.000, 1.000, 1.000, 0.000]",0x100110,0.6450,3,0,0.013416,-0.019330,0.018475,0.0000,NO
13,0.6950,0.6950,0.0500,0.050,APPROACHING,0,988.30,990.80,989.47,3.85,-3.21,70.97,0.98830,0.99080,0.98947,0.06711,-0.05594,1.23866,-0.03783,-0.02573,-0.03233,0.07353,-0.10764,-0.49464,0.00000,0.00000,0.00000,0.00000,0.00000,0.00000,0.00000,0.00000,0.00000,0.00000,0.00000,0.00000,0.98830,0.99080,0.98947,-0.06711,0.05594,-1.23866,0.03783,0.02573,0.03233,-0.07353,0.10764,0.49464,0.0000,,,,0.0030,,,,,,"[1.000, 0.000, 0.000, 1.000, 1.000, 0.000]",0x100110,0.6950,3,0,-0.017776,0.016104,0.012157,0.0000,NO
14,0.7450,0.7450,0.0500,0.050,APPROACHING,0,986.32,989.48,987.79,4.12,-3.40,69.54,0.98632,0.98948,0.98779,0.07196,-0.05936,1.21377,-0.04114,-0.02706,-0.03479,0.06295,-0.09808,-0.48741,0.00000,0.00000,0.00000,0.00000,0.00000,0.00000,0.00000,0.00000,0.00000,0.00000,0.00000,0.00000,0.98632,0.98948,0.98779,-0.07196,0.05936,-1.21377,0.04114,0.02706,0.03479,-0.06295,0.09808,0.48741,0.0000,,,,0.0020,,,,,,"[1.000, 0.000, 0.000, 1.000, 1.000, 0.000]",0x100110,0.7450,3,0,0.005345,-0.009799,0.016580,0.0000,NO
15,0.7950,0.7950,0.0500,0.050,APPROACHING,0,984.18,988.09,985.99,4.39,-3.59,68.14,0.98418,0.98809,0.98599,0.07667,-0.06261,1.18929,-0.04449,-0.02829,-0.03724,0.06614,-0.10390,-0.47756,0.00000,0.00000,0.00000,0.00000,0.00000,0.00000,0.00000,0.00000,0.00000,0.00000,0.00000,0.00000,0.98418,0.98809,0.98599,-0.07667,0.06261,-1.18929,0.04449,0.02829,0.03724,-0.06614,0.10390,0.47756,0.0000,,,,0.0043,,,,,,"[1.000, 0.000, 0.000, 1.000, 1.000, 0.000]",0x100110,0.7950,3,0,-0.011843,0.009750,0.013050,0.0000,NO
16,0.8450,0.8450,0.0500,0.050,APPROACHING,0,981.87,986.65,984.06,4.66,-3.77,66.76,0.98187,0.98665,0.98406,0.08135,-0.06577,1.16524,-0.04787,-0.02943,-0.03969,0.05909,-0.09811,-0.46980,0.00000,0.00000,0.00000,0.00000,0.00000,0.00000,0.00000,0.00000,0.00000,0.00000,0.00000,0.00000,0.98187,0.98665,0.98406,-0.08135,0.06577,-1.16524,0.04787,0.02943,0.03969,-0.05909,0.09811,0.46980,0.0000,,,,0.0021,,,,,,"[1.000, 0.000, 0.000, 1.000, 1.000, 0.000]",0x100110,0.8450,3,0,0.001628,-0.005213,0.015474,0.0000,NO
17,0.8950,0.8950,0.0500,0.050,APPROACHING,0,979.40,985.15,982.02,4.92,-3.94,65.41,0.97940,0.98515,0.98202,0.08592,-0.06880,1.14159,-0.05129,-0.03048,-0.04214,0.06007,-0.10120,-0.46060,0.00000,0.00000,0.00000,0.00000,0.00000,0.00000,0.00000,0.00000,0.00000,0.00000,0.00000,0.00000,0.97940,0.98515,0.98202,-0.08592,0.06880,-1.14159,0.05129,0.03048,0.04214,-0.06007,0.10120,0.46060,0.0000,,,,0.0021,,,,,,"[1.000, 0.000, 0.000, 1.000, 1.000, 0.000]",0x100110,0.8950,3,0,-0.008430,0.006249,0.013396,0.0000,NO
18,0.9450,0.9450,0.0500,0.050,APPROACHING,0,976.75,983.60,979.85,5.18,-4.11,64.08,0.97675,0.98360,0.97985,0.09043,-0.07173,1.11835,-0.05473,-0.03144,-0.04458,0.05505,-0.09749,-0.45263,0.00000,0.00000,0.00000,0.00000,0.00000,0.00000,0.00000,0.00000,0.00000,0.00000,0.00000,0.00000,0.97675,0.98360,0.97985,-0.09043,0.07173,-1.11835,0.05473,0.03144,0.04458,-0.05505,0.09749,0.45263,0.0000,,,,0.0029,,,,,,"[1.000, 0.000, 0.000, 1.000, 1.000, 0.000]",0x100110,0.9450,3,0,-0.000878,-0.002034,0.014653,0.0000,NO
19,0.9950,0.9950,0.0500,0.050,APPROACHING,0,973.92,982.01,977.56,5.43,-4.27,62.77,0.97392,0.98201,0.97756,0.09484,-0.07454,1.09552,-0.05820,-0.03231,-0.04701,0.05453,-0.09870,-0.44392,0.00000,0.00000,0.00000,0.00000,0.00000,0.00000,0.00000,0.00000,0.00000,0.00000,0.00000,0.00000,0.97392,0.98201,0.97756,-0.09484,0.07454,-1.09552,0.05820,0.03231,0.04701,-0.05453,0.09870,0.44392,0.0000,,,,0.0033,,,,,,"[1.000, 0.000, 0.000, 1.000, 1.000, 0.000]",0x100110,0.9950,3,0,-0.006376,0.004292,0.013453,0.0000,NO
20,1.0450,1.0450,0.0500,0.050,APPROACHING,0,970.92,980.37,975.15,5.68,-4.43,61.48,0.97092,0.98037,0.97515,0.09917,-0.07726,1.07309,-0.06170,-0.03309,-0.04944,0.05074,-0.09615,-0.43592,0.00000,0.00000,0.00000,0.00000,0.00000,0.00000,0.00000,0.00000,0.00000,0.00000,0.00000,0.00000,0.97092,0.98037,0.97515,-0.09917,0.07726,-1.07309,0.06170,0.03309,0.04944,-0.05074,0.09615,0.43592,0.0000,,,,0.0054,,,,,,"[1.000, 0.000, 0.000, 1.000, 1.000, 0.000]",0x100110,1.0450,3,0,-0.001877,-0.000560,0.014081,0.0000,NO
21,1.0950,1.0950,0.0500,0.050,APPROACHING,0,967.75,978.70,972.62,5.92,-4.58,60.22,0.96775,0.97870,0.97262,0.10341,-0.07987,1.05106,-0.06522,-0.03379,-0.05187,0.04963,-0.09649,-0.42755,0.00000,0.00000,0.00000,0.00000,0.00000,0.00000,0.00000,0.00000,0.00000,0.00000,0.00000,0.00000,0.96775,0.97870,0.97262,-0.10341,0.07987,-1.05106,0.06522,0.03379,0.05187,-0.04963,0.09649,0.42755,0.0000,,,,0.0021,,,,,,"[1.000, 0.000, 0.000, 1.000, 1.000, 0.000]",0x100110,1.0950,3,0,-0.005281,0.003400,0.013257,0.0000,NO
22,1.1450,1.1450,0.0500,0.050,APPROACHING,0,964.40,977.00,969.96,6.16,-4.72,58.98,0.96440,0.97700,0.96996,0.10756,-0.08239,1.02942,-0.06876,-0.03439,-0.05429,0.04649,-0.09447,-0.41967,0.00000,0.00000,0.00000,0.00000,0.00000,0.00000,0.00000,0.00000,0.00000,0.00000,0.00000,0.00000,0.96440,0.97700,0.96996,-0.10756,0.08239,-1.02942,0.06876,0.03439,0.05429,-0.04649,0.09447,0.41967,0.0000,,,,0.0019,,,,,,"[1.000, 0.000, 0.000, 1.000, 1.000, 0.000]",0x100110,1.1450,3,0,-0.002542,0.000522,0.013597,0.0000,NO
23,1.1950,1.1950,0.0500,0.050,APPROACHING,0,960.87,975.26,967.19,6.40,-4.86,57.76,0.96087,0.97526,0.96719,0.11162,-0.08480,1.00818,-0.07232,-0.03491,-0.05670,0.04498,-0.09416,-0.41158,0.00000,0.00000,0.00000,0.00000,0.00000,0.00000,0.00000,0.00000,0.00000,0.00000,0.00000,0.00000,0.96087,0.97526,0.96719,-0.11162,0.08480,-1.00818,0.07232,0.03491,0.05670,-0.04498,0.09416,0.41158,0.0000,,,,0.0050,,,,,,"[1.000, 0.000, 0.000, 1.000, 1.000, 0.000]",0x100110,1.1950,3,0,-0.004436,0.002791,0.013057,0.0000,NO
24,1.2450,1.2450,0.0500,0.050,APPROACHING,0,957.17,973.51,964.29,6.62,-4.99,56.57,0.95717,0.97351,0.96429,0.11560,-0.08713,0.98732,-0.07589,-0.03535,-0.05911,0.04234,-0.09250,-0.40382,0.00000,0.00000,0.00000,0.00000,0.00000,0.00000,0.00000,0.00000,0.00000,0.00000,0.00000,0.00000,0.95717,0.97351,0.96429,-0.11560,0.08713,-0.98732,0.07589,0.03535,0.05911,-0.04234,0.09250,0.40382,0.0000,,,,0.0021,,,,,,"[1.000, 0.000, 0.000, 1.000, 1.000, 0.000]",0x100110,1.2450,3,0,-0.002787,0.001116,0.013118,0.0000,NO
25,1.2950,1.2950,0.0500,0.050,APPROACHING,0,953.29,971.73,961.28,6.85,-5.12,55.40,0.95329,0.97173,0.96128,0.11948,-0.08936,0.96684,-0.07948,-0.03571,-0.06151,0.04069,-0.09184,-0.39602,0.00000,0.00000,0.00000,0.00000,0.00000,0.00000,0.00000,0.00000,0.00000,0.00000,0.00000,0.00000,0.95329,0.97173,0.96128,-0.11948,0.08936,-0.96684,0.07948,0.03571,0.06151,-0.04069,0.09184,0.39602,0.0000,,,,0.0020,,,,,,"[1.000, 0.000, 0.000, 1.000, 1.000, 0.000]",0x100110,1.2950,3,0,-0.003882,0.002492,0.012771,0.0000,NO
26,1.3450,1.3450,0.0500,0.050,APPROACHING,0,949.22,969.94,958.14,7.06,-5.24,54.24,0.94922,0.96994,0.95814,0.12327,-0.09151,0.94674,-0.08308,-0.03598,-0.06390,0.03838,-0.09036,-0.38843,0.00000,0.00000,0.00000,0.00000,0.00000,0.00000,0.00000,0.00000,0.00000,0.00000,0.00000,0.00000,0.94922,0.96994,0.95814,-0.12327,0.09151,-0.94674,0.08308,0.03598,0.06390,-0.03838,0.09036,0.38843,0.0000,,,,0.0032,,,,,,"[1.000, 0.000, 0.000, 1.000, 1.000, 0.000]",0x100110,1.3450,3,0,-0.002912,0.001573,0.012728,0.0000,NO
27,1.3950,1.3950,0.0500,0.050,APPROACHING,0,944.98,968.13,954.89,7.27,-5.36,53.11,0.94498,0.96813,0.95489,0.12697,-0.09356,0.92701,-0.08668,-0.03618,-0.06629,0.03665,-0.08942,-0.38086,0.00000,0.00000,0.00000,0.00000,0.00000,0.00000,0.00000,0.00000,0.00000,0.00000,0.00000,0.00000,0.94498,0.96813,0.95489,-0.12697,0.09356,-0.92701,0.08668,0.03618,0.06629,-0.03665,0.08942,0.38086,0.0000,,,,0.0021,,,,,,"[1.000, 0.000, 0.000, 1.000, 1.000, 0.000]",0x100110,1.3950,3,0,-0.003480,0.002342,0.012400,0.0000,NO
28,1.4450,1.4450,0.0500,0.050,APPROACHING,0,940.55,966.32,951.51,7.48,-5.47,52.00,0.94055,0.96632,0.95151,0.13058,-0.09554,0.90765,-0.09029,-0.03629,-0.06868,0.03458,-0.08803,-0.37349,0.00000,0.00000,0.00000,0.00000,0.00000,0.00000,0.00000,0.00000,0.00000,0.00000,0.00000,0.00000,0.94055,0.96632,0.95151,-0.13058,0.09554,-0.90765,0.09029,0.03629,0.06868,-0.03458,0.08803,0.37349,0.0000,,,,0.0031,,,,,,"[1.000, 0.000, 0.853, 0.120, 1.000, 0.000]",0x101010,1.4450,4,2,-0.002899,0.001859,0.012335,0.0000,NO
29,1.4950,1.4950,0.0500,0.050,APPROACHING,0,936.00,964.47,948.01,7.68,-5.58,50.92,0.93600,0.96447,0.94801,0.13409,-0.09744,0.88866,-0.09195,-0.03785,-0.07139,0.03286,-0.08693,-0.36615,0.00000,0.00000,0.00000,0.00000,0.00000,0.00000,0.00000,0.00000,0.00000,0.00000,0.00000,0.00000,0.93600,0.96447,0.94801,-0.13409,0.09744,-0.88866,0.09195,0.03785,0.07139,-0.03286,0.08693,0.36615,0.0000,,,,0.0020,,,,,,"[1.000, 0.000, 0.997, 0.000, 1.000, 0.000]",0x101010,1.4950,3,2,-0.003187,0.002283,0.012057,0.0000,NO
30,1.5450,1.5450,0.0500,0.050,APPROACHING,0,931.41,962.50,944.37,7.88,-5.69,49.85,0.93141,0.96250,0.94437,0.13752,-0.09926,0.87002,-0.09171,-0.04091,-0.07443,0.03096,-0.08557,-0.35899,0.00000,0.00000,0.00000,0.00000,0.00000,0.00000,0.00000,0.00000,0.00000,0.00000,0.00000,0.00000,0.93141,0.96250,0.94437,-0.13752,0.09926,-0.87002,0.09171,0.04091,0.07443,-0.03096,0.08557,0.35899,0.0000,,,,0.0020,,,,,,"[1.000, 0.000, 1.000, 0.000, 1.000, 0.000]",0x101010,1.5450,3,0,-0.002870,0.002015,0.011932,0.0000,NO
31,1.5950,1.5950,0.0500,0.050,APPROACHING,0,926.83,960.38,940.57,8.07,-5.79,48.80,0.92683,0.96038,0.94057,0.14085,-0.10100,0.85174,-0.09153,-0.04398,-0.07749,0.02926,-0.08437,-0.35189,0.00000,0.00000,0.00000,0.00000,0.00000,0.00000,0.00000,0.00000,0.00000,0.00000,0.00000,0.00000,0.92683,0.96038,0.94057,-0.14085,0.10100,-0.85174,0.09153,0.04398,0.07749,-0.02926,0.08437,0.35189,0.0000,,,,0.0022,,,,,,"[1.000, 0.000, 0.976, 0.000, 1.000, 0.000]",0x101010,1.5950,3,1,-0.003015,0.002242,0.011694,0.0000,NO
32,1.6450,1.6450,0.0500,0.050,APPROACHING,0,922.25,958.10,936.62,8.26,-5.88,47.77,0.92225,0.95810,0.93662,0.14409,-0.10267,0.83381,-0.09141,-0.04703,-0.08056,0.02746,-0.08304,-0.34494,0.00000,0.00000,0.00000,0.00000,0.00000,0.00000,0.00000,0.00000,0.00000,0.00000,0.00000,0.00000,0.92225,0.95810,0.93662,-0.14409,0.10267,-0.83381,0.09141,0.04703,0.08056,-0.02746,0.08304,0.34494,0.0000,,,,0.0021,,,,,,"[1.000, 0.000, 0.936, 0.014, 1.000, 0.000]",0x101010,1.6450,4,2,-0.002822,0.002104,0.011538,0.0000,NO
33,1.6950,1.6950,0.0500,0.050,APPROACHING,0,917.64,955.71,932.52,8.44,-5.97,46.77,0.91764,0.95571,0.93252,0.14724,-0.10427,0.81622,-0.09319,-0.04842,-0.08328,0.02579,-0.08179,-0.33808,0.00000,0.00000,0.00000,0.00000,0.00000,0.00000,0.00000,0.00000,0.00000,0.00000,0.00000,0.00000,0.91764,0.95571,0.93252,-0.14724,0.10427,-0.81622,0.09319,0.04842,0.08328,-0.02579,0.08179,0.33808,0.0000,,,,0.0021,,,,,,"[1.000, 0.000, 0.943, 0.000, 1.000, 0.000]",0x101010,1.6950,3,1,-0.002863,0.002243,0.011322,0.0000,NO
34,1.7450,1.7450,0.0500,0.050,APPROACHING,0,912.98,953.22,928.28,8.61,-6.06,45.78,0.91298,0.95322,0.92828,0.15030,-0.10580,0.79898,-0.09318,-0.05146,-0.08637,0.02409,-0.08046,-0.33135,0.00000,0.00000,0.00000,0.00000,0.00000,0.00000,0.00000,0.00000,0.00000,0.00000,0.00000,0.00000,0.91298,0.95322,0.92828,-0.15030,0.10580,-0.79898,0.09318,0.05146,0.08637,-0.02409,0.08046,0.33135,0.0000,,,,0.0053,,,,,,"[1.000, 0.000, 1.000, 0.000, 1.000, 0.000]",0x101010,1.7450,3,1,-0.002744,0.002192,0.011167,0.0000,NO
35,1.7950,1.7950,0.0500,0.050,APPROACHING,0,908.32,950.57,923.88,8.78,-6.15,44.81,0.90832,0.95057,0.92388,0.15326,-0.10726,0.78206,-0.09322,-0.05448,-0.08947,0.02245,-0.07916,-0.32471,0.00000,0.00000,0.00000,0.00000,0.00000,0.00000,0.00000,0.00000,0.00000,0.00000,0.00000,0.00000,0.90832,0.95057,0.92388,-0.15326,0.10726,-0.78206,0.09322,0.05448,0.08947,-0.02245,0.07916,0.32471,0.0000,,,,0.0044,,,,,,"[1.000, 0.000, 1.000, 0.000, 1.000, 0.000]",0x101010,1.7950,3,0,-0.002742,0.002237,0.010933,0.0000,NO
36,1.8450,1.8450,0.0500,0.050,APPROACHING,0,903.65,947.77,919.33,8.95,-6.23,43.86,0.90365,0.94777,0.91933,0.15613,-0.10866,0.76548,-0.09332,-0.05750,-0.09257,0.02082,-0.07783,-0.31821,0.00000,0.00000,0.00000,0.00000,0.00000,0.00000,0.00000,0.00000,0.00000,0.00000,0.00000,0.00000,0.90365,0.94777,0.91933,-0.15613,0.10866,-0.76548,0.09332,0.05750,0.09257,-0.02082,0.07783,0.31821,0.0000,,,,0.0020,,,,,,"[1.000, 0.000, 1.000, 0.000, 1.000, 0.000]",0x101010,1.8450,3,0,-0.002648,0.002206,0.010766,0.0000,NO
37,1.8950,1.8950,0.0500,0.050,APPROACHING,0,898.99,944.82,914.63,9.10,-6.30,42.93,0.89899,0.94482,0.91463,0.15890,-0.11000,0.74922,-0.09347,-0.06050,-0.09569,0.01925,-0.07652,-0.31181,0.00000,0.00000,0.00000,0.00000,0.00000,0.00000,0.00000,0.00000,0.00000,0.00000,0.00000,0.00000,0.89899,0.94482,0.91463,-0.15890,0.11000,-0.74922,0.09347,0.06050,0.09569,-0.01925,0.07652,0.31181,0.0000,,,,0.0021,,,,,,"[1.000, 0.000, 1.000, 0.000, 1.000, 0.000]",0x101010,1.8950,3,0,-0.002651,0.002264,0.010574,0.0000,NO
38,1.9450,1.9450,0.0500,0.050,APPROACHING,0,894.31,941.72,909.76,9.26,-6.38,42.01,0.89431,0.94172,0.90976,0.16158,-0.11128,0.73329,-0.09367,-0.06349,-0.09882,0.01767,-0.07517,-0.30552,0.00000,0.00000,0.00000,0.00000,0.00000,0.00000,0.00000,0.00000,0.00000,0.00000,0.00000,0.00000,0.89431,0.94172,0.90976,-0.16158,0.11128,-0.73329,0.09367,0.06349,0.09882,-0.01767,0.07517,0.30552,0.0000,,,,0.0021,,,,,,"[1.000, 0.000, 1.000, 0.000, 1.000, 0.000]",0x101010,1.9450,3,0,-0.002573,0.002240,0.010390,0.0000,NO
39,1.9950,1.9950,0.0500,0.050,APPROACHING,0,889.62,938.47,904.74,9.41,-6.45,41.12,0.88962,0.93847,0.90474,0.16417,-0.11251,0.71766,-0.09392,-0.06647,-0.10195,0.01614,-0.07384,-0.29934,0.00000,0.00000,0.00000,0.00000,0.00000,0.00000,0.00000,0.00000,0.00000,0.00000,0.00000,0.00000,0.88962,0.93847,0.90474,-0.16417,0.11251,-0.71766,0.09392,0.06647,0.10195,-0.01614,0.07384,0.29934,0.0000,,,,0.0020,,,,,,"[1.000, 0.000, 1.000, 0.000, 1.000, 0.000]",0x101010,1.9950,3,0,-0.002555,0.002274,0.010201,0.0000,NO
40,2.0450,2.0450,0.0500,0.050,APPROACHING,0,884.91,935.07,899.57,9.55,-6.51,40.24,0.88491,0.93507,0.89957,0.16667,-0.11368,0.70235,-0.09422,-0.06943,-0.10509,0.01463,-0.07249,-0.29328,0.00000,0.00000,0.00000,0.00000,0.00000,0.00000,0.00000,0.00000,0.00000,0.00000,0.00000,0.00000,0.88491,0.93507,0.89957,-0.16667,0.11368,-0.70235,0.09422,0.06943,0.10509,-0.01463,0.07249,0.29328,0.0000,,,,0.0032,,,,,,"[1.000, 0.000, 1.000, 0.000, 1.000, 0.000]",0x101010,2.0450,3,0,-0.002508,0.002280,0.010030,0.0000,NO
41,2.0950,2.0950,0.0500,0.050,APPROACHING,0,880.19,931.53,894.24,9.69,-6.58,39.38,0.88019,0.93153,0.89424,0.16908,-0.11479,0.68734,-0.09456,-0.07239,-0.10824,0.01313,-0.07114,-0.28731,0.00000,0.00000,0.00000,0.00000,0.00000,0.00000,0.00000,0.00000,0.00000,0.00000,0.00000,0.00000,0.88019,0.93153,0.89424,-0.16908,0.11479,-0.68734,0.09456,0.07239,0.10824,-0.01313,0.07114,0.28731,0.0000,,,,0.0075,,,,,,"[1.000, 0.000, 1.000, 0.000, 1.000, 0.000]",0x101010,2.0950,3,0,-0.002458,0.002273,0.009825,0.0000,NO
42,2.1450,2.1450,0.0500,0.050,APPROACHING,0,875.46,927.83,888.74,9.82,-6.64,38.54,0.87546,0.92783,0.88874,0.17139,-0.11586,0.67263,-0.09495,-0.07533,-0.11139,0.01167,-0.06979,-0.28147,0.00000,0.00000,0.00000,0.00000,0.00000,0.00000,0.00000,0.00000,0.00000,0.00000,0.00000,0.00000,0.87546,0.92783,0.88874,-0.17139,0.11586,-0.67263,0.09495,0.07533,0.11139,-0.01167,0.06979,0.28147,0.0000,,,,0.0021,,,,,,"[1.000, 0.000, 1.000, 0.000, 1.000, 0.000]",0x101010,2.1450,3,0,-0.002409,0.002272,0.009649,0.0000,NO
43,2.1950,2.1950,0.0500,0.050,APPROACHING,0,870.70,924.00,883.10,9.95,-6.70,37.71,0.87070,0.92400,0.88310,0.17361,-0.11687,0.65822,-0.09538,-0.07825,-0.11456,0.01024,-0.06844,-0.27574,0.00000,0.00000,0.00000,0.00000,0.00000,0.00000,0.00000,0.00000,0.00000,0.00000,0.00000,0.00000,0.87070,0.92400,0.88310,-0.17361,0.11687,-0.65822,0.09538,0.07825,0.11456,-0.01024,0.06844,0.27574,0.0000,,,,0.0021,,,,,,"[1.000, 0.000, 1.000, 0.000, 1.000, 0.000]",0x101010,2.1950,3,0,-0.002391,0.002300,0.009475,0.0000,NO
44,2.2450,2.2450,0.0500,0.050,APPROACHING,0,865.92,920.01,877.29,10.07,-6.75,36.90,0.86592,0.92001,0.87729,0.17574,-0.11783,0.64409,-0.09585,-0.08116,-0.11772,0.00882,-0.06707,-0.27010,0.00000,0.00000,0.00000,0.00000,0.00000,0.00000,0.00000,0.00000,0.00000,0.00000,0.00000,0.00000,0.86592,0.92001,0.87729,-0.17574,0.11783,-0.64409,0.09585,0.08116,0.11772,-0.00882,0.06707,0.27010,0.0000,,,,0.0021,,,,,,"[1.000, 0.000, 1.000, 0.000, 1.000, 0.000]",0x101010,2.2450,3,0,-0.002338,0.002290,0.009293,0.0000,NO
45,2.2950,2.2950,0.0500,0.050,APPROACHING,0,861.11,915.88,871.32,10.19,-6.80,36.11,0.86111,0.91588,0.87132,0.17778,-0.11875,0.63025,-0.09637,-0.08406,-0.12090,0.00743,-0.06571,-0.26458,0.00000,0.00000,0.00000,0.00000,0.00000,0.00000,0.00000,0.00000,0.00000,0.00000,0.00000,0.00000,0.86111,0.91588,0.87132,-0.17778,0.11875,-0.63025,0.09637,0.08406,0.12090,-0.00743,0.06571,0.26458,0.0000,,,,0.0021,,,,,,"[1.000, 0.000, 1.000, 0.000, 1.000, 0.000]",0x101010,2.2950,3,0,-0.002312,0.002306,0.009120,0.0000,NO
46,2.3450,2.3450,0.0500,0.050,APPROACHING,0,856.28,911.60,865.20,10.30,-6.85,35.33,0.85628,0.91160,0.86520,0.17973,-0.11962,0.61670,-0.09692,-0.08695,-0.12408,0.00605,-0.06434,-0.25915,0.00000,0.00000,0.00000,0.00000,0.00000,0.00000,0.00000,0.00000,0.00000,0.00000,0.00000,0.00000,0.85628,0.91160,0.86520,-0.17973,0.11962,-0.61670,0.09692,0.08695,0.12408,-0.00605,0.06434,0.25915,0.0000,,,,0.0021,,,,,,"[1.000, 0.000, 1.000, 0.000, 1.000, 0.000]",0x101010,2.3450,3,0,-0.002268,0.002301,0.008943,0.0000,NO
47,2.3950,2.3950,0.0500,0.050,APPROACHING,0,851.42,907.18,858.92,10.40,-6.90,34.57,0.85142,0.90718,0.85892,0.18159,-0.12045,0.60341,-0.09752,-0.08982,-0.12727,0.00471,-0.06297,-0.25384,0.00000,0.00000,0.00000,0.00000,0.00000,0.00000,0.00000,0.00000,0.00000,0.00000,0.00000,0.00000,0.85142,0.90718,0.85892,-0.18159,0.12045,-0.60341,0.09752,0.08982,0.12727,-0.00471,0.06297,0.25384,0.0000,,,,0.0021,,,,,,"[1.000, 0.000, 1.000, 0.000, 1.000, 0.000]",0x101010,2.3950,3,0,-0.002238,0.002311,0.008773,0.0000,NO
48,2.4450,2.4450,0.0500,0.050,APPROACHING,0,846.53,902.62,852.47,10.51,-6.95,33.83,0.84653,0.90262,0.85247,0.18336,-0.12123,0.59040,-0.09815,-0.09267,-0.13046,0.00338,-0.06160,-0.24862,0.00000,0.00000,0.00000,0.00000,0.00000,0.00000,0.00000,0.00000,0.00000,0.00000,0.00000,0.00000,0.84653,0.90262,0.85247,-0.18336,0.12123,-0.59040,0.09815,0.09267,0.13046,-0.00338,0.06160,0.24862,0.0000,,,,0.0054,,,,,,"[1.000, 0.000, 1.000, 0.000, 1.000, 0.000]",0x101010,2.4450,3,0,-0.002218,0.002330,0.008611,0.0000,NO
49,2.4950,2.4950,0.0500,0.050,APPROACHING,0,841.60,897.92,845.87,10.60,-6.99,33.10,0.84160,0.89792,0.84587,0.18504,-0.12197,0.57765,-0.09882,-0.09552,-0.13366,0.00206,-0.06021,-0.24350,0.00000,0.00000,0.00000,0.00000,0.00000,0.00000,0.00000,0.00000,0.00000,0.00000,0.00000,0.00000,0.84160,0.89792,0.84587,-0.18504,0.12197,-0.57765,0.09882,0.09552,0.13366,-0.00206,0.06021,0.24350,0.0000,,,,0.0042,,,,,,"[1.000, 0.000, 1.000, 0.000, 1.000, 0.000]",0x101010,2.4950,3,0,-0.002152,0.002297,0.008424,0.0000,NO
50,2.5450,2.5450,0.0500,0.050,APPROACHING,0,836.65,893.07,839.11,10.69,-7.03,32.38,0.83665,0.89307,0.83911,0.18664,-0.12267,0.56517,-0.09953,-0.09834,-0.13686,0.00078,-0.05885,-0.23849,0.00000,0.00000,0.00000,0.00000,0.00000,0.00000,0.00000,0.00000,0.00000,0.00000,0.00000,0.00000,0.83665,0.89307,0.83911,-0.18664,0.12267,-0.56517,0.09953,0.09834,0.13686,-0.00078,0.05885,0.23849,0.0000,,,,0.0032,,,,,,"[1.000, 0.000, 1.000, 0.000, 1.000, 0.000]",0x101010,2.5450,3,0,-0.002147,0.002329,0.008275,0.0000,NO
51,2.5950,2.5950,0.0500,0.050,APPROACHING,0,831.65,888.08,832.18,10.78,-7.07,31.68,0.83165,0.88808,0.83218,0.18814,-0.12333,0.55294,-0.10027,-0.10116,-0.14006,-0.00050,-0.05746,-0.23357,0.00000,0.00000,0.00000,0.00000,0.00000,0.00000,0.00000,0.00000,0.00000,0.00000,0.00000,0.00000,0.83165,0.88808,0.83218,-0.18814,0.12333,-0.55294,0.10027,0.10116,0.14006,0.00050,0.05746,0.23357,0.0000,,,,0.0031,,,,,,"[1.000, 0.000, 1.000, 0.000, 1.000, 0.000]",0x101010,2.5950,3,0,-0.002093,0.002306,0.008098,0.0000,NO
52,2.6450,2.6450,0.0500,0.050,APPROACHING,0,826.62,882.96,825.10,10.86,-7.10,30.99,0.82662,0.88296,0.82510,0.18956,-0.12395,0.54096,-0.10105,-0.10396,-0.14328,-0.00174,-0.05609,-0.22876,0.00000,0.00000,0.00000,0.00000,0.00000,0.00000,0.00000,0.00000,0.00000,0.00000,0.00000,0.00000,0.82662,0.88296,0.82510,-0.18956,0.12395,-0.54096,0.10105,0.10396,0.14328,0.00174,0.05609,0.22876,0.0000,,,,0.0020,,,,,,"[1.000, 0.000, 1.000, 0.000, 1.000, 0.000]",0x101010,2.6450,3,0,-0.002062,0.002307,0.007940,0.0000,NO
53,2.6950,2.6950,0.0500,0.050,APPROACHING,0,821.55,877.69,817.86,10.94,-7.13,30.32,0.82155,0.87769,0.81786,0.19090,-0.12453,0.52923,-0.10186,-0.10674,-0.14649,-0.00297,-0.05472,-0.22404,0.00000,0.00000,0.00000,0.00000,0.00000,0.00000,0.00000,0.00000,0.00000,0.00000,0.00000,0.00000,0.82155,0.87769,0.81786,-0.19090,0.12453,-0.52923,0.10186,0.10674,0.14649,0.00297,0.05472,0.22404,0.0000,,,,0.0032,,,,,,"[1.000, 0.000, 1.000, 0.000, 1.000, 0.000]",0x101010,2.6950,3,0,-0.002069,0.002345,0.007794,0.0000,NO
54,2.7450,2.7450,0.0500,0.050,APPROACHING,0,816.43,872.28,810.45,11.01,-7.17,29.66,0.81643,0.87228,0.81045,0.19215,-0.12507,0.51774,-0.10270,-0.10952,-0.14971,-0.00420,-0.05333,-0.21940,0.00000,0.00000,0.00000,0.00000,0.00000,0.00000,0.00000,0.00000,0.00000,0.00000,0.00000,0.00000,0.81643,0.87228,0.81045,-0.19215,0.12507,-0.51774,0.10270,0.10952,0.14971,0.00420,0.05333,0.21940,0.0000,,,,0.0021,,,,,,"[1.000, 0.000, 1.000, 0.000, 1.000, 0.000]",0x101010,2.7450,3,0,-0.001973,0.002278,0.007613,0.0000,NO
55,2.7950,2.7950,0.0500,0.050,APPROACHING,0,811.27,866.74,802.88,11.08,-7.19,29.02,0.81127,0.86674,0.80288,0.19332,-0.12557,0.50649,-0.10357,-0.11227,-0.15293,-0.00537,-0.05198,-0.21488,0.00000,0.00000,0.00000,0.00000,0.00000,0.00000,0.00000,0.00000,0.00000,0.00000,0.00000,0.00000,0.81127,0.86674,0.80288,-0.19332,0.12557,-0.50649,0.10357,0.11227,0.15293,0.00537,0.05198,0.21488,0.0000,,,,0.0020,,,,,,"[1.000, 0.000, 1.000, 0.000, 1.000, 0.000]",0x101010,2.7950,3,0,-0.002013,0.002346,0.007484,0.0000,NO
56,2.8450,2.8450,0.0500,0.050,APPROACHING,0,806.07,861.05,795.16,11.14,-7.22,28.39,0.80607,0.86105,0.79516,0.19440,-0.12604,0.49548,-0.10448,-0.11502,-0.15616,-0.00657,-0.05058,-0.21043,0.00000,0.00000,0.00000,0.00000,0.00000,0.00000,0.00000,0.00000,0.00000,0.00000,0.00000,0.00000,0.80607,0.86105,0.79516,-0.19440,0.12604,-0.49548,0.10448,0.11502,0.15616,0.00657,0.05058,0.21043,0.0000,,,,0.0021,,,,,,"[1.000, 0.000, 1.000, 0.000, 1.000, 0.000]",0x101010,2.8450,3,0,-0.001936,0.002295,0.007314,0.0000,NO
57,2.8950,2.8950,0.0500,0.050,APPROACHING,0,800.83,855.23,787.27,11.20,-7.25,27.77,0.80083,0.85523,0.78727,0.19540,-0.12647,0.48470,-0.10541,-0.11775,-0.15938,-0.00772,-0.04922,-0.20608,0.00000,0.00000,0.00000,0.00000,0.00000,0.00000,0.00000,0.00000,0.00000,0.00000,0.00000,0.00000,0.80083,0.85523,0.78727,-0.19540,0.12647,-0.48470,0.10541,0.11775,0.15938,0.00772,0.04922,0.20608,0.0000,,,,0.0032,,,,,,"[1.000, 0.000, 1.000, 0.000, 1.000, 0.000]",0x101010,2.8950,3,0,-0.001968,0.002353,0.007185,0.0000,NO
58,2.9450,2.9450,0.0500,0.050,APPROACHING,0,795.53,849.28,779.22,11.25,-7.27,27.17,0.79553,0.84928,0.77922,0.19632,-0.12687,0.47414,-0.10637,-0.12047,-0.16261,-0.00889,-0.04782,-0.20181,0.00000,0.00000,0.00000,0.00000,0.00000,0.00000,0.00000,0.00000,0.00000,0.00000,0.00000,0.00000,0.79553,0.84928,0.77922,-0.19632,0.12687,-0.47414,0.10637,0.12047,0.16261,0.00889,0.04782,0.20181,0.0000,,,,0.0040,,,,,,"[1.000, 0.000, 1.000, 0.000, 1.000, 0.000]",0x101010,2.9450,3,0,-0.001873,0.002284,0.007015,0.0000,NO
59,2.9950,2.9950,0.0500,0.050,APPROACHING,0,790.19,843.19,771.01,11.30,-7.29,26.57,0.79019,0.84319,0.77101,0.19716,-0.12723,0.46380,-0.10737,-0.12317,-0.16585,-0.01001,-0.04646,-0.19764,0.00000,0.00000,0.00000,0.00000,0.00000,0.00000,0.00000,0.00000,0.00000,0.00000,0.00000,0.00000,0.79019,0.84319,0.77101,-0.19716,0.12723,-0.46380,0.10737,0.12317,0.16585,0.01001,0.04646,0.19764,0.0000,,,,0.0054,,,,,,"[1.000, 0.000, 1.000, 0.000, 1.000, 0.000]",0x101010,2.9950,3,0,-0.001905,0.002338,0.006890,0.0000,NO
60,3.0450,3.0450,0.0500,0.050,APPROACHING,0,784.80,836.96,762.63,11.34,-7.31,25.99,0.78480,0.83696,0.76263,0.19791,-0.12755,0.45368,-0.10838,-0.12586,-0.16908,-0.01114,-0.04507,-0.19354,0.00000,0.00000,0.00000,0.00000,0.00000,0.00000,0.00000,0.00000,0.00000,0.00000,0.00000,0.00000,0.78480,0.83696,0.76263,-0.19791,0.12755,-0.45368,0.10838,0.12586,0.16908,0.01114,0.04507,0.19354,0.0000,,,,0.0021,,,,,,"[1.000, 0.000, 1.000, 0.000, 1.000, 0.000]",0x101010,3.0450,3,0,-0.001810,0.002267,0.006726,0.0000,NO
61,3.0950,3.0950,0.0500,0.050,APPROACHING,0,779.35,830.60,754.10,11.38,-7.32,25.43,0.77935,0.83060,0.75410,0.19859,-0.12784,0.44377,-0.10943,-0.12854,-0.17232,-0.01221,-0.04373,-0.18954,0.00000,0.00000,0.00000,0.00000,0.00000,0.00000,0.00000,0.00000,0.00000,0.00000,0.00000,0.00000,0.77935,0.83060,0.75410,-0.19859,0.12784,-0.44377,0.10943,0.12854,0.17232,0.01221,0.04373,0.18954,0.0000,,,,0.0021,,,,,,"[1.000, 0.000, 1.000, 0.000, 1.000, 0.000]",0x101010,3.0950,3,0,-0.001861,0.002338,0.006609,0.0000,NO
62,3.1450,3.1450,0.0500,0.050,APPROACHING,0,773.85,824.11,745.40,11.41,-7.34,24.87,0.77385,0.82411,0.74540,0.19919,-0.12810,0.43407,-0.11050,-0.13121,-0.17556,-0.01332,-0.04234,-0.18561,0.00000,0.00000,0.00000,0.00000,0.00000,0.00000,0.00000,0.00000,0.00000,0.00000,0.00000,0.00000,0.77385,0.82411,0.74540,-0.19919,0.12810,-0.43407,0.11050,0.13121,0.17556,0.01332,0.04234,0.18561,0.0000,,,,0.0043,,,,,,"[1.000, 0.000, 1.000, 0.000, 1.000, 0.000]",0x101010,3.1450,3,0,-0.001809,0.002306,0.006462,0.0000,NO
63,3.1950,3.1950,0.0500,0.050,APPROACHING,0,768.30,817.48,736.54,11.44,-7.35,24.33,0.76830,0.81748,0.73654,0.19971,-0.12832,0.42458,-0.11160,-0.13386,-0.17880,-0.01440,-0.04097,-0.18177,0.00000,0.00000,0.00000,0.00000,0.00000,0.00000,0.00000,0.00000,0.00000,0.00000,0.00000,0.00000,0.76830,0.81748,0.73654,-0.19971,0.12832,-0.42458,0.11160,0.13386,0.17880,0.01440,0.04097,0.18177,0.0000,,,,0.0021,,,,,,"[1.000, 0.000, 1.000, 0.000, 1.000, 0.000]",0x101010,3.1950,3,0,-0.001758,0.002278,0.006324,0.0000,NO
64,3.2450,3.2450,0.0500,0.050,APPROACHING,0,762.69,810.72,727.52,11.47,-7.36,23.79,0.76269,0.81072,0.72752,0.20016,-0.12851,0.41529,-0.11272,-0.13650,-0.18205,-0.01544,-0.03961,-0.17801,0.00000,0.00000,0.00000,0.00000,0.00000,0.00000,0.00000,0.00000,0.00000,0.00000,0.00000,0.00000,0.76269,0.81072,0.72752,-0.20016,0.12851,-0.41529,0.11272,0.13650,0.18205,0.01544,0.03961,0.17801,0.0000,,,,0.0021,,,,,,"[1.000, 0.000, 1.000, 0.000, 1.000, 0.000]",0x101010,3.2450,3,0,-0.001780,0.002315,0.006199,0.0000,NO
65,3.2950,3.2950,0.0500,0.050,APPROACHING,0,757.03,803.83,718.34,11.49,-7.37,23.27,0.75703,0.80383,0.71834,0.20052,-0.12866,0.40619,-0.11387,-0.13913,-0.18529,-0.01650,-0.03824,-0.17432,0.00000,0.00000,0.00000,0.00000,0.00000,0.00000,0.00000,0.00000,0.00000,0.00000,0.00000,0.00000,0.75703,0.80383,0.71834,-0.20052,0.12866,-0.40619,0.11387,0.13913,0.18529,0.01650,0.03824,0.17432,0.0000,,,,0.0031,,,,,,"[1.000, 0.000, 1.000, 0.000, 1.000, 0.000]",0x101010,3.2950,3,0,-0.001752,0.002306,0.006069,0.0000,NO
66,3.3450,3.3450,0.0500,0.050,APPROACHING,0,751.30,796.81,708.99,11.51,-7.38,22.76,0.75130,0.79681,0.70899,0.20082,-0.12878,0.39729,-0.11504,-0.14175,-0.18853,-0.01754,-0.03687,-0.17072,0.00000,0.00000,0.00000,0.00000,0.00000,0.00000,0.00000,0.00000,0.00000,0.00000,0.00000,0.00000,0.75130,0.79681,0.70899,-0.20082,0.12878,-0.39729,0.11504,0.14175,0.18853,0.01754,0.03687,0.17072,0.0000,,,,0.0033,,,,,,"[1.000, 0.000, 1.000, 0.000, 1.000, 0.000]",0x101010,3.3450,3,0,-0.001711,0.002283,0.005937,0.0000,NO
67,3.3950,3.3950,0.0500,0.050,APPROACHING,0,745.52,789.66,699.49,11.52,-7.38,22.26,0.74552,0.78966,0.69949,0.20103,-0.12887,0.38858,-0.11623,-0.14436,-0.19178,-0.01856,-0.03551,-0.16719,0.00000,0.00000,0.00000,0.00000,0.00000,0.00000,0.00000,0.00000,0.00000,0.00000,0.00000,0.00000,0.74552,0.78966,0.69949,-0.20103,0.12887,-0.38858,0.11623,0.14436,0.19178,0.01856,0.03551,0.16719,0.0000,,,,0.0032,,,,,,"[1.000, 0.000, 1.000, 0.000, 1.000, 0.000]",0x101010,3.3950,3,0,-0.001708,0.002295,0.005816,0.0000,NO
68,3.4450,3.4450,0.0500,0.050,APPROACHING,0,739.68,782.37,689.81,11.53,-7.39,21.78,0.73968,0.78237,0.68981,0.20117,-0.12892,0.38006,-0.11744,-0.14695,-0.19502,-0.01958,-0.03415,-0.16373,0.00000,0.00000,0.00000,0.00000,0.00000,0.00000,0.00000,0.00000,0.00000,0.00000,0.00000,0.00000,0.73968,0.78237,0.68981,-0.20117,0.12892,-0.38006,0.11744,0.14695,0.19502,0.01958,0.03415,0.16373,0.0000,,,,0.0031,,,,,,"[1.000, 0.000, 1.000, 0.000, 1.000, 0.000]",0x101010,3.4450,3,0,-0.001675,0.002279,0.005690,0.0000,NO
69,3.4950,3.4950,0.0500,0.050,APPROACHING,0,733.78,774.96,679.98,11.53,-7.39,21.30,0.73378,0.77496,0.67998,0.20124,-0.12894,0.37171,-0.11868,-0.14954,-0.19827,-0.02057,-0.03279,-0.16035,0.00000,0.00000,0.00000,0.00000,0.00000,0.00000,0.00000,0.00000,0.00000,0.00000,0.00000,0.00000,0.73378,0.77496,0.67998,-0.20124,0.12894,-0.37171,0.11868,0.14954,0.19827,0.02057,0.03279,0.16035,0.0000,,,,0.0041,,,,,,"[1.000, 0.000, 1.000, 0.000, 1.000, 0.000]",0x101010,3.4950,3,0,-0.001667,0.002285,0.005573,0.0000,NO
70,3.5450,3.5450,0.0500,0.050,APPROACHING,0,727.81,767.42,669.99,11.53,-7.39,20.83,0.72781,0.76742,0.66999,0.20124,-0.12893,0.36355,-0.11994,-0.15211,-0.20152,-0.02156,-0.03143,-0.15703,0.00000,0.00000,0.00000,0.00000,0.00000,0.00000,0.00000,0.00000,0.00000,0.00000,0.00000,0.00000,0.72781,0.76742,0.66999,-0.20124,0.12893,-0.36355,0.11994,0.15211,0.20152,0.02156,0.03143,0.15703,0.0000,,,,0.0032,,,,,,"[1.000, 0.000, 1.000, 0.000, 1.000, 0.000]",0x101010,3.5450,3,0,-0.001640,0.002272,0.005453,0.0000,NO
71,3.5950,3.5950,0.0500,0.050,APPROACHING,0,721.78,759.75,659.83,11.53,-7.38,20.37,0.72178,0.75975,0.65983,0.20116,-0.12888,0.35556,-0.12122,-0.15468,-0.20476,-0.02254,-0.03008,-0.15379,0.00000,0.00000,0.00000,0.00000,0.00000,0.00000,0.00000,0.00000,0.00000,0.00000,0.00000,0.00000,0.72178,0.75975,0.65983,-0.20116,0.12888,-0.35556,0.12122,0.15468,0.20476,0.02254,0.03008,0.15379,0.0000,,,,0.0054,,,,,,"[1.000, 0.000, 1.000, 0.000, 1.000, 0.000]",0x101010,3.5950,3,0,-0.001631,0.002277,0.005340,0.0000,NO
72,3.6450,3.6450,0.0500,0.050,APPROACHING,0,715.69,751.95,649.51,11.52,-7.38,19.92,0.71569,0.75195,0.64951,0.20102,-0.12880,0.34775,-0.12251,-0.15723,-0.20801,-0.02351,-0.02873,-0.15061,0.00000,0.00000,0.00000,0.00000,0.00000,0.00000,0.00000,0.00000,0.00000,0.00000,0.00000,0.00000,0.71569,0.75195,0.64951,-0.20102,0.12880,-0.34775,0.12251,0.15723,0.20801,0.02351,0.02873,0.15061,0.0000,,,,0.0021,,,,,,"[1.000, 0.000, 1.000, 0.000, 1.000, 0.000]",0x101010,3.6450,3,0,-0.001576,0.002238,0.005221,0.0000,NO
73,3.6950,3.6950,0.0500,0.050,APPROACHING,0,709.53,744.03,639.03,11.50,-7.37,19.49,0.70953,0.74403,0.63903,0.20080,-0.12869,0.34010,-0.12383,-0.15978,-0.21125,-0.02445,-0.02740,-0.14751,0.00000,0.00000,0.00000,0.00000,0.00000,0.00000,0.00000,0.00000,0.00000,0.00000,0.00000,0.00000,0.70953,0.74403,0.63903,-0.20080,0.12869,-0.34010,0.12383,0.15978,0.21125,0.02445,0.02740,0.14751,0.0000,,,,0.0032,,,,,,"[1.000, 0.000, 1.000, 0.000, 1.000, 0.000]",0x101010,3.6950,3,0,-0.001644,0.002311,0.005122,0.0000,NO
74,3.7450,3.7450,0.0500,0.050,APPROACHING,0,703.31,735.98,628.39,11.49,-7.37,19.06,0.70331,0.73598,0.62839,0.20051,-0.12855,0.33262,-0.12517,-0.16231,-0.21450,-0.02542,-0.02603,-0.14447,0.00000,0.00000,0.00000,0.00000,0.00000,0.00000,0.00000,0.00000,0.00000,0.00000,0.00000,0.00000,0.70331,0.73598,0.62839,-0.20051,0.12855,-0.33262,0.12517,0.16231,0.21450,0.02542,0.02603,0.14447,0.0000,,,,0.0022,,,,,,"[1.000, 0.000, 1.000, 0.000, 1.000, 0.000]",0x101010,3.7450,3,0,-0.001507,0.002197,0.004999,0.0000,NO
75,3.7950,3.7950,0.0500,0.050,APPROACHING,0,697.01,727.80,617.58,11.47,-7.35,18.64,0.69701,0.72780,0.61758,0.20016,-0.12837,0.32530,-0.12653,-0.16484,-0.21774,-0.02632,-0.02472,-0.14149,0.00000,0.00000,0.00000,0.00000,0.00000,0.00000,0.00000,0.00000,0.00000,0.00000,0.00000,0.00000,0.69701,0.72780,0.61758,-0.20016,0.12837,-0.32530,0.12653,0.16484,0.21774,0.02632,0.02472,0.14149,0.0000,,,,0.0032,,,,,,"[1.000, 0.000, 1.000, 0.000, 1.000, 0.000]",0x101010,3.7950,3,0,-0.001639,0.002327,0.004910,0.0000,NO
76,3.8450,3.8450,0.0500,0.050,APPROACHING,0,690.65,719.49,606.61,11.44,-7.34,18.23,0.69065,0.71949,0.60661,0.19973,-0.12815,0.31814,-0.12791,-0.16736,-0.22098,-0.02729,-0.02334,-0.13857,0.00000,0.00000,0.00000,0.00000,0.00000,0.00000,0.00000,0.00000,0.00000,0.00000,0.00000,0.00000,0.69065,0.71949,0.60661,-0.19973,0.12815,-0.31814,0.12791,0.16736,0.22098,0.02729,0.02334,0.13857,0.0000,,,,0.0044,,,,,,"[1.000, 0.000, 1.000, 0.000, 1.000, 0.000]",0x101010,3.8450,3,0,-0.001480,0.002192,0.004790,0.0000,NO
77,3.8950,3.8950,0.0500,0.050,APPROACHING,0,684.22,711.06,595.48,11.42,-7.33,17.83,0.68422,0.71106,0.59548,0.19924,-0.12791,0.31114,-0.12930,-0.16987,-0.22423,-0.02817,-0.02204,-0.13573,0.00000,0.00000,0.00000,0.00000,0.00000,0.00000,0.00000,0.00000,0.00000,0.00000,0.00000,0.00000,0.68422,0.71106,0.59548,-0.19924,0.12791,-0.31114,0.12930,0.16987,0.22423,0.02817,0.02204,0.13573,0.0000,,,,0.0022,,,,,,"[1.000, 0.000, 1.000, 0.000, 1.000, 0.000]",0x101010,3.8950,3,0,-0.001547,0.002261,0.004698,0.0000,NO
78,3.9450,3.9450,0.0500,0.050,APPROACHING,0,677.72,702.51,584.19,11.38,-7.31,17.43,0.67772,0.70251,0.58419,0.19868,-0.12763,0.30429,-0.13071,-0.17237,-0.22747,-0.02909,-0.02069,-0.13293,0.00000,0.00000,0.00000,0.00000,0.00000,0.00000,0.00000,0.00000,0.00000,0.00000,0.00000,0.00000,0.67772,0.70251,0.58419,-0.19868,0.12763,-0.30429,0.13071,0.17237,0.22747,0.02909,0.02069,0.13293,0.0000,,,,0.0021,,,,,,"[1.000, 0.000, 1.000, 0.000, 1.000, 0.000]",0x101010,3.9450,3,0,-0.001499,0.002227,0.004594,0.0000,NO
79,3.9950,3.9950,0.0500,0.050,APPROACHING,0,671.15,693.82,572.74,11.35,-7.29,17.05,0.67115,0.69382,0.57274,0.19806,-0.12731,0.29759,-0.13214,-0.17487,-0.23070,-0.02999,-0.01937,-0.13020,0.00000,0.00000,0.00000,0.00000,0.00000,0.00000,0.00000,0.00000,0.00000,0.00000,0.00000,0.00000,0.67115,0.69382,0.57274,-0.19806,0.12731,-0.29759,0.13214,0.17487,0.23070,0.02999,0.01937,0.13020,0.0000,,,,0.0032,,,,,,"[1.000, 0.000, 1.000, 0.000, 1.000, 0.000]",0x101010,3.9950,3,0,-0.001541,0.002274,0.004502,0.0000,NO
80,4.0450,4.0450,0.0500,0.050,APPROACHING,0,664.51,685.02,561.12,11.31,-7.27,16.67,0.66451,0.68502,0.56112,0.19736,-0.12696,0.29103,-0.13359,-0.17735,-0.23394,-0.03090,-0.01802,-0.12753,0.00000,0.00000,0.00000,0.00000,0.00000,0.00000,0.00000,0.00000,0.00000,0.00000,0.00000,0.00000,0.66451,0.68502,0.56112,-0.19736,0.12696,-0.29103,0.13359,0.17735,0.23394,0.03090,0.01802,0.12753,0.0000,,,,0.0044,,,,,,"[1.000, 0.000, 1.000, 0.000, 1.000, 0.000]",0x101010,4.0450,3,0,-0.001452,0.002202,0.004400,0.0000,NO
81,4.0950,4.0950,0.0500,0.050,APPROACHING,0,657.79,676.09,549.34,11.26,-7.25,16.31,0.65779,0.67609,0.54934,0.19661,-0.12658,0.28462,-0.13505,-0.17983,-0.23717,-0.03177,-0.01671,-0.12491,0.00000,0.00000,0.00000,0.00000,0.00000,0.00000,0.00000,0.00000,0.00000,0.00000,0.00000,0.00000,0.65779,0.67609,0.54934,-0.19661,0.12658,-0.28462,0.13505,0.17983,0.23717,0.03177,0.01671,0.12491,0.0000,,,,0.0032,,,,,,"[1.000, 0.000, 1.000, 0.000, 0.835, 0.111]",0x101010,4.0950,4,2,-0.001494,0.002247,0.004312,0.0000,NO
82,4.1450,4.1450,0.0500,0.050,APPROACHING,0,651.00,667.02,537.46,11.22,-7.23,15.95,0.65100,0.66702,0.53746,0.19579,-0.12616,0.27835,-0.13669,-0.18286,-0.23797,-0.03265,-0.01537,-0.12235,0.00000,0.00000,0.00000,0.00000,0.00000,0.00000,0.00000,0.00000,0.00000,0.00000,0.00000,0.00000,0.65100,0.66702,0.53746,-0.19579,0.12616,-0.27835,0.13669,0.18286,0.23797,0.03265,0.01537,0.12235,0.0000,,,,0.0021,,,,,,"[1.000, 0.000, 1.000, 0.000, 0.616, 0.304]",0x101010,4.1450,4,2,-0.001390,0.002158,0.004218,0.0000,NO
83,4.1950,4.1950,0.0500,0.050,APPROACHING,0,644.12,657.80,525.54,11.17,-7.20,15.60,0.64412,0.65780,0.52554,0.19490,-0.12571,0.27222,-0.13835,-0.18588,-0.23877,-0.03348,-0.01409,-0.11984,0.00000,0.00000,0.00000,0.00000,0.00000,0.00000,0.00000,0.00000,0.00000,0.00000,0.00000,0.00000,0.64412,0.65780,0.52554,-0.19490,0.12571,-0.27222,0.13835,0.18588,0.23877,0.03348,0.01409,0.11984,0.0000,,,,0.0029,,,,,,"[1.000, 0.000, 1.000, 0.000, 0.098, 0.796]",0x101001,4.1950,4,2,-0.001437,0.002203,0.004138,0.0000,NO
84,4.2450,4.2450,0.0500,0.050,APPROACHING,0,637.16,648.43,513.59,11.11,-7.17,15.25,0.63716,0.64843,0.51359,0.19396,-0.12522,0.26623,-0.14003,-0.18889,-0.23956,-0.03434,-0.01278,-0.11738,0.00000,0.00000,0.00000,0.00000,0.00000,0.00000,0.00000,0.00000,0.00000,0.00000,0.00000,0.00000,0.63716,0.64843,0.51359,-0.19396,0.12522,-0.26623,0.14003,0.18889,0.23956,0.03434,0.01278,0.11738,0.0000,,,,0.0021,,,,,,"[1.000, 0.000, 1.000, 0.000, 0.000, 1.000]",0x101001,4.2450,3,2,-0.001347,0.002125,0.004050,0.0000,NO
85,4.2950,4.2950,0.0500,0.050,APPROACHING,0,630.12,638.90,501.65,11.06,-7.14,14.92,0.63012,0.63890,0.50165,0.19295,-0.12470,0.26036,-0.14190,-0.19243,-0.23791,-0.03514,-0.01152,-0.11497,0.00000,0.00000,0.00000,0.00000,0.00000,0.00000,0.00000,0.00000,0.00000,0.00000,0.00000,0.00000,0.63012,0.63890,0.50165,-0.19295,0.12470,-0.26036,0.14190,0.19243,0.23791,0.03514,0.01152,0.11497,0.0000,,,,0.0021,,,,,,"[1.000, 0.000, 1.000, 0.000, 0.000, 1.000]",0x101001,4.2950,3,0,-0.001339,0.002116,0.003972,0.0000,NO
86,4.3450,4.3450,0.0500,0.050,APPROACHING,0,622.97,629.19,489.80,10.99,-7.11,14.59,0.62297,0.62919,0.48980,0.19189,-0.12415,0.25463,-0.14379,-0.19596,-0.23626,-0.03593,-0.01026,-0.11261,0.00000,0.00000,0.00000,0.00000,0.00000,0.00000,0.00000,0.00000,0.00000,0.00000,0.00000,0.00000,0.62297,0.62919,0.48980,-0.19189,0.12415,-0.25463,0.14379,0.19596,0.23626,0.03593,0.01026,0.11261,0.0000,,,,0.0021,,,,,,"[1.000, 0.000, 1.000, 0.000, 0.000, 1.000]",0x101001,4.3450,3,0,-0.001254,0.002038,0.003892,0.0000,NO
87,4.3950,4.3950,0.0500,0.050,APPROACHING,0,615.74,619.30,478.02,10.93,-7.08,14.27,0.61574,0.61930,0.47802,0.19077,-0.12356,0.24903,-0.14570,-0.19948,-0.23461,-0.03668,-0.00905,-0.11029,0.00000,0.00000,0.00000,0.00000,0.00000,0.00000,0.00000,0.00000,0.00000,0.00000,0.00000,0.00000,0.61574,0.61930,0.47802,-0.19077,0.12356,-0.24903,0.14570,0.19948,0.23461,0.03668,0.00905,0.11029,0.0000,,,,0.0022,,,,,,"[1.000, 0.000, 1.000, 0.000, 0.000, 1.000]",0x101001,4.3950,3,0,-0.001228,0.002012,0.003816,0.0000,NO
88,4.4450,4.4450,0.0500,0.050,APPROACHING,0,608.40,609.24,466.33,10.86,-7.04,13.95,0.60840,0.60924,0.46633,0.18959,-0.12294,0.24354,-0.14763,-0.20298,-0.23295,-0.03741,-0.00785,-0.10802,0.00000,0.00000,0.00000,0.00000,0.00000,0.00000,0.00000,0.00000,0.00000,0.00000,0.00000,0.00000,0.60840,0.60924,0.46633,-0.18959,0.12294,-0.24354,0.14763,0.20298,0.23295,0.03741,0.00785,0.10802,0.0000,,,,0.0043,,,,,,"[1.000, 0.000, 1.000, 0.000, 0.000, 1.000]",0x101001,4.4450,3,0,-0.001194,0.001979,0.003742,0.0000,NO
89,4.4950,4.4950,0.0500,0.050,APPROACHING,0,600.97,599.01,454.73,10.79,-7.01,13.65,0.60097,0.59901,0.45473,0.18835,-0.12230,0.23819,-0.14957,-0.20647,-0.23128,-0.03812,-0.00668,-0.10580,0.00000,0.00000,0.00000,0.00000,0.00000,0.00000,0.00000,0.00000,0.00000,0.00000,0.00000,0.00000,0.60097,0.59901,0.45473,-0.18835,0.12230,-0.23819,0.14957,0.20647,0.23128,0.03812,0.00668,0.10580,0.0000,,,,0.0032,,,,,,"[1.000, 0.000, 1.000, 0.000, 0.000, 1.000]",0x101001,4.4950,3,0,-0.001096,0.001888,0.003664,0.0000,NO
90,4.5450,4.5450,0.0500,0.050,APPROACHING,0,593.45,588.60,443.21,10.72,-6.97,13.35,0.59345,0.58860,0.44321,0.18707,-0.12162,0.23295,-0.15154,-0.20995,-0.22961,-0.03877,-0.00556,-0.10362,0.00000,0.00000,0.00000,0.00000,0.00000,0.00000,0.00000,0.00000,0.00000,0.00000,0.00000,0.00000,0.59345,0.58860,0.44321,-0.18707,0.12162,-0.23295,0.15154,0.20995,0.22961,0.03877,0.00556,0.10362,0.0000,,,,0.0043,,,,,,"[1.000, 0.000, 1.000, 0.000, 0.000, 1.000]",0x101001,4.5450,3,0,-0.001094,0.001883,0.003596,0.0000,NO
91,4.5950,4.5950,0.0500,0.050,APPROACHING,0,585.82,578.01,431.77,10.64,-6.93,13.05,0.58582,0.57801,0.43177,0.18573,-0.12092,0.22782,-0.15352,-0.21342,-0.22794,-0.03942,-0.00444,-0.10148,0.00000,0.00000,0.00000,0.00000,0.00000,0.00000,0.00000,0.00000,0.00000,0.00000,0.00000,0.00000,0.58582,0.57801,0.43177,-0.18573,0.12092,-0.22782,0.15352,0.21342,0.22794,0.03942,0.00444,0.10148,0.0000,,,,0.0032,,,,,,"[1.000, 0.000, 1.000, 0.000, 0.000, 1.000]",0x101001,4.5950,3,0,-0.001007,0.001802,0.003521,0.0000,NO
92,4.6450,4.6450,0.0500,0.050,APPROACHING,0,578.09,567.25,420.41,10.56,-6.89,12.77,0.57809,0.56725,0.42041,0.18435,-0.12018,0.22282,-0.15552,-0.21687,-0.22626,-0.04002,-0.00337,-0.09939,0.00000,0.00000,0.00000,0.00000,0.00000,0.00000,0.00000,0.00000,0.00000,0.00000,0.00000,0.00000,0.57809,0.56725,0.42041,-0.18435,0.12018,-0.22282,0.15552,0.21687,0.22626,0.04002,0.00337,0.09939,0.0000,,,,0.0043,,,,,,"[1.000, 0.000, 1.000, 0.000, 0.000, 1.000]",0x101001,4.6450,3,0,-0.001000,0.001791,0.003454,0.0000,NO
93,4.6950,4.6950,0.0500,0.050,APPROACHING,0,570.27,556.32,409.14,10.48,-6.84,12.49,0.57027,0.55632,0.40914,0.18292,-0.11942,0.21792,-0.15754,-0.22031,-0.22457,-0.04062,-0.00230,-0.09734,0.00000,0.00000,0.00000,0.00000,0.00000,0.00000,0.00000,0.00000,0.00000,0.00000,0.00000,0.00000,0.57027,0.55632,0.40914,-0.18292,0.11942,-0.21792,0.15754,0.22031,0.22457,0.04062,0.00230,0.09734,0.0000,,,,0.0043,,,,,,"[1.000, 0.000, 1.000, 0.000, 0.000, 1.000]",0x101001,4.6950,3,0,-0.000924,0.001719,0.003383,0.0000,NO
94,4.7450,4.7450,0.0500,0.050,APPROACHING,0,562.34,545.22,397.96,10.40,-6.80,12.21,0.56234,0.54522,0.39796,0.18144,-0.11864,0.21313,-0.15957,-0.22374,-0.22287,-0.04117,-0.00128,-0.09532,0.00000,0.00000,0.00000,0.00000,0.00000,0.00000,0.00000,0.00000,0.00000,0.00000,0.00000,0.00000,0.56234,0.54522,0.39796,-0.18144,0.11864,-0.21313,0.15957,0.22374,0.22287,0.04117,0.00128,0.09532,0.0000,,,,0.0033,,,,,,"[1.000, 0.000, 1.000, 0.000, 0.000, 1.000]",0x101001,4.7450,3,0,-0.000905,0.001699,0.003318,0.0000,NO
95,4.7950,4.7950,0.0500,0.050,APPROACHING,0,554.31,533.95,386.85,10.31,-6.75,11.94,0.55431,0.53395,0.38685,0.17992,-0.11783,0.20845,-0.16162,-0.22715,-0.22117,-0.04170,-0.00027,-0.09335,0.00000,0.00000,0.00000,0.00000,0.00000,0.00000,0.00000,0.00000,0.00000,0.00000,0.00000,0.00000,0.55431,0.53395,0.38685,-0.17992,0.11783,-0.20845,0.16162,0.22715,0.22117,0.04170,0.00027,0.09335,0.0000,,,,0.0032,,,,,,"[1.000, 0.000, 0.852, 0.094, 0.000, 1.000]",0x101001,4.7950,4,2,-0.000846,0.001641,0.003251,0.0000,NO
96,4.8450,4.8450,0.0500,0.050,APPROACHING,0,546.16,522.57,375.85,10.22,-6.70,11.68,0.54616,0.52257,0.37585,0.17836,-0.11700,0.20388,-0.16424,-0.22815,-0.21902,-0.04221,0.00071,-0.09142,0.00000,0.00000,0.00000,0.00000,0.00000,0.00000,0.00000,0.00000,0.00000,0.00000,0.00000,0.00000,0.54616,0.52257,0.37585,-0.17836,0.11700,-0.20388,0.16424,0.22815,0.21902,0.04221,-0.00071,0.09142,0.0000,,,,0.0022,,,,,,"[1.000, 0.000, 0.620, 0.299, 0.000, 1.000]",0x101001,4.8450,4,2,-0.000780,0.001594,0.003186,0.0000,NO
97,4.8950,4.8950,0.0500,0.050,APPROACHING,0,537.89,511.14,364.95,10.13,-6.65,11.43,0.53789,0.51114,0.36495,0.17676,-0.11614,0.19941,-0.16687,-0.22914,-0.21687,-0.04267,0.00165,-0.08952,0.00000,0.00000,0.00000,0.00000,0.00000,0.00000,0.00000,0.00000,0.00000,0.00000,0.00000,0.00000,0.53789,0.51114,0.36495,-0.17676,0.11614,-0.19941,0.16687,0.22914,0.21687,0.04267,-0.00165,0.08952,0.0000,,,,0.0022,,,,,,"[1.000, 0.000, 0.185, 0.709, 0.000, 1.000]",0x100101,4.8950,4,2,-0.000762,0.001590,0.003126,0.0000,NO
98,4.9450,4.9450,0.0500,0.050,APPROACHING,0,529.48,499.66,354.16,10.03,-6.60,11.17,0.52948,0.49966,0.35416,0.17512,-0.11526,0.19503,-0.16950,-0.23011,-0.21471,-0.04312,0.00260,-0.08767,0.00000,0.00000,0.00000,0.00000,0.00000,0.00000,0.00000,0.00000,0.00000,0.00000,0.00000,0.00000,0.52948,0.49966,0.35416,-0.17512,0.11526,-0.19503,0.16950,0.23011,0.21471,0.04312,-0.00260,0.08767,0.0000,,,,0.0045,,,,,,"[1.000, 0.000, 0.000, 1.000, 0.000, 1.000]",0x100101,4.9450,3,2,-0.000716,0.001559,0.003065,0.0000,NO
99,4.9950,4.9950,0.0500,0.050,APPROACHING,0,520.92,488.19,343.49,9.94,-6.55,10.93,0.52092,0.48819,0.34349,0.17344,-0.11436,0.19076,-0.17265,-0.22866,-0.21212,-0.04355,0.00352,-0.08584,0.00000,0.00000,0.00000,0.00000,0.00000,0.00000,0.00000,0.00000,0.00000,0.00000,0.00000,0.00000,0.52092,0.48819,0.34349,-0.17344,0.11436,-0.19076,0.17265,0.22866,0.21212,0.04355,-0.00352,0.08584,0.0000,,,,0.0021,,,,,,"[1.000, 0.000, 0.000, 1.000, 0.000, 1.000]",0x100101,4.9950,3,0,-0.000591,0.001472,0.002999,0.0000,NO
100,5.0450,5.0450,0.0500,0.050,APPROACHING,0,512.21,476.79,332.95,9.84,-6.50,10.69,0.51221,0.47679,0.33295,0.17173,-0.11343,0.18658,-0.17579,-0.22719,-0.20953,-0.04390,0.00440,-0.08406,0.00000,0.00000,0.00000,0.00000,0.00000,0.00000,0.00000,0.00000,0.00000,0.00000,0.00000,0.00000,0.51221,0.47679,0.33295,-0.17173,0.11343,-0.18658,0.17579,0.22719,0.20953,0.04390,-0.00440,0.08406,0.0000,,,,0.0032,,,,,,"[1.000, 0.000, 0.000, 1.000, 0.000, 1.000]",0x100101,5.0450,3,0,-0.000631,0.001535,0.002948,0.0000,NO
101,5.0950,5.0950,0.0500,0.050,APPROACHING,0,503.34,465.47,322.54,9.74,-6.44,10.46,0.50334,0.46547,0.32254,0.16999,-0.11248,0.18250,-0.17893,-0.22571,-0.20695,-0.04428,0.00531,-0.08231,0.00000,0.00000,0.00000,0.00000,0.00000,0.00000,0.00000,0.00000,0.00000,0.00000,0.00000,0.00000,0.50334,0.46547,0.32254,-0.16999,0.11248,-0.18250,0.17893,0.22571,0.20695,0.04428,-0.00531,0.08231,0.0000,,,,0.0021,,,,,,"[1.000, 0.000, 0.000, 1.000, 0.000, 1.000]",0x100101,5.0950,3,0,-0.000443,0.001384,0.002880,0.0000,NO
102,5.1450,5.1450,0.0500,0.050,APPROACHING,0,494.32,454.22,312.26,9.64,-6.39,10.23,0.49432,0.45422,0.31226,0.16821,-0.11152,0.17851,-0.18206,-0.22420,-0.20436,-0.04454,0.00613,-0.08059,0.00000,0.00000,0.00000,0.00000,0.00000,0.00000,0.00000,0.00000,0.00000,0.00000,0.00000,0.00000,0.49432,0.45422,0.31226,-0.16821,0.11152,-0.17851,0.18206,0.22420,0.20436,0.04454,-0.00613,0.08059,0.0000,,,,0.0031,,,,,,"[1.000, 0.000, 0.000, 1.000, 0.000, 1.000]",0x100101,5.1450,3,0,-0.000506,0.001465,0.002833,0.0000,NO
103,5.1950,5.1950,0.0500,0.050,APPROACHING,0,485.14,443.05,302.10,9.53,-6.33,10.00,0.48514,0.44305,0.30210,0.16641,-0.11053,0.17461,-0.18518,-0.22268,-0.20177,-0.04484,0.00700,-0.07891,0.00000,0.00000,0.00000,0.00000,0.00000,0.00000,0.00000,0.00000,0.00000,0.00000,0.00000,0.00000,0.48514,0.44305,0.30210,-0.16641,0.11053,-0.17461,0.18518,0.22268,0.20177,0.04484,-0.00700,0.07891,0.0000,,,,0.0032,,,,,,"[1.000, 0.000, 0.000, 1.000, 0.000, 1.000]",0x100101,5.1950,3,0,-0.000386,0.001376,0.002772,0.0000,NO
104,5.2450,5.2450,0.0500,0.050,APPROACHING,0,475.80,431.95,292.08,9.43,-6.28,9.79,0.47580,0.43195,0.29208,0.16458,-0.10952,0.17079,-0.18829,-0.22114,-0.19918,-0.04507,0.00782,-0.07726,0.00000,0.00000,0.00000,0.00000,0.00000,0.00000,0.00000,0.00000,0.00000,0.00000,0.00000,0.00000,0.47580,0.43195,0.29208,-0.16458,0.10952,-0.17079,0.18829,0.22114,0.19918,0.04507,-0.00782,0.07726,0.0000,,,,0.0032,,,,,,"[1.000, 0.000, 0.000, 1.000, 0.000, 1.000]",0x100101,5.2450,3,0,-0.000355,0.001364,0.002719,0.0000,NO
105,5.2950,5.2950,0.0500,0.050,APPROACHING,0,466.31,420.93,282.18,9.32,-6.22,9.57,0.46631,0.42093,0.28218,0.16273,-0.10849,0.16707,-0.19140,-0.21958,-0.19660,-0.04528,0.00863,-0.07565,0.00000,0.00000,0.00000,0.00000,0.00000,0.00000,0.00000,0.00000,0.00000,0.00000,0.00000,0.00000,0.46631,0.42093,0.28218,-0.16273,0.10849,-0.16707,0.19140,0.21958,0.19660,0.04528,-0.00863,0.07565,0.0000,,,,0.0020,,,,,,"[1.000, 0.000, 0.000, 1.000, 0.000, 1.000]",0x100101,5.2950,3,0,-0.000262,0.001294,0.002662,0.0000,NO
106,5.3450,5.3450,0.0500,0.050,APPROACHING,0,456.66,409.99,272.42,9.22,-6.16,9.36,0.45666,0.40999,0.27242,0.16085,-0.10744,0.16342,-0.19449,-0.21800,-0.19402,-0.04544,0.00940,-0.07406,0.00000,0.00000,0.00000,0.00000,0.00000,0.00000,0.00000,0.00000,0.00000,0.00000,0.00000,0.00000,0.45666,0.40999,0.27242,-0.16085,0.10744,-0.16342,0.19449,0.21800,0.19402,0.04544,-0.00940,0.07406,0.0000,,,,0.0021,,,,,,"[1.000, 0.000, 0.000, 1.000, 0.000, 1.000]",0x100101,5.3450,3,0,-0.000264,0.001313,0.002613,0.0000,NO
107,5.3950,5.3950,0.0500,0.050,APPROACHING,0,446.86,399.13,262.78,9.11,-6.09,9.16,0.44686,0.39913,0.26278,0.15896,-0.10638,0.15986,-0.19758,-0.21641,-0.19143,-0.04560,0.01018,-0.07251,0.00000,0.00000,0.00000,0.00000,0.00000,0.00000,0.00000,0.00000,0.00000,0.00000,0.00000,0.00000,0.44686,0.39913,0.26278,-0.15896,0.10638,-0.15986,0.19758,0.21641,0.19143,0.04560,-0.01018,0.07251,0.0000,,,,0.0021,,,,,,"[0.913, 0.061, 0.000, 1.000, 0.000, 1.000]",0x100101,5.3950,4,2,-0.000178,0.001245,0.002558,0.0000,NO
108,5.4450,5.4450,0.0500,0.050,APPROACHING,0,436.96,388.36,253.28,9.00,-6.03,8.96,0.43696,0.38836,0.25328,0.15704,-0.10529,0.15638,-0.19821,-0.21441,-0.18859,-0.04570,0.01092,-0.07099,0.00000,0.00000,0.00000,0.00000,0.00000,0.00000,0.00000,0.00000,0.00000,0.00000,0.00000,0.00000,0.43696,0.38836,0.25328,-0.15704,0.10529,-0.15638,0.19821,0.21441,0.18859,0.04570,-0.01092,0.07099,0.0000,,,,0.0021,,,,,,"[0.720, 0.227, 0.000, 1.000, 0.000, 1.000]",0x100101,5.4450,4,2,-0.000161,0.001233,0.002509,0.0000,NO
109,5.4950,5.4950,0.0500,0.050,APPROACHING,0,427.04,377.69,243.92,8.89,-5.97,8.77,0.42704,0.37769,0.24392,0.15511,-0.10419,0.15298,-0.19882,-0.21240,-0.18574,-0.04580,0.01166,-0.06950,0.00000,0.00000,0.00000,0.00000,0.00000,0.00000,0.00000,0.00000,0.00000,0.00000,0.00000,0.00000,0.42704,0.37769,0.24392,-0.15511,0.10419,-0.15298,0.19882,0.21240,0.18574,0.04580,-0.01166,0.06950,0.0000,,,,0.0021,,,,,,"[0.298, 0.622, 0.000, 1.000, 0.000, 1.000]",0x010101,5.4950,4,2,-0.000098,0.001174,0.002458,0.0000,NO
110,5.5450,5.5450,0.0500,0.050,APPROACHING,0,417.08,367.12,234.71,8.78,-5.91,8.57,0.41708,0.36712,0.23471,0.15316,-0.10307,0.14966,-0.19943,-0.21038,-0.18290,-0.04586,0.01235,-0.06804,0.00000,0.00000,0.00000,0.00000,0.00000,0.00000,0.00000,0.00000,0.00000,0.00000,0.00000,0.00000,0.41708,0.36712,0.23471,-0.15316,0.10307,-0.14966,0.19943,0.21038,0.18290,0.04586,-0.01235,0.06804,0.0000,,,,0.0021,,,,,,"[0.000, 1.000, 0.000, 1.000, 0.000, 1.000]",0x010101,5.5450,3,2,-0.000071,0.001150,0.002410,0.0000,NO
111,5.5950,5.5950,0.0500,0.050,APPROACHING,0,407.16,356.66,225.64,8.66,-5.84,8.39,0.40716,0.35666,0.22564,0.15120,-0.10193,0.14641,-0.19757,-0.20799,-0.17981,-0.04590,0.01304,-0.06660,0.00000,0.00000,0.00000,0.00000,0.00000,0.00000,0.00000,0.00000,0.00000,0.00000,0.00000,0.00000,0.40716,0.35666,0.22564,-0.15120,0.10193,-0.14641,0.19757,0.20799,0.17981,0.04590,-0.01304,0.06660,0.0000,,,,0.0019,,,,,,"[0.000, 1.000, 0.000, 1.000, 0.000, 1.000]",0x010101,5.5950,3,0,-0.000023,0.001095,0.002361,0.0000,NO
112,5.6450,5.6450,0.0500,0.050,APPROACHING,0,397.33,346.32,216.73,8.55,-5.77,8.21,0.39733,0.34632,0.21673,0.14923,-0.10078,0.14324,-0.19570,-0.20559,-0.17673,-0.04591,0.01369,-0.06520,0.00000,0.00000,0.00000,0.00000,0.00000,0.00000,0.00000,0.00000,0.00000,0.00000,0.00000,0.00000,0.39733,0.34632,0.21673,-0.14923,0.10078,-0.14324,0.19570,0.20559,0.17673,0.04591,-0.01369,0.06520,0.0000,,,,0.0021,,,,,,"[0.000, 1.000, 0.000, 1.000, 0.000, 1.000]",0x010101,5.6450,3,0,0.000004,0.001058,0.002315,0.0000,NO
113,5.6950,5.6950,0.0500,0.050,APPROACHING,0,387.59,336.10,207.97,8.44,-5.71,8.03,0.38759,0.33610,0.20797,0.14724,-0.09961,0.14014,-0.19381,-0.20320,-0.17365,-0.04591,0.01432,-0.06382,0.00000,0.00000,0.00000,0.00000,0.00000,0.00000,0.00000,0.00000,0.00000,0.00000,0.00000,0.00000,0.38759,0.33610,0.20797,-0.14724,0.09961,-0.14014,0.19381,0.20320,0.17365,0.04591,-0.01432,0.06382,0.0000,,,,0.0021,,,,,,"[0.000, 1.000, 0.000, 1.000, 0.000, 1.000]",0x010101,5.6950,3,0,0.000045,0.001009,0.002268,0.0000,NO
114,5.7450,5.7450,0.0500,0.050,APPROACHING,0,377.95,326.00,199.36,8.32,-5.64,7.86,0.37795,0.32600,0.19936,0.14525,-0.09842,0.13710,-0.19192,-0.20081,-0.17058,-0.04588,0.01492,-0.06247,0.00000,0.00000,0.00000,0.00000,0.00000,0.00000,0.00000,0.00000,0.00000,0.00000,0.00000,0.00000,0.37795,0.32600,0.19936,-0.14525,0.09842,-0.13710,0.19192,0.20081,0.17058,0.04588,-0.01492,0.06247,0.0000,,,,0.0021,,,,,,"[0.000, 1.000, 0.000, 1.000, 0.000, 1.000]",0x010101,5.7450,3,0,0.000075,0.000969,0.002223,0.0000,NO
115,5.7950,5.7950,0.0500,0.050,APPROACHING,0,368.40,316.02,190.91,8.21,-5.57,7.69,0.36840,0.31602,0.19091,0.14324,-0.09723,0.13414,-0.19001,-0.19841,-0.16752,-0.04584,0.01549,-0.06115,0.00000,0.00000,0.00000,0.00000,0.00000,0.00000,0.00000,0.00000,0.00000,0.00000,0.00000,0.00000,0.36840,0.31602,0.19091,-0.14324,0.09723,-0.13414,0.19001,0.19841,0.16752,0.04584,-0.01549,0.06115,0.0000,,,,0.0021,,,,,,"[0.000, 1.000, 0.000, 1.000, 0.000, 1.000]",0x010101,5.7950,3,0,0.000111,0.000924,0.002178,0.0000,NO
