Time,Current_X,Current_Y,Current_Z,Current_Roll,Current_Pitch,Current_Yaw,Current_VX,Current_VY,Current_VZ,Current_WX,Current_WY,Current_WZ,Target_X,Target_Y,Target_Z,Target_Roll,Target_Pitch,Target_Yaw,Error_X,Error_Y,Error_Z,Error_Roll,Error_Pitch,Error_Yaw,Command_Vector,Thruster_1_Cmd,Thruster_1_Val,Thruster_2_Cmd,Thruster_2_Val,Thruster_3_Cmd,Thruster_3_Val,Thruster_4_Cmd,Thruster_4_Val,Thruster_5_Cmd,Thruster_5_Val,Thruster_6_Cmd,Thruster_6_Val
0.0050,1.00000,1.00000,1.00000,0.00000,0.00000,1.57080,0.00000,0.00000,0.00000,0.00000,0.00000,0.00000,0.00000,0.00000,0.00000,0.00000,0.00000,1.57080,-1.00000,-1.00000,-1.00000,0.00000,0.00000,0.00000,"[0.000, 0.000, 0.000, 0.000, 0.000, 0.000]",0.000,0.000,0.000,0.000,0.000,0.000,0.000,0.000,0.000,0.000,0.000,0.000
0.0100,1.00000,1.00000,1.00000,0.00000,0.00000,1.57080,0.00000,0.00000,0.00000,0.00000,0.00000,0.00000,0.00000,0.00000,0.00000,0.00000,0.00000,1.57080,-1.00000,-1.00000,-1.00000,0.00000,0.00000,0.00000,"[0.000, 0.000, 0.000, 0.000, 0.000, 0.000]",0.000,0.000,0.000,0.000,0.000,0.000,0.000,0.000,0.000,0.000,0.000,0.000
0.0150,1.00000,1.00000,1.00000,0.00000,0.00000,1.57080,0.00000,0.00000,0.00000,0.00000,0.00000,0.00000,0.00000,0.00000,0.00000,0.00000,0.00000,1.57080,-1.00000,-1.00000,-1.00000,0.00000,0.00000,0.00000,"[0.000, 0.000, 0.000, 0.000, 0.000, 0.000]",0.000,0.000,0.000,0.000,0.000,0.000,0.000,0.000,0.000,0.000,0.000,0.000
0.0200,1.00000,1.00000,1.00000,0.00000,0.00000,1.57080,0.00000,0.00000,0.00000,0.00000,0.00000,0.00000,0.00000,0.00000,0.00000,0.00000,0.00000,1.57080,-1.00000,-1.00000,-1.00000,0.00000,0.00000,0.00000,"[0.000, 0.000, 0.000, 0.000, 0.000, 0.000]",0.000,0.000,0.000,0.000,0.000,0.000,0.000,0.000,0.000,0.000,0.000,0.000
0.0250,1.00000,1.00000,1.00000,0.00000,0.00000,1.57080,0.00000,0.00000,0.00000,0.00000,0.00000,0.00000,0.00000,0.00000,0.00000,0.00000,0.00000,1.57080,-1.00000,-1.00000,-1.00000,0.00000,0.00000,0.00000,"[0.000, 0.000, 0.000, 0.000, 0.000, 0.000]",0.000,0.000,0.000,0.000,0.000,0.000,0.000,0.000,0.000,0.000,0.000,0.000
0.0300,1.00000,1.00000,1.00000,0.00000,0.00000,1.57080,0.00000,0.00000,0.00000,0.00000,0.00000,0.00000,0.00000,0.00000,0.00000,0.00000,0.00000,1.57080,-1.00000,-1.00000,-1.00000,0.00000,0.00000,0.00000,"[0.000, 0.000, 0.000, 0.000, 0.000, 0.000]",0.000,0.000,0.000,0.000,0.000,0.000,0.000,0.000,0.000,0.000,0.000,0.000
0.0350,1.00000,1.00000,1.00000,0.00000,0.00000,1.57080,0.00000,0.00000,0.00000,0.00000,0.00000,0.00000,0.00000,0.00000,0.00000,0.00000,0.00000,1.57080,-1.00000,-1.00000,-1.00000,0.00000,0.00000,0.00000,"[0.000, 0.000, 0.000, 0.000, 0.000, 0.000]",0.000,0.000,0.000,0.000,0.000,0.000,0.000,0.000,0.000,0.000,0.000,0.000
0.0400,1.00000,1.00000,1.00000,0.00000,0.00000,1.57080,0.00000,0.00000,0.00000,0.00000,0.00000,0.00000,0.00000,0.00000,0.00000,0.00000,0.00000,1.57080,-1.00000,-1.00000,-1.00000,0.00000,0.00000,0.00000,"[0.000, 0.000, 0.000, 0.000, 0.000, 0.000]",0.000,0.000,0.000,0.000,0.000,0.000,0.000,0.000,0.000,0.000,0.000,0.000
0.0450,1.00000,1.00000,1.00000,0.00000,0.00000,1.57080,0.00000,0.00000,0.00000,0.00000,0.00000,0.00000,0.00000,0.00000,0.00000,0.00000,0.00000,1.57080,-1.00000,-1.00000,-1.00000,0.00000,0.00000,0.00000,"[0.000, 0.000, 0.000, 0.000, 0.000, 0.000]",0.000,0.000,0.000,0.000,0.000,0.000,0.000,0.000,0.000,0.000,0.000,0.000
0.0500,1.00000,1.00000,1.00000,0.00005,-0.00005,1.57072,-0.00025,-0.00025,-0.00025,0.01925,-0.01925,-0.02973,0.00000,0.00000,0.00000,0.00000,0.00000,0.00000,-1.00000,-1.00000,-1.00000,-0.00005,0.00005,-1.57072,"[1.000, 0.000, 0.000, 1.000, 1.000, 0.000]",1.000,1.000,0.000,0.000,0.000,0.000,1.000,1.000,1.000,1.000,0.000,0.000
0.0550,1.00000,1.00000,1.00000,0.00019,-0.00019,1.57050,-0.00050,-0.00050,-0.00050,0.03850,-0.03850,-0.05945,0.00000,0.00000,0.00000,0.00000,0.00000,0.00000,-1.00000,-1.00000,-1.00000,-0.00019,0.00019,-1.57050,"[1.000, 0.000, 0.000, 1.000, 1.000, 0.000]",1.000,1.000,0.000,0.000,0.000,0.000,1.000,1.000,1.000,1.000,0.000,0.000
0.0600,0.99999,0.99999,0.99999,0.00043,-0.00043,1.57013,-0.00075,-0.00075,-0.00075,0.05775,-0.05775,-0.08918,0.00000,0.00000,0.00000,0.00000,0.00000,0.00000,-0.99999,-0.99999,-0.99999,-0.00043,0.00043,-1.57013,"[1.000, 0.000, 0.000, 1.000, 1.000, 0.000]",1.000,1.000,0.000,0.000,0.000,0.000,1.000,1.000,1.000,1.000,0.000,0.000
0.0650,0.99999,0.99999,0.99999,0.00077,-0.00077,1.56961,-0.00100,-0.00100,-0.00100,0.07699,-0.07699,-0.11891,0.00000,0.00000,0.00000,0.00000,0.00000,0.00000,-0.99999,-0.99999,-0.99999,-0.00077,0.00077,-1.56961,"[1.000, 0.000, 0.000, 1.000, 1.000, 0.000]",1.000,1.000,0.000,0.000,0.000,0.000,1.000,1.000,1.000,1.000,0.000,0.000
0.0700,0.99998,0.99998,0.99998,0.00120,-0.00120,1.56894,-0.00125,-0.00125,-0.00125,0.09624,-0.09624,-0.14863,0.00000,0.00000,0.00000,0.00000,0.00000,0.00000,-0.99998,-0.99998,-0.99998,-0.00120,0.00120,-1.56894,"[1.000, 0.000, 0.000, 1.000, 1.000, 0.000]",1.000,1.000,0.000,0.000,0.000,0.000,1.000,1.000,1.000,1.000,0.000,0.000
0.0750,0.99998,0.99998,0.99998,0.00173,-0.00173,1.56812,-0.00150,-0.00150,-0.00150,0.11549,-0.11549,-0.17836,0.00000,0.00000,0.00000,0.00000,0.00000,0.00000,-0.99998,-0.99998,-0.99998,-0.00173,0.00173,-1.56812,"[1.000, 0.000, 0.000, 1.000, 1.000, 0.000]",1.000,1.000,0.000,0.000,0.000,0.000,1.000,1.000,1.000,1.000,0.000,0.000
0.0800,0.99997,0.99997,0.99997,0.00236,-0.00235,1.56715,-0.00175,-0.00175,-0.00175,0.13474,-0.13474,-0.20809,0.00000,0.00000,0.00000,0.00000,0.00000,0.00000,-0.99997,-0.99997,-0.99997,-0.00236,0.00235,-1.56715,"[1.000, 0.000, 0.000, 1.000, 1.000, 0.000]",1.000,1.000,0.000,0.000,0.000,0.000,1.000,1.000,1.000,1.000,0.000,0.000
0.0850,0.99996,0.99996,0.99996,0.00309,-0.00307,1.56604,-0.00200,-0.00200,-0.00200,0.15399,-0.15399,-0.23781,0.00000,0.00000,0.00000,0.00000,0.00000,0.00000,-0.99996,-0.99996,-0.99996,-0.00309,0.00307,-1.56604,"[1.000, 0.000, 0.000, 1.000, 1.000, 0.000]",1.000,1.000,0.000,0.000,0.000,0.000,1.000,1.000,1.000,1.000,0.000,0.000
0.0900,0.99995,0.99995,0.99995,0.00391,-0.00389,1.56477,-0.00226,-0.00224,-0.00225,0.17324,-0.17324,-0.26754,0.00000,0.00000,0.00000,0.00000,0.00000,0.00000,-0.99995,-0.99995,-0.99995,-0.00391,0.00389,-1.56477,"[1.000, 0.000, 0.000, 1.000, 1.000, 0.000]",1.000,1.000,0.000,0.000,0.000,0.000,1.000,1.000,1.000,1.000,0.000,0.000
0.0950,0.99994,0.99994,0.99994,0.00483,-0.00479,1.56335,-0.00251,-0.00249,-0.00250,0.19249,-0.19249,-0.29727,0.00000,0.00000,0.00000,0.00000,0.00000,0.00000,-0.99994,-0.99994,-0.99994,-0.00483,0.00479,-1.56335,"[1.000, 0.000, 0.000, 1.000, 1.000, 0.000]",1.000,1.000,0.000,0.000,0.000,0.000,1.000,1.000,1.000,1.000,0.000,0.000
0.1000,0.99992,0.99992,0.99992,0.00576,-0.00571,1.56179,-0.00276,-0.00274,-0.00275,0.17620,-0.17679,-0.32699,0.00000,0.00000,0.00000,0.00000,0.00000,0.00000,-0.99992,-0.99992,-0.99992,-0.00576,0.00571,-1.56179,"[1.000, 0.000, 0.000, 1.000, 1.000, 0.000]",1.000,1.000,0.000,0.000,0.000,0.000,1.000,1.000,1.000,1.000,0.000,0.000
0.1050,0.99991,0.99991,0.99991,0.00661,-0.00654,1.56007,-0.00302,-0.00298,-0.00300,0.15992,-0.16110,-0.35671,0.00000,0.00000,0.00000,0.00000,0.00000,0.00000,-0.99991,-0.99991,-0.99991,-0.00661,0.00654,-1.56007,"[1.000, 0.000, 0.000, 1.000, 1.000, 0.000]",1.000,1.000,0.000,0.000,0.000,0.000,1.000,1.000,1.000,1.000,0.000,0.000
0.1100,0.99989,0.99989,0.99989,0.00738,-0.00730,1.55821,-0.00327,-0.00323,-0.00325,0.14364,-0.14540,-0.38643,0.00000,0.00000,0.00000,0.00000,0.00000,0.00000,-0.99989,-0.99989,-0.99989,-0.00738,0.00730,-1.55821,"[1.000, 0.000, 0.000, 1.000, 1.000, 0.000]",1.000,1.000,0.000,0.000,0.000,0.000,1.000,1.000,1.000,1.000,0.000,0.000
0.1150,0.99988,0.99988,0.99988,0.00808,-0.00797,1.55620,-0.00352,-0.00348,-0.00350,0.12735,-0.12971,-0.41616,0.00000,0.00000,0.00000,0.00000,0.00000,0.00000,-0.99988,-0.99988,-0.99988,-0.00808,0.00797,-1.55620,"[1.000, 0.000, 0.000, 1.000, 1.000, 0.000]",1.000,1.000,0.000,0.000,0.000,0.000,1.000,1.000,1.000,1.000,0.000,0.000
0.1200,0.99986,0.99986,0.99986,0.00869,-0.00856,1.55404,-0.00378,-0.00372,-0.00375,0.11107,-0.11401,-0.44588,0.00000,0.00000,0.00000,0.00000,0.00000,0.00000,-0.99986,-0.99986,-0.99986,-0.00869,0.00856,-1.55404,"[1.000, 0.000, 0.000, 1.000, 1.000, 0.000]",1.000,1.000,0.000,0.000,0.000,0.000,1.000,1.000,1.000,1.000,0.000,0.000
0.1250,0.99984,0.99984,0.99984,0.00922,-0.00907,1.55173,-0.00404,-0.00396,-0.00400,0.09479,-0.09832,-0.47560,0.00000,0.00000,0.00000,0.00000,0.00000,0.00000,-0.99984,-0.99984,-0.99984,-0.00922,0.00907,-1.55173,"[1.000, 0.000, 0.000, 1.000, 1.000, 0.000]",1.000,1.000,0.000,0.000,0.000,0.000,1.000,1.000,1.000,1.000,0.000,0.000
0.1300,0.99982,0.99982,0.99982,0.00968,-0.00950,1.54927,-0.00429,-0.00421,-0.00425,0.07850,-0.08262,-0.50532,0.00000,0.00000,0.00000,0.00000,0.00000,0.00000,-0.99982,-0.99982,-0.99982,-0.00968,0.00950,-1.54927,"[1.000, 0.000, 0.000, 1.000, 1.000, 0.000]",1.000,1.000,0.000,0.000,0.000,0.000,1.000,1.000,1.000,1.000,0.000,0.000
0.1350,0.99980,0.99980,0.99980,0.01006,-0.00985,1.54667,-0.00455,-0.00445,-0.00450,0.06222,-0.06693,-0.53504,0.00000,0.00000,0.00000,0.00000,0.00000,0.00000,-0.99980,-0.99980,-0.99980,-0.01006,0.00985,-1.54667,"[1.000, 0.000, 0.000, 1.000, 1.000, 0.000]",1.000,1.000,0.000,0.000,0.000,0.000,1.000,1.000,1.000,1.000,0.000,0.000
0.1400,0.99977,0.99978,0.99977,0.01036,-0.01011,1.54392,-0.00481,-0.00469,-0.00475,0.04594,-0.05123,-0.56477,0.00000,0.00000,0.00000,0.00000,0.00000,0.00000,-0.99977,-0.99978,-0.99977,-0.01036,0.01011,-1.54392,"[1.000, 0.000, 0.000, 1.000, 1.000, 0.000]",1.000,1.000,0.000,0.000,0.000,0.000,1.000,1.000,1.000,1.000,0.000,0.000
0.1450,0.99975,0.99975,0.99975,0.01057,-0.01030,1.54102,-0.00507,-0.00493,-0.00500,0.02965,-0.03554,-0.59449,0.00000,0.00000,0.00000,0.00000,0.00000,0.00000,-0.99975,-0.99975,-0.99975,-0.01057,0.01030,-1.54102,"[1.000, 0.000, 0.000, 1.000, 1.000, 0.000]",1.000,1.000,0.000,0.000,0.000,0.000,1.000,1.000,1.000,1.000,0.000,0.000
0.1500,0.99972,0.99973,0.99972,0.01078,-0.01048,1.53804,-0.00533,-0.00517,-0.00525,0.04237,-0.04831,-0.59384,0.00000,0.00000,0.00000,0.00000,0.00000,0.00000,-0.99972,-0.99973,-0.99972,-0.01078,0.01048,-1.53804,"[0.999, 0.001, 0.001, 0.999, 0.999, 0.001]",0.999,0.999,0.001,0.001,0.001,0.001,0.999,0.999,0.999,0.999,0.001,0.001
0.1550,0.99969,0.99970,0.99970,0.01106,-0.01072,1.53507,-0.00559,-0.00541,-0.00550,0.05509,-0.06108,-0.59319,0.00000,0.00000,0.00000,0.00000,0.00000,0.00000,-0.99969,-0.99970,-0.99970,-0.01106,0.01072,-1.53507,"[0.999, 0.001, 0.001, 0.999, 0.999, 0.001]",0.999,0.999,0.001,0.001,0.001,0.001,0.999,0.999,0.999,0.999,0.001,0.001
0.1600,0.99967,0.99967,0.99967,0.01140,-0.01102,1.53210,-0.00585,-0.00565,-0.00575,0.06781,-0.07385,-0.59254,0.00000,0.00000,0.00000,0.00000,0.00000,0.00000,-0.99967,-0.99967,-0.99967,-0.01140,0.01102,-1.53210,"[0.999, 0.001, 0.001, 0.999, 0.999, 0.001]",0.999,0.999,0.001,0.001,0.001,0.001,0.999,0.999,0.999,0.999,0.001,0.001
0.1650,0.99964,0.99964,0.99964,0.01180,-0.01139,1.52914,-0.00611,-0.00588,-0.00600,0.08052,-0.08662,-0.59190,0.00000,0.00000,0.00000,0.00000,0.00000,0.00000,-0.99964,-0.99964,-0.99964,-0.01180,0.01139,-1.52914,"[0.999, 0.001, 0.001, 0.999, 0.999, 0.001]",0.999,0.999,0.001,0.001,0.001,0.001,0.999,0.999,0.999,0.999,0.001,0.001
0.1700,0.99961,0.99961,0.99961,0.01227,-0.01182,1.52617,-0.00638,-0.00612,-0.00625,0.09324,-0.09939,-0.59125,0.00000,0.00000,0.00000,0.00000,0.00000,0.00000,-0.99961,-0.99961,-0.99961,-0.01227,0.01182,-1.52617,"[0.999, 0.001, 0.001, 0.999, 0.999, 0.001]",0.999,0.999,0.001,0.001,0.001,0.001,0.999,0.999,0.999,0.999,0.001,0.001
0.1750,0.99957,0.99958,0.99958,0.01281,-0.01231,1.52321,-0.00664,-0.00636,-0.00650,0.10596,-0.11216,-0.59060,0.00000,0.00000,0.00000,0.00000,0.00000,0.00000,-0.99957,-0.99958,-0.99958,-0.01281,0.01231,-1.52321,"[0.999, 0.001, 0.001, 0.999, 0.999, 0.001]",0.999,0.999,0.001,0.001,0.001,0.001,0.999,0.999,0.999,0.999,0.001,0.001
0.1800,0.99954,0.99955,0.99954,0.01340,-0.01287,1.52025,-0.00690,-0.00659,-0.00675,0.11868,-0.12494,-0.58995,0.00000,0.00000,0.00000,0.00000,0.00000,0.00000,-0.99954,-0.99955,-0.99954,-0.01340,0.01287,-1.52025,"[0.999, 0.001, 0.001, 0.999, 0.999, 0.001]",0.999,0.999,0.001,0.001,0.001,0.001,0.999,0.999,0.999,0.999,0.001,0.001
0.1850,0.99950,0.99952,0.99951,0.01407,-0.01348,1.51730,-0.00717,-0.00682,-0.00700,0.13139,-0.13771,-0.58930,0.00000,0.00000,0.00000,0.00000,0.00000,0.00000,-0.99950,-0.99952,-0.99951,-0.01407,0.01348,-1.51730,"[0.999, 0.001, 0.001, 0.999, 0.999, 0.001]",0.999,0.999,0.001,0.001,0.001,0.001,0.999,0.999,0.999,0.999,0.001,0.001
0.1900,0.99947,0.99948,0.99947,0.01480,-0.01416,1.51434,-0.00744,-0.00706,-0.00725,0.14411,-0.15048,-0.58865,0.00000,0.00000,0.00000,0.00000,0.00000,0.00000,-0.99947,-0.99948,-0.99947,-0.01480,0.01416,-1.51434,"[0.999, 0.001, 0.001, 0.999, 0.999, 0.001]",0.999,0.999,0.001,0.001,0.001,0.001,0.999,0.999,0.999,0.999,0.001,0.001
0.1950,0.99943,0.99945,0.99944,0.01559,-0.01490,1.51139,-0.00770,-0.00729,-0.00750,0.15683,-0.16325,-0.58800,0.00000,0.00000,0.00000,0.00000,0.00000,0.00000,-0.99943,-0.99945,-0.99944,-0.01559,0.01490,-1.51139,"[0.999, 0.001, 0.001, 0.999, 0.999, 0.001]",0.999,0.999,0.001,0.001,0.001,0.001,0.999,0.999,0.999,0.999,0.001,0.001
0.2000,0.99939,0.99941,0.99940,0.01640,-0.01564,1.50844,-0.00797,-0.00752,-0.00775,0.14587,-0.15284,-0.58685,0.00000,0.00000,0.00000,0.00000,0.00000,0.00000,-0.99939,-0.99941,-0.99940,-0.01640,0.01564,-1.50844,"[0.999, 0.001, 0.001, 0.999, 0.999, 0.001]",0.999,0.999,0.001,0.001,0.001,0.001,0.999,0.999,0.999,0.999,0.001,0.001
0.2050,0.99935,0.99937,0.99936,0.01714,-0.01633,1.50549,-0.00824,-0.00775,-0.00800,0.13491,-0.14244,-0.58569,0.00000,0.00000,0.00000,0.00000,0.00000,0.00000,-0.99935,-0.99937,-0.99936,-0.01714,0.01633,-1.50549,"[0.999, 0.001, 0.001, 0.999, 0.999, 0.001]",0.999,0.999,0.001,0.001,0.001,0.001,0.999,0.999,0.999,0.999,0.001,0.001
0.2100,0.99931,0.99933,0.99932,0.01784,-0.01697,1.50256,-0.00851,-0.00798,-0.00825,0.12396,-0.13203,-0.58453,0.00000,0.00000,0.00000,0.00000,0.00000,0.00000,-0.99931,-0.99933,-0.99932,-0.01784,0.01697,-1.50256,"[0.999, 0.001, 0.001, 0.999, 0.999, 0.001]",0.999,0.999,0.001,0.001,0.001,0.001,0.999,0.999,0.999,0.999,0.001,0.001
0.2150,0.99926,0.99929,0.99928,0.01848,-0.01755,1.49963,-0.00878,-0.00821,-0.00850,0.11300,-0.12163,-0.58337,0.00000,0.00000,0.00000,0.00000,0.00000,0.00000,-0.99926,-0.99929,-0.99928,-0.01848,0.01755,-1.49963,"[0.999, 0.001, 0.001, 0.999, 0.999, 0.001]",0.999,0.999,0.001,0.001,0.001,0.001,0.999,0.999,0.999,0.999,0.001,0.001
0.2200,0.99922,0.99925,0.99923,0.01907,-0.01807,1.49670,-0.00905,-0.00843,-0.00875,0.10204,-0.11122,-0.58222,0.00000,0.00000,0.00000,0.00000,0.00000,0.00000,-0.99922,-0.99925,-0.99923,-0.01907,0.01807,-1.49670,"[0.999, 0.001, 0.001, 0.999, 0.999, 0.001]",0.999,0.999,0.001,0.001,0.001,0.001,0.999,0.999,0.999,0.999,0.001,0.001
0.2250,0.99917,0.99921,0.99919,0.01961,-0.01855,1.49378,-0.00932,-0.00866,-0.00900,0.09109,-0.10081,-0.58106,0.00000,0.00000,0.00000,0.00000,0.00000,0.00000,-0.99917,-0.99921,-0.99919,-0.01961,0.01855,-1.49378,"[0.999, 0.001, 0.001, 0.999, 0.999, 0.001]",0.999,0.999,0.001,0.001,0.001,0.001,0.999,0.999,0.999,0.999,0.001,0.001
0.2300,0.99913,0.99916,0.99914,0.02009,-0.01897,1.49087,-0.00960,-0.00888,-0.00925,0.08013,-0.09041,-0.57990,0.00000,0.00000,0.00000,0.00000,0.00000,0.00000,-0.99913,-0.99916,-0.99914,-0.02009,0.01897,-1.49087,"[0.999, 0.001, 0.001, 0.999, 0.999, 0.001]",0.999,0.999,0.001,0.001,0.001,0.001,0.999,0.999,0.999,0.999,0.001,0.001
0.2350,0.99908,0.99912,0.99910,0.02052,-0.01934,1.48797,-0.00987,-0.00911,-0.00950,0.06917,-0.08000,-0.57875,0.00000,0.00000,0.00000,0.00000,0.00000,0.00000,-0.99908,-0.99912,-0.99910,-0.02052,0.01934,-1.48797,"[0.999, 0.001, 0.001, 0.999, 0.999, 0.001]",0.999,0.999,0.001,0.001,0.001,0.001,0.999,0.999,0.999,0.999,0.001,0.001
0.2400,0.99903,0.99907,0.99905,0.02090,-0.01965,1.48507,-0.01015,-0.00933,-0.00975,0.05822,-0.06959,-0.57759,0.00000,0.00000,0.00000,0.00000,0.00000,0.00000,-0.99903,-0.99907,-0.99905,-0.02090,0.01965,-1.48507,"[0.999, 0.001, 0.001, 0.999, 0.999, 0.001]",0.999,0.999,0.001,0.001,0.001,0.001,0.999,0.999,0.999,0.999,0.001,0.001
0.2450,0.99898,0.99902,0.99900,0.02122,-0.01991,1.48218,-0.01042,-0.00955,-0.00999,0.04726,-0.05919,-0.57643,0.00000,0.00000,0.00000,0.00000,0.00000,0.00000,-0.99898,-0.99902,-0.99900,-0.02122,0.01991,-1.48218,"[0.999, 0.001, 0.001, 0.999, 0.999, 0.001]",0.999,0.999,0.001,0.001,0.001,0.001,0.999,0.999,0.999,0.999,0.001,0.001
0.2500,0.99892,0.99898,0.99895,0.02153,-0.02017,1.47929,-0.01070,-0.00978,-0.01024,0.05564,-0.06764,-0.57569,0.00000,0.00000,0.00000,0.00000,0.00000,0.00000,-0.99892,-0.99898,-0.99895,-0.02153,0.02017,-1.47929,"[0.999, 0.001, 0.001, 0.999, 0.999, 0.001]",0.999,0.999,0.001,0.001,0.001,0.001,0.999,0.999,0.999,0.999,0.001,0.001
0.2550,0.99887,0.99893,0.99890,0.02189,-0.02046,1.47640,-0.01097,-0.01000,-0.01049,0.06403,-0.07610,-0.57495,0.00000,0.00000,0.00000,0.00000,0.00000,0.00000,-0.99887,-0.99893,-0.99890,-0.02189,0.02046,-1.47640,"[0.999, 0.001, 0.001, 0.999, 0.999, 0.001]",0.999,0.999,0.001,0.001,0.001,0.001,0.999,0.999,0.999,0.999,0.001,0.001
0.2600,0.99881,0.99888,0.99884,0.02229,-0.02080,1.47352,-0.01125,-0.01022,-0.01074,0.07241,-0.08455,-0.57421,0.00000,0.00000,0.00000,0.00000,0.00000,0.00000,-0.99881,-0.99888,-0.99884,-0.02229,0.02080,-1.47352,"[0.999, 0.001, 0.001, 0.999, 0.999, 0.001]",0.999,0.999,0.001,0.001,0.001,0.001,0.999,0.999,0.999,0.999,0.001,0.001
0.2650,0.99876,0.99882,0.99879,0.02273,-0.02118,1.47064,-0.01153,-0.01044,-0.01099,0.08079,-0.09300,-0.57347,0.00000,0.00000,0.00000,0.00000,0.00000,0.00000,-0.99876,-0.99882,-0.99879,-0.02273,0.02118,-1.47064,"[0.999, 0.001, 0.001, 0.999, 0.999, 0.001]",0.999,0.999,0.001,0.001,0.001,0.001,0.999,0.999,0.999,0.999,0.001,0.001
0.2700,0.99870,0.99877,0.99873,0.02322,-0.02160,1.46777,-0.01181,-0.01065,-0.01124,0.08918,-0.10146,-0.57273,0.00000,0.00000,0.00000,0.00000,0.00000,0.00000,-0.99870,-0.99877,-0.99873,-0.02322,0.02160,-1.46777,"[0.999, 0.001, 0.001, 0.999, 0.999, 0.001]",0.999,0.999,0.001,0.001,0.001,0.001,0.999,0.999,0.999,0.999,0.001,0.001
0.2750,0.99864,0.99872,0.99868,0.02375,-0.02206,1.46489,-0.01209,-0.01087,-0.01149,0.09756,-0.10991,-0.57199,0.00000,0.00000,0.00000,0.00000,0.00000,0.00000,-0.99864,-0.99872,-0.99868,-0.02375,0.02206,-1.46489,"[0.999, 0.001, 0.001, 0.999, 0.999, 0.001]",0.999,0.999,0.001,0.001,0.001,0.001,0.999,0.999,0.999,0.999,0.001,0.001
0.2800,0.99858,0.99866,0.99862,0.02432,-0.02256,1.46202,-0.01237,-0.01109,-0.01174,0.10594,-0.11837,-0.57125,0.00000,0.00000,0.00000,0.00000,0.00000,0.00000,-0.99858,-0.99866,-0.99862,-0.02432,0.02256,-1.46202,"[0.999, 0.001, 0.001, 0.999, 0.999, 0.001]",0.999,0.999,0.001,0.001,0.001,0.001,0.999,0.999,0.999,0.999,0.001,0.001
0.2850,0.99852,0.99861,0.99856,0.02494,-0.02311,1.45915,-0.01265,-0.01130,-0.01199,0.11433,-0.12682,-0.57051,0.00000,0.00000,0.00000,0.00000,0.00000,0.00000,-0.99852,-0.99861,-0.99856,-0.02494,0.02311,-1.45915,"[0.999, 0.001, 0.001, 0.999, 0.999, 0.001]",0.999,0.999,0.001,0.001,0.001,0.001,0.999,0.999,0.999,0.999,0.001,0.001
0.2900,0.99845,0.99855,0.99850,0.02560,-0.02369,1.45628,-0.01293,-0.01152,-0.01224,0.12271,-0.13528,-0.56977,0.00000,0.00000,0.00000,0.00000,0.00000,0.00000,-0.99845,-0.99855,-0.99850,-0.02560,0.02369,-1.45628,"[0.999, 0.001, 0.001, 0.999, 0.999, 0.001]",0.999,0.999,0.001,0.001,0.001,0.001,0.999,0.999,0.999,0.999,0.001,0.001
0.2950,0.99839,0.99849,0.99844,0.02630,-0.02431,1.45342,-0.01321,-0.01173,-0.01249,0.13109,-0.14373,-0.56903,0.00000,0.00000,0.00000,0.00000,0.00000,0.00000,-0.99839,-0.99849,-0.99844,-0.02630,0.02431,-1.45342,"[0.999, 0.001, 0.001, 0.999, 0.999, 0.001]",0.999,0.999,0.001,0.001,0.001,0.001,0.999,0.999,0.999,0.999,0.001,0.001
0.3000,0.99832,0.99843,0.99838,0.02701,-0.02494,1.45056,-0.01350,-0.01194,-0.01274,0.12357,-0.13607,-0.56873,0.00000,0.00000,0.00000,0.00000,0.00000,0.00000,-0.99832,-0.99843,-0.99838,-0.02701,0.02494,-1.45056,"[1.000, 0.000, 0.000, 1.000, 1.000, 0.000]",1.000,1.000,0.000,0.000,0.000,0.000,1.000,1.000,1.000,1.000,0.000,0.000
0.3050,0.99825,0.99837,0.99831,0.02768,-0.02552,1.44770,-0.01378,-0.01215,-0.01299,0.11605,-0.12841,-0.56843,0.00000,0.00000,0.00000,0.00000,0.00000,0.00000,-0.99825,-0.99837,-0.99831,-0.02768,0.02552,-1.44770,"[1.000, 0.000, 0.000, 1.000, 1.000, 0.000]",1.000,1.000,0.000,0.000,0.000,0.000,1.000,1.000,1.000,1.000,0.000,0.000
0.3100,0.99818,0.99831,0.99825,0.02832,-0.02606,1.44484,-0.01406,-0.01236,-0.01324,0.10853,-0.12075,-0.56813,0.00000,0.00000,0.00000,0.00000,0.00000,0.00000,-0.99818,-0.99831,-0.99825,-0.02832,0.02606,-1.44484,"[1.000, 0.000, 0.000, 1.000, 1.000, 0.000]",1.000,1.000,0.000,0.000,0.000,0.000,1.000,1.000,1.000,1.000,0.000,0.000
0.3150,0.99811,0.99825,0.99818,0.02891,-0.02657,1.44198,-0.01435,-0.01257,-0.01349,0.10101,-0.11309,-0.56783,0.00000,0.00000,0.00000,0.00000,0.00000,0.00000,-0.99811,-0.99825,-0.99818,-0.02891,0.02657,-1.44198,"[1.000, 0.000, 0.000, 1.000, 1.000, 0.000]",1.000,1.000,0.000,0.000,0.000,0.000,1.000,1.000,1.000,1.000,0.000,0.000
0.3200,0.99804,0.99819,0.99811,0.02948,-0.02703,1.43913,-0.01464,-0.01278,-0.01374,0.09349,-0.10542,-0.56754,0.00000,0.00000,0.00000,0.00000,0.00000,0.00000,-0.99804,-0.99819,-0.99811,-0.02948,0.02703,-1.43913,"[1.000, 0.000, 0.000, 1.000, 1.000, 0.000]",1.000,1.000,0.000,0.000,0.000,0.000,1.000,1.000,1.000,1.000,0.000,0.000
0.3250,0.99796,0.99812,0.99804,0.03000,-0.02745,1.43627,-0.01492,-0.01299,-0.01399,0.08597,-0.09776,-0.56724,0.00000,0.00000,0.00000,0.00000,0.00000,0.00000,-0.99796,-0.99812,-0.99804,-0.03000,0.02745,-1.43627,"[1.000, 0.000, 0.000, 1.000, 1.000, 0.000]",1.000,1.000,0.000,0.000,0.000,0.000,1.000,1.000,1.000,1.000,0.000,0.000
0.3300,0.99789,0.99806,0.99797,0.03049,-0.02784,1.43343,-0.01521,-0.01319,-0.01423,0.07845,-0.09010,-0.56694,0.00000,0.00000,0.00000,0.00000,0.00000,0.00000,-0.99789,-0.99806,-0.99797,-0.03049,0.02784,-1.43343,"[1.000, 0.000, 0.000, 1.000, 1.000, 0.000]",1.000,1.000,0.000,0.000,0.000,0.000,1.000,1.000,1.000,1.000,0.000,0.000
0.3350,0.99781,0.99799,0.99790,0.03095,-0.02818,1.43058,-0.01550,-0.01340,-0.01448,0.07093,-0.08244,-0.56664,0.00000,0.00000,0.00000,0.00000,0.00000,0.00000,-0.99781,-0.99799,-0.99790,-0.03095,0.02818,-1.43058,"[1.000, 0.000, 0.000, 1.000, 1.000, 0.000]",1.000,1.000,0.000,0.000,0.000,0.000,1.000,1.000,1.000,1.000,0.000,0.000
0.3400,0.99773,0.99792,0.99783,0.03136,-0.02848,1.42773,-0.01579,-0.01361,-0.01473,0.06341,-0.07478,-0.56634,0.00000,0.00000,0.00000,0.00000,0.00000,0.00000,-0.99773,-0.99792,-0.99783,-0.03136,0.02848,-1.42773,"[1.000, 0.000, 0.000, 1.000, 1.000, 0.000]",1.000,1.000,0.000,0.000,0.000,0.000,1.000,1.000,1.000,1.000,0.000,0.000
0.3450,0.99765,0.99785,0.99775,0.03174,-0.02875,1.42489,-0.01608,-0.01381,-0.01498,0.05589,-0.06712,-0.56604,0.00000,0.00000,0.00000,0.00000,0.00000,0.00000,-0.99765,-0.99785,-0.99775,-0.03174,0.02875,-1.42489,"[1.000, 0.000, 0.000, 1.000, 1.000, 0.000]",1.000,1.000,0.000,0.000,0.000,0.000,1.000,1.000,1.000,1.000,0.000,0.000
0.3500,0.99757,0.99778,0.99768,0.03212,-0.02901,1.42206,-0.01637,-0.01401,-0.01523,0.06151,-0.07391,-0.56388,0.00000,0.00000,0.00000,0.00000,0.00000,0.00000,-0.99757,-0.99778,-0.99768,-0.03212,0.02901,-1.42206,"[1.000, 0.000, 0.000, 1.000, 1.000, 0.000]",1.000,1.000,0.000,0.000,0.000,0.000,1.000,1.000,1.000,1.000,0.000,0.000
0.3550,0.99749,0.99771,0.99760,0.03252,-0.02931,1.41923,-0.01666,-0.01421,-0.01548,0.06713,-0.08069,-0.56173,0.00000,0.00000,0.00000,0.00000,0.00000,0.00000,-0.99749,-0.99771,-0.99760,-0.03252,0.02931,-1.41923,"[1.000, 0.000, 0.000, 1.000, 1.000, 0.000]",1.000,1.000,0.000,0.000,0.000,0.000,1.000,1.000,1.000,1.000,0.000,0.000
0.3600,0.99741,0.99764,0.99752,0.03295,-0.02964,1.41641,-0.01695,-0.01441,-0.01573,0.07275,-0.08748,-0.55957,0.00000,0.00000,0.00000,0.00000,0.00000,0.00000,-0.99741,-0.99764,-0.99752,-0.03295,0.02964,-1.41641,"[1.000, 0.000, 0.000, 1.000, 1.000, 0.000]",1.000,1.000,0.000,0.000,0.000,0.000,1.000,1.000,1.000,1.000,0.000,0.000
0.3650,0.99732,0.99757,0.99744,0.03342,-0.03000,1.41361,-0.01724,-0.01461,-0.01598,0.07837,-0.09426,-0.55742,0.00000,0.00000,0.00000,0.00000,0.00000,0.00000,-0.99732,-0.99757,-0.99744,-0.03342,0.03000,-1.41361,"[1.000, 0.000, 0.000, 1.000, 1.000, 0.000]",1.000,1.000,0.000,0.000,0.000,0.000,1.000,1.000,1.000,1.000,0.000,0.000
0.3700,0.99723,0.99750,0.99736,0.03391,-0.03039,1.41081,-0.01754,-0.01481,-0.01623,0.08399,-0.10105,-0.55526,0.00000,0.00000,0.00000,0.00000,0.00000,0.00000,-0.99723,-0.99750,-0.99736,-0.03391,0.03039,-1.41081,"[1.000, 0.000, 0.000, 1.000, 1.000, 0.000]",1.000,1.000,0.000,0.000,0.000,0.000,1.000,1.000,1.000,1.000,0.000,0.000
0.3750,0.99715,0.99742,0.99728,0.03443,-0.03082,1.40802,-0.01783,-0.01501,-0.01648,0.08961,-0.10784,-0.55311,0.00000,0.00000,0.00000,0.00000,0.00000,0.00000,-0.99715,-0.99742,-0.99728,-0.03443,0.03082,-1.40802,"[1.000, 0.000, 0.000, 1.000, 1.000, 0.000]",1.000,1.000,0.000,0.000,0.000,0.000,1.000,1.000,1.000,1.000,0.000,0.000
0.3800,0.99706,0.99735,0.99720,0.03497,-0.03128,1.40524,-0.01813,-0.01521,-0.01672,0.09523,-0.11462,-0.55095,0.00000,0.00000,0.00000,0.00000,0.00000,0.00000,-0.99706,-0.99735,-0.99720,-0.03497,0.03128,-1.40524,"[1.000, 0.000, 0.000, 1.000, 1.000, 0.000]",1.000,1.000,0.000,0.000,0.000,0.000,1.000,1.000,1.000,1.000,0.000,0.000
0.3850,0.99696,0.99727,0.99711,0.03555,-0.03177,1.40247,-0.01842,-0.01541,-0.01697,0.10085,-0.12141,-0.54879,0.00000,0.00000,0.00000,0.00000,0.00000,0.00000,-0.99696,-0.99727,-0.99711,-0.03555,0.03177,-1.40247,"[1.000, 0.000, 0.000, 1.000, 1.000, 0.000]",1.000,1.000,0.000,0.000,0.000,0.000,1.000,1.000,1.000,1.000,0.000,0.000
0.3900,0.99687,0.99719,0.99703,0.03616,-0.03230,1.39971,-0.01872,-0.01560,-0.01722,0.10647,-0.12819,-0.54664,0.00000,0.00000,0.00000,0.00000,0.00000,0.00000,-0.99687,-0.99719,-0.99703,-0.03616,0.03230,-1.39971,"[1.000, 0.000, 0.000, 1.000, 1.000, 0.000]",1.000,1.000,0.000,0.000,0.000,0.000,1.000,1.000,1.000,1.000,0.000,0.000
0.3950,0.99678,0.99711,0.99694,0.03679,-0.03286,1.39696,-0.01901,-0.01580,-0.01747,0.11209,-0.13498,-0.54448,0.00000,0.00000,0.00000,0.00000,0.00000,0.00000,-0.99678,-0.99711,-0.99694,-0.03679,0.03286,-1.39696,"[1.000, 0.000, 0.000, 1.000, 1.000, 0.000]",1.000,1.000,0.000,0.000,0.000,0.000,1.000,1.000,1.000,1.000,0.000,0.000
0.4000,0.99668,0.99703,0.99685,0.03743,-0.03342,1.39421,-0.01931,-0.01599,-0.01772,0.10708,-0.12959,-0.54450,0.00000,0.00000,0.00000,0.00000,0.00000,0.00000,-0.99668,-0.99703,-0.99685,-0.03743,0.03342,-1.39421,"[1.000, 0.000, 0.000, 1.000, 1.000, 0.000]",1.000,1.000,0.000,0.000,0.000,0.000,1.000,1.000,1.000,1.000,0.000,0.000
0.4050,0.99658,0.99695,0.99676,0.03805,-0.03395,1.39147,-0.01961,-0.01618,-0.01797,0.10207,-0.12419,-0.54453,0.00000,0.00000,0.00000,0.00000,0.00000,0.00000,-0.99658,-0.99695,-0.99676,-0.03805,0.03395,-1.39147,"[1.000, 0.000, 0.000, 1.000, 1.000, 0.000]",1.000,1.000,0.000,0.000,0.000,0.000,1.000,1.000,1.000,1.000,0.000,0.000
0.4100,0.99649,0.99687,0.99667,0.03864,-0.03445,1.38872,-0.01990,-0.01637,-0.01822,0.09707,-0.11880,-0.54455,0.00000,0.00000,0.00000,0.00000,0.00000,0.00000,-0.99649,-0.99687,-0.99667,-0.03864,0.03445,-1.38872,"[1.000, 0.000, 0.000, 1.000, 1.000, 0.000]",1.000,1.000,0.000,0.000,0.000,0.000,1.000,1.000,1.000,1.000,0.000,0.000
0.4150,0.99638,0.99679,0.99658,0.03921,-0.03492,1.38598,-0.02020,-0.01656,-0.01847,0.09206,-0.11341,-0.54457,0.00000,0.00000,0.00000,0.00000,0.00000,0.00000,-0.99638,-0.99679,-0.99658,-0.03921,0.03492,-1.38598,"[1.000, 0.000, 0.000, 1.000, 1.000, 0.000]",1.000,1.000,0.000,0.000,0.000,0.000,1.000,1.000,1.000,1.000,0.000,0.000
0.4200,0.99628,0.99671,0.99649,0.03975,-0.03537,1.38323,-0.02050,-0.01675,-0.01871,0.08705,-0.10802,-0.54459,0.00000,0.00000,0.00000,0.00000,0.00000,0.00000,-0.99628,-0.99671,-0.99649,-0.03975,0.03537,-1.38323,"[1.000, 0.000, 0.000, 1.000, 1.000, 0.000]",1.000,1.000,0.000,0.000,0.000,0.000,1.000,1.000,1.000,1.000,0.000,0.000
0.4250,0.99618,0.99662,0.99639,0.04027,-0.03579,1.38049,-0.02080,-0.01694,-0.01896,0.08204,-0.10262,-0.54461,0.00000,0.00000,0.00000,0.00000,0.00000,0.00000,-0.99618,-0.99662,-0.99639,-0.04027,0.03579,-1.38049,"[1.000, 0.000, 0.000, 1.000, 1.000, 0.000]",1.000,1.000,0.000,0.000,0.000,0.000,1.000,1.000,1.000,1.000,0.000,0.000
0.4300,0.99608,0.99654,0.99630,0.04077,-0.03618,1.37774,-0.02110,-0.01713,-0.01921,0.07704,-0.09723,-0.54463,0.00000,0.00000,0.00000,0.00000,0.00000,0.00000,-0.99608,-0.99654,-0.99630,-0.04077,0.03618,-1.37774,"[1.000, 0.000, 0.000, 1.000, 1.000, 0.000]",1.000,1.000,0.000,0.000,0.000,0.000,1.000,1.000,1.000,1.000,0.000,0.000
0.4350,0.99597,0.99645,0.99620,0.04124,-0.03654,1.37500,-0.02141,-0.01732,-0.01946,0.07203,-0.09184,-0.54465,0.00000,0.00000,0.00000,0.00000,0.00000,0.00000,-0.99597,-0.99645,-0.99620,-0.04124,0.03654,-1.37500,"[1.000, 0.000, 0.000, 1.000, 1.000, 0.000]",1.000,1.000,0.000,0.000,0.000,0.000,1.000,1.000,1.000,1.000,0.000,0.000
0.4400,0.99586,0.99636,0.99610,0.04169,-0.03687,1.37226,-0.02171,-0.01750,-0.01971,0.06702,-0.08644,-0.54468,0.00000,0.00000,0.00000,0.00000,0.00000,0.00000,-0.99586,-0.99636,-0.99610,-0.04169,0.03687,-1.37226,"[1.000, 0.000, 0.000, 1.000, 1.000, 0.000]",1.000,1.000,0.000,0.000,0.000,0.000,1.000,1.000,1.000,1.000,0.000,0.000
0.4450,0.99575,0.99628,0.99600,0.04211,-0.03717,1.36952,-0.02201,-0.01769,-0.01996,0.06202,-0.08105,-0.54470,0.00000,0.00000,0.00000,0.00000,0.00000,0.00000,-0.99575,-0.99628,-0.99600,-0.04211,0.03717,-1.36952,"[1.000, 0.000, 0.000, 1.000, 1.000, 0.000]",1.000,1.000,0.000,0.000,0.000,0.000,1.000,1.000,1.000,1.000,0.000,0.000
0.4500,0.99564,0.99619,0.99590,0.04253,-0.03747,1.36678,-0.02231,-0.01787,-0.02020,0.06539,-0.08517,-0.54306,0.00000,0.00000,0.00000,0.00000,0.00000,0.00000,-0.99564,-0.99619,-0.99590,-0.04253,0.03747,-1.36678,"[1.000, 0.000, 0.000, 1.000, 1.000, 0.000]",1.000,1.000,0.000,0.000,0.000,0.000,1.000,1.000,1.000,1.000,0.000,0.000
0.4550,0.99553,0.99610,0.99580,0.04297,-0.03779,1.36405,-0.02262,-0.01806,-0.02045,0.06876,-0.08928,-0.54142,0.00000,0.00000,0.00000,0.00000,0.00000,0.00000,-0.99553,-0.99610,-0.99580,-0.04297,0.03779,-1.36405,"[1.000, 0.000, 0.000, 1.000, 1.000, 0.000]",1.000,1.000,0.000,0.000,0.000,0.000,1.000,1.000,1.000,1.000,0.000,0.000
0.4600,0.99541,0.99601,0.99570,0.04343,-0.03813,1.36133,-0.02292,-0.01824,-0.02070,0.07213,-0.09340,-0.53979,0.00000,0.00000,0.00000,0.00000,0.00000,0.00000,-0.99541,-0.99601,-0.99570,-0.04343,0.03813,-1.36133,"[1.000, 0.000, 0.000, 1.000, 1.000, 0.000]",1.000,1.000,0.000,0.000,0.000,0.000,1.000,1.000,1.000,1.000,0.000,0.000
0.4650,0.99530,0.99591,0.99560,0.04390,-0.03849,1.35862,-0.02323,-0.01842,-0.02095,0.07549,-0.09752,-0.53815,0.00000,0.00000,0.00000,0.00000,0.00000,0.00000,-0.99530,-0.99591,-0.99560,-0.04390,0.03849,-1.35862,"[1.000, 0.000, 0.000, 1.000, 1.000, 0.000]",1.000,1.000,0.000,0.000,0.000,0.000,1.000,1.000,1.000,1.000,0.000,0.000
0.4700,0.99518,0.99582,0.99549,0.04439,-0.03887,1.35591,-0.02353,-0.01860,-0.02120,0.07886,-0.10163,-0.53651,0.00000,0.00000,0.00000,0.00000,0.00000,0.00000,-0.99518,-0.99582,-0.99549,-0.04439,0.03887,-1.35591,"[1.000, 0.000, 0.000, 1.000, 1.000, 0.000]",1.000,1.000,0.000,0.000,0.000,0.000,1.000,1.000,1.000,1.000,0.000,0.000
0.4750,0.99506,0.99573,0.99538,0.04490,-0.03927,1.35321,-0.02384,-0.01878,-0.02145,0.08223,-0.10575,-0.53487,0.00000,0.00000,0.00000,0.00000,0.00000,0.00000,-0.99506,-0.99573,-0.99538,-0.04490,0.03927,-1.35321,"[1.000, 0.000, 0.000, 1.000, 1.000, 0.000]",1.000,1.000,0.000,0.000,0.000,0.000,1.000,1.000,1.000,1.000,0.000,0.000
0.4800,0.99494,0.99563,0.99528,0.04543,-0.03969,1.35051,-0.02415,-0.01896,-0.02169,0.08560,-0.10987,-0.53324,0.00000,0.00000,0.00000,0.00000,0.00000,0.00000,-0.99494,-0.99563,-0.99528,-0.04543,0.03969,-1.35051,"[1.000, 0.000, 0.000, 1.000, 1.000, 0.000]",1.000,1.000,0.000,0.000,0.000,0.000,1.000,1.000,1.000,1.000,0.000,0.000
0.4850,0.99482,0.99554,0.99517,0.04597,-0.04012,1.34783,-0.02445,-0.01913,-0.02194,0.08897,-0.11398,-0.53160,0.00000,0.00000,0.00000,0.00000,0.00000,0.00000,-0.99482,-0.99554,-0.99517,-0.04597,0.04012,-1.34783,"[1.000, 0.000, 0.000, 1.000, 1.000, 0.000]",1.000,1.000,0.000,0.000,0.000,0.000,1.000,1.000,1.000,1.000,0.000,0.000
0.4900,0.99470,0.99544,0.99506,0.04653,-0.04058,1.34515,-0.02476,-0.01931,-0.02219,0.09234,-0.11810,-0.52996,0.00000,0.00000,0.00000,0.00000,0.00000,0.00000,-0.99470,-0.99544,-0.99506,-0.04653,0.04058,-1.34515,"[1.000, 0.000, 0.000, 1.000, 1.000, 0.000]",1.000,1.000,0.000,0.000,0.000,0.000,1.000,1.000,1.000,1.000,0.000,0.000
0.4950,0.99457,0.99535,0.99494,0.04711,-0.04106,1.34247,-0.02507,-0.01949,-0.02244,0.09571,-0.12222,-0.52833,0.00000,0.00000,0.00000,0.00000,0.00000,0.00000,-0.99457,-0.99535,-0.99494,-0.04711,0.04106,-1.34247,"[1.000, 0.000, 0.000, 1.000, 1.000, 0.000]",1.000,1.000,0.000,0.000,0.000,0.000,1.000,1.000,1.000,1.000,0.000,0.000
0.5000,0.99445,0.99525,0.99483,0.04769,-0.04153,1.33981,-0.02538,-0.01966,-0.02269,0.09274,-0.11913,-0.52795,0.00000,0.00000,0.00000,0.00000,0.00000,0.00000,-0.99445,-0.99525,-0.99483,-0.04769,0.04153,-1.33981,"[1.000, 0.000, 0.000, 1.000, 1.000, 0.000]",1.000,1.000,0.000,0.000,0.000,0.000,1.000,1.000,1.000,1.000,0.000,0.000
0.5050,0.99432,0.99515,0.99472,0.04826,-0.04200,1.33714,-0.02569,-0.01983,-0.02293,0.08976,-0.11604,-0.52758,0.00000,0.00000,0.00000,0.00000,0.00000,0.00000,-0.99432,-0.99515,-0.99472,-0.04826,0.04200,-1.33714,"[1.000, 0.000, 0.000, 1.000, 1.000, 0.000]",1.000,1.000,0.000,0.000,0.000,0.000,1.000,1.000,1.000,1.000,0.000,0.000
0.5100,0.99419,0.99505,0.99460,0.04881,-0.04244,1.33448,-0.02600,-0.02001,-0.02318,0.08678,-0.11294,-0.52721,0.00000,0.00000,0.00000,0.00000,0.00000,0.00000,-0.99419,-0.99505,-0.99460,-0.04881,0.04244,-1.33448,"[1.000, 0.000, 0.000, 1.000, 1.000, 0.000]",1.000,1.000,0.000,0.000,0.000,0.000,1.000,1.000,1.000,1.000,0.000,0.000
0.5150,0.99406,0.99495,0.99449,0.04935,-0.04287,1.33181,-0.02631,-0.02018,-0.02343,0.08381,-0.10985,-0.52683,0.00000,0.00000,0.00000,0.00000,0.00000,0.00000,-0.99406,-0.99495,-0.99449,-0.04935,0.04287,-1.33181,"[1.000, 0.000, 0.000, 1.000, 1.000, 0.000]",1.000,1.000,0.000,0.000,0.000,0.000,1.000,1.000,1.000,1.000,0.000,0.000
0.5200,0.99393,0.99485,0.99437,0.04988,-0.04328,1.32915,-0.02662,-0.02035,-0.02368,0.08083,-0.10676,-0.52646,0.00000,0.00000,0.00000,0.00000,0.00000,0.00000,-0.99393,-0.99485,-0.99437,-0.04988,0.04328,-1.32915,"[1.000, 0.000, 0.000, 1.000, 1.000, 0.000]",1.000,1.000,0.000,0.000,0.000,0.000,1.000,1.000,1.000,1.000,0.000,0.000
0.5250,0.99379,0.99475,0.99425,0.05039,-0.04367,1.32650,-0.02693,-0.02052,-0.02393,0.07785,-0.10367,-0.52609,0.00000,0.00000,0.00000,0.00000,0.00000,0.00000,-0.99379,-0.99475,-0.99425,-0.05039,0.04367,-1.32650,"[1.000, 0.000, 0.000, 1.000, 1.000, 0.000]",1.000,1.000,0.000,0.000,0.000,0.000,1.000,1.000,1.000,1.000,0.000,0.000
0.5300,0.99366,0.99464,0.99413,0.05089,-0.04405,1.32384,-0.02724,-0.02069,-0.02417,0.07488,-0.10058,-0.52571,0.00000,0.00000,0.00000,0.00000,0.00000,0.00000,-0.99366,-0.99464,-0.99413,-0.05089,0.04405,-1.32384,"[1.000, 0.000, 0.000, 1.000, 1.000, 0.000]",1.000,1.000,0.000,0.000,0.000,0.000,1.000,1.000,1.000,1.000,0.000,0.000
0.5350,0.99352,0.99454,0.99401,0.05137,-0.04441,1.32119,-0.02756,-0.02086,-0.02442,0.07190,-0.09749,-0.52534,0.00000,0.00000,0.00000,0.00000,0.00000,0.00000,-0.99352,-0.99454,-0.99401,-0.05137,0.04441,-1.32119,"[1.000, 0.000, 0.000, 1.000, 1.000, 0.000]",1.000,1.000,0.000,0.000,0.000,0.000,1.000,1.000,1.000,1.000,0.000,0.000
0.5400,0.99338,0.99443,0.99388,0.05184,-0.04475,1.31854,-0.02787,-0.02102,-0.02467,0.06892,-0.09440,-0.52497,0.00000,0.00000,0.00000,0.00000,0.00000,0.00000,-0.99338,-0.99443,-0.99388,-0.05184,0.04475,-1.31854,"[1.000, 0.000, 0.000, 1.000, 1.000, 0.000]",1.000,1.000,0.000,0.000,0.000,0.000,1.000,1.000,1.000,1.000,0.000,0.000
0.5450,0.99324,0.99433,0.99376,0.05230,-0.04508,1.31589,-0.02818,-0.02119,-0.02492,0.06594,-0.09131,-0.52459,0.00000,0.00000,0.00000,0.00000,0.00000,0.00000,-0.99324,-0.99433,-0.99376,-0.05230,0.04508,-1.31589,"[1.000, 0.000, 0.000, 1.000, 1.000, 0.000]",1.000,1.000,0.000,0.000,0.000,0.000,1.000,1.000,1.000,1.000,0.000,0.000
0.5500,0.99310,0.99422,0.99364,0.05275,-0.04540,1.31325,-0.02850,-0.02135,-0.02516,0.06764,-0.09350,-0.52330,0.00000,0.00000,0.00000,0.00000,0.00000,0.00000,-0.99310,-0.99422,-0.99364,-0.05275,0.04540,-1.31325,"[1.000, 0.000, 0.000, 1.000, 1.000, 0.000]",1.000,1.000,0.000,0.000,0.000,0.000,1.000,1.000,1.000,1.000,0.000,0.000
0.5550,0.99296,0.99411,0.99351,0.05322,-0.04574,1.31061,-0.02881,-0.02152,-0.02541,0.06934,-0.09568,-0.52201,0.00000,0.00000,0.00000,0.00000,0.00000,0.00000,-0.99296,-0.99411,-0.99351,-0.05322,0.04574,-1.31061,"[1.000, 0.000, 0.000, 1.000, 1.000, 0.000]",1.000,1.000,0.000,0.000,0.000,0.000,1.000,1.000,1.000,1.000,0.000,0.000
0.5600,0.99281,0.99401,0.99338,0.05369,-0.04608,1.30798,-0.02913,-0.02168,-0.02566,0.07103,-0.09787,-0.52072,0.00000,0.00000,0.00000,0.00000,0.00000,0.00000,-0.99281,-0.99401,-0.99338,-0.05369,0.04608,-1.30798,"[1.000, 0.000, 0.000, 1.000, 1.000, 0.000]",1.000,1.000,0.000,0.000,0.000,0.000,1.000,1.000,1.000,1.000,0.000,0.000
0.5650,0.99267,0.99390,0.99325,0.05417,-0.04643,1.30536,-0.02945,-0.02184,-0.02591,0.07273,-0.10006,-0.51943,0.00000,0.00000,0.00000,0.00000,0.00000,0.00000,-0.99267,-0.99390,-0.99325,-0.05417,0.04643,-1.30536,"[1.000, 0.000, 0.000, 1.000, 1.000, 0.000]",1.000,1.000,0.000,0.000,0.000,0.000,1.000,1.000,1.000,1.000,0.000,0.000
0.5700,0.99252,0.99379,0.99312,0.05466,-0.04680,1.30274,-0.02976,-0.02201,-0.02615,0.07442,-0.10225,-0.51813,0.00000,0.00000,0.00000,0.00000,0.00000,0.00000,-0.99252,-0.99379,-0.99312,-0.05466,0.04680,-1.30274,"[1.000, 0.000, 0.000, 1.000, 1.000, 0.000]",1.000,1.000,0.000,0.000,0.000,0.000,1.000,1.000,1.000,1.000,0.000,0.000
0.5750,0.99237,0.99368,0.99299,0.05516,-0.04717,1.30012,-0.03008,-0.02217,-0.02640,0.07612,-0.10444,-0.51684,0.00000,0.00000,0.00000,0.00000,0.00000,0.00000,-0.99237,-0.99368,-0.99299,-0.05516,0.04717,-1.30012,"[1.000, 0.000, 0.000, 1.000, 1.000, 0.000]",1.000,1.000,0.000,0.000,0.000,0.000,1.000,1.000,1.000,1.000,0.000,0.000
0.5800,0.99222,0.99357,0.99286,0.05567,-0.04756,1.29751,-0.03040,-0.02233,-0.02665,0.07781,-0.10662,-0.51555,0.00000,0.00000,0.00000,0.00000,0.00000,0.00000,-0.99222,-0.99357,-0.99286,-0.05567,0.04756,-1.29751,"[1.000, 0.000, 0.000, 1.000, 1.000, 0.000]",1.000,1.000,0.000,0.000,0.000,0.000,1.000,1.000,1.000,1.000,0.000,0.000
0.5850,0.99207,0.99345,0.99272,0.05618,-0.04795,1.29491,-0.03071,-0.02248,-0.02690,0.07951,-0.10881,-0.51426,0.00000,0.00000,0.00000,0.00000,0.00000,0.00000,-0.99207,-0.99345,-0.99272,-0.05618,0.04795,-1.29491,"[1.000, 0.000, 0.000, 1.000, 1.000, 0.000]",1.000,1.000,0.000,0.000,0.000,0.000,1.000,1.000,1.000,1.000,0.000,0.000
0.5900,0.99191,0.99334,0.99259,0.05671,-0.04835,1.29231,-0.03103,-0.02264,-0.02714,0.08120,-0.11100,-0.51297,0.00000,0.00000,0.00000,0.00000,0.00000,0.00000,-0.99191,-0.99334,-0.99259,-0.05671,0.04835,-1.29231,"[1.000, 0.000, 0.000, 1.000, 1.000, 0.000]",1.000,1.000,0.000,0.000,0.000,0.000,1.000,1.000,1.000,1.000,0.000,0.000
0.5950,0.99176,0.99323,0.99245,0.05725,-0.04877,1.28972,-0.03135,-0.02280,-0.02739,0.08290,-0.11319,-0.51168,0.00000,0.00000,0.00000,0.00000,0.00000,0.00000,-0.99176,-0.99323,-0.99245,-0.05725,0.04877,-1.28972,"[1.000, 0.000, 0.000, 1.000, 1.000, 0.000]",1.000,1.000,0.000,0.000,0.000,0.000,1.000,1.000,1.000,1.000,0.000,0.000
0.6000,0.99160,0.99311,0.99232,0.05778,-0.04918,1.28713,-0.03167,-0.02295,-0.02764,0.08116,-0.11148,-0.51107,0.00000,0.00000,0.00000,0.00000,0.00000,0.00000,-0.99160,-0.99311,-0.99232,-0.05778,0.04918,-1.28713,"[1.000, 0.000, 0.000, 1.000, 1.000, 0.000]",1.000,1.000,0.000,0.000,0.000,0.000,1.000,1.000,1.000,1.000,0.000,0.000
0.6050,0.99144,0.99300,0.99218,0.05831,-0.04958,1.28454,-0.03199,-0.02311,-0.02789,0.07943,-0.10978,-0.51047,0.00000,0.00000,0.00000,0.00000,0.00000,0.00000,-0.99144,-0.99300,-0.99218,-0.05831,0.04958,-1.28454,"[1.000, 0.000, 0.000, 1.000, 1.000, 0.000]",1.000,1.000,0.000,0.000,0.000,0.000,1.000,1.000,1.000,1.000,0.000,0.000
0.6100,0.99128,0.99288,0.99204,0.05883,-0.04998,1.28196,-0.03231,-0.02326,-0.02813,0.07769,-0.10808,-0.50986,0.00000,0.00000,0.00000,0.00000,0.00000,0.00000,-0.99128,-0.99288,-0.99204,-0.05883,0.04998,-1.28196,"[1.000, 0.000, 0.000, 1.000, 1.000, 0.000]",1.000,1.000,0.000,0.000,0.000,0.000,1.000,1.000,1.000,1.000,0.000,0.000
0.6150,0.99112,0.99277,0.99190,0.05935,-0.05036,1.27938,-0.03263,-0.02342,-0.02838,0.07595,-0.10637,-0.50926,0.00000,0.00000,0.00000,0.00000,0.00000,0.00000,-0.99112,-0.99277,-0.99190,-0.05935,0.05036,-1.27938,"[1.000, 0.000, 0.000, 1.000, 1.000, 0.000]",1.000,1.000,0.000,0.000,0.000,0.000,1.000,1.000,1.000,1.000,0.000,0.000
0.6200,0.99095,0.99265,0.99175,0.05985,-0.05074,1.27681,-0.03296,-0.02357,-0.02863,0.07422,-0.10467,-0.50865,0.00000,0.00000,0.00000,0.00000,0.00000,0.00000,-0.99095,-0.99265,-0.99175,-0.05985,0.05074,-1.27681,"[1.000, 0.000, 0.000, 1.000, 1.000, 0.000]",1.000,1.000,0.000,0.000,0.000,0.000,1.000,1.000,1.000,1.000,0.000,0.000
0.6250,0.99079,0.99253,0.99161,0.06035,-0.05110,1.27424,-0.03328,-0.02372,-0.02887,0.07248,-0.10297,-0.50805,0.00000,0.00000,0.00000,0.00000,0.00000,0.00000,-0.99079,-0.99253,-0.99161,-0.06035,0.05110,-1.27424,"[1.000, 0.000, 0.000, 1.000, 1.000, 0.000]",1.000,1.000,0.000,0.000,0.000,0.000,1.000,1.000,1.000,1.000,0.000,0.000
0.6300,0.99062,0.99241,0.99146,0.06084,-0.05146,1.27167,-0.03360,-0.02387,-0.02912,0.07075,-0.10127,-0.50744,0.00000,0.00000,0.00000,0.00000,0.00000,0.00000,-0.99062,-0.99241,-0.99146,-0.06084,0.05146,-1.27167,"[1.000, 0.000, 0.000, 1.000, 1.000, 0.000]",1.000,1.000,0.000,0.000,0.000,0.000,1.000,1.000,1.000,1.000,0.000,0.000
0.6350,0.99045,0.99229,0.99132,0.06132,-0.05181,1.26910,-0.03392,-0.02402,-0.02937,0.06901,-0.09956,-0.50684,0.00000,0.00000,0.00000,0.00000,0.00000,0.00000,-0.99045,-0.99229,-0.99132,-0.06132,0.05181,-1.26910,"[1.000, 0.000, 0.000, 1.000, 1.000, 0.000]",1.000,1.000,0.000,0.000,0.000,0.000,1.000,1.000,1.000,1.000,0.000,0.000
0.6400,0.99028,0.99217,0.99117,0.06180,-0.05214,1.26654,-0.03425,-0.02417,-0.02961,0.06727,-0.09786,-0.50623,0.00000,0.00000,0.00000,0.00000,0.00000,0.00000,-0.99028,-0.99217,-0.99117,-0.06180,0.05214,-1.26654,"[1.000, 0.000, 0.000, 1.000, 1.000, 0.000]",1.000,1.000,0.000,0.000,0.000,0.000,1.000,1.000,1.000,1.000,0.000,0.000
0.6450,0.99011,0.99205,0.99102,0.06226,-0.05247,1.26398,-0.03457,-0.02431,-0.02986,0.06554,-0.09616,-0.50563,0.00000,0.00000,0.00000,0.00000,0.00000,0.00000,-0.99011,-0.99205,-0.99102,-0.06226,0.05247,-1.26398,"[1.000, 0.000, 0.000, 1.000, 1.000, 0.000]",1.000,1.000,0.000,0.000,0.000,0.000,1.000,1.000,1.000,1.000,0.000,0.000
0.6500,0.98993,0.99193,0.99087,0.06272,-0.05280,1.26143,-0.03490,-0.02446,-0.03011,0.06634,-0.09731,-0.50453,0.00000,0.00000,0.00000,0.00000,0.00000,0.00000,-0.98993,-0.99193,-0.99087,-0.06272,0.05280,-1.26143,"[1.000, 0.000, 0.000, 1.000, 1.000, 0.000]",1.000,1.000,0.000,0.000,0.000,0.000,1.000,1.000,1.000,1.000,0.000,0.000
0.6550,0.98976,0.99181,0.99072,0.06319,-0.05313,1.25888,-0.03522,-0.02460,-0.03035,0.06714,-0.09845,-0.50343,0.00000,0.00000,0.00000,0.00000,0.00000,0.00000,-0.98976,-0.99181,-0.99072,-0.06319,0.05313,-1.25888,"[1.000, 0.000, 0.000, 1.000, 1.000, 0.000]",1.000,1.000,0.000,0.000,0.000,0.000,1.000,1.000,1.000,1.000,0.000,0.000
0.6600,0.98958,0.99168,0.99057,0.06367,-0.05346,1.25634,-0.03555,-0.02475,-0.03060,0.06793,-0.09960,-0.50233,0.00000,0.00000,0.00000,0.00000,0.00000,0.00000,-0.98958,-0.99168,-0.99057,-0.06367,0.05346,-1.25634,"[1.000, 0.000, 0.000, 1.000, 1.000, 0.000]",1.000,1.000,0.000,0.000,0.000,0.000,1.000,1.000,1.000,1.000,0.000,0.000
0.6650,0.98940,0.99156,0.99041,0.06414,-0.05380,1.25380,-0.03587,-0.02489,-0.03085,0.06873,-0.10075,-0.50123,0.00000,0.00000,0.00000,0.00000,0.00000,0.00000,-0.98940,-0.99156,-0.99041,-0.06414,0.05380,-1.25380,"[1.000, 0.000, 0.000, 1.000, 1.000, 0.000]",1.000,1.000,0.000,0.000,0.000,0.000,1.000,1.000,1.000,1.000,0.000,0.000
0.6700,0.98922,0.99143,0.99026,0.06463,-0.05414,1.25126,-0.03620,-0.02503,-0.03109,0.06953,-0.10190,-0.50013,0.00000,0.00000,0.00000,0.00000,0.00000,0.00000,-0.98922,-0.99143,-0.99026,-0.06463,0.05414,-1.25126,"[1.000, 0.000, 0.000, 1.000, 1.000, 0.000]",1.000,1.000,0.000,0.000,0.000,0.000,1.000,1.000,1.000,1.000,0.000,0.000
0.6750,0.98904,0.99131,0.99010,0.06511,-0.05449,1.24873,-0.03652,-0.02518,-0.03134,0.07033,-0.10305,-0.49904,0.00000,0.00000,0.00000,0.00000,0.00000,0.00000,-0.98904,-0.99131,-0.99010,-0.06511,0.05449,-1.24873,"[1.000, 0.000, 0.000, 1.000, 1.000, 0.000]",1.000,1.000,0.000,0.000,0.000,0.000,1.000,1.000,1.000,1.000,0.000,0.000
0.6800,0.98886,0.99118,0.98995,0.06561,-0.05485,1.24621,-0.03685,-0.02532,-0.03159,0.07113,-0.10419,-0.49794,0.00000,0.00000,0.00000,0.00000,0.00000,0.00000,-0.98886,-0.99118,-0.98995,-0.06561,0.05485,-1.24621,"[1.000, 0.000, 0.000, 1.000, 1.000, 0.000]",1.000,1.000,0.000,0.000,0.000,0.000,1.000,1.000,1.000,1.000,0.000,0.000
0.6850,0.98867,0.99105,0.98979,0.06610,-0.05521,1.24369,-0.03718,-0.02546,-0.03183,0.07193,-0.10534,-0.49684,0.00000,0.00000,0.00000,0.00000,0.00000,0.00000,-0.98867,-0.99105,-0.98979,-0.06610,0.05521,-1.24369,"[1.000, 0.000, 0.000, 1.000, 1.000, 0.000]",1.000,1.000,0.000,0.000,0.000,0.000,1.000,1.000,1.000,1.000,0.000,0.000
0.6900,0.98849,0.99093,0.98963,0.06660,-0.05557,1.24117,-0.03751,-0.02560,-0.03208,0.07273,-0.10649,-0.49574,0.00000,0.00000,0.00000,0.00000,0.00000,0.00000,-0.98849,-0.99093,-0.98963,-0.06660,0.05557,-1.24117,"[1.000, 0.000, 0.000, 1.000, 1.000, 0.000]",1.000,1.000,0.000,0.000,0.000,0.000,1.000,1.000,1.000,1.000,0.000,0.000
0.6950,0.98830,0.99080,0.98947,0.06711,-0.05594,1.23866,-0.03783,-0.02573,-0.03233,0.07353,-0.10764,-0.49464,0.00000,0.00000,0.00000,0.00000,0.00000,0.00000,-0.98830,-0.99080,-0.98947,-0.06711,0.05594,-1.23866,"[1.000, 0.000, 0.000, 1.000, 1.000, 0.000]",1.000,1.000,0.000,0.000,0.000,0.000,1.000,1.000,1.000,1.000,0.000,0.000
0.7000,0.98811,0.99067,0.98930,0.06761,-0.05631,1.23616,-0.03816,-0.02587,-0.03257,0.07247,-0.10668,-0.49392,0.00000,0.00000,0.00000,0.00000,0.00000,0.00000,-0.98811,-0.99067,-0.98930,-0.06761,0.05631,-1.23616,"[1.000, 0.000, 0.000, 1.000, 1.000, 0.000]",1.000,1.000,0.000,0.000,0.000,0.000,1.000,1.000,1.000,1.000,0.000,0.000
0.7050,0.98792,0.99054,0.98914,0.06811,-0.05667,1.23366,-0.03849,-0.02601,-0.03282,0.07141,-0.10573,-0.49320,0.00000,0.00000,0.00000,0.00000,0.00000,0.00000,-0.98792,-0.99054,-0.98914,-0.06811,0.05667,-1.23366,"[1.000, 0.000, 0.000, 1.000, 1.000, 0.000]",1.000,1.000,0.000,0.000,0.000,0.000,1.000,1.000,1.000,1.000,0.000,0.000
0.7100,0.98772,0.99041,0.98898,0.06861,-0.05703,1.23116,-0.03882,-0.02614,-0.03307,0.07036,-0.10477,-0.49247,0.00000,0.00000,0.00000,0.00000,0.00000,0.00000,-0.98772,-0.99041,-0.98898,-0.06861,0.05703,-1.23116,"[1.000, 0.000, 0.000, 1.000, 1.000, 0.000]",1.000,1.000,0.000,0.000,0.000,0.000,1.000,1.000,1.000,1.000,0.000,0.000
0.7150,0.98753,0.99028,0.98881,0.06910,-0.05738,1.22866,-0.03915,-0.02627,-0.03331,0.06930,-0.10381,-0.49175,0.00000,0.00000,0.00000,0.00000,0.00000,0.00000,-0.98753,-0.99028,-0.98881,-0.06910,0.05738,-1.22866,"[1.000, 0.000, 0.000, 1.000, 1.000, 0.000]",1.000,1.000,0.000,0.000,0.000,0.000,1.000,1.000,1.000,1.000,0.000,0.000
0.7200,0.98733,0.99015,0.98864,0.06959,-0.05772,1.22617,-0.03948,-0.02641,-0.03356,0.06824,-0.10286,-0.49103,0.00000,0.00000,0.00000,0.00000,0.00000,0.00000,-0.98733,-0.99015,-0.98864,-0.06959,0.05772,-1.22617,"[1.000, 0.000, 0.000, 1.000, 1.000, 0.000]",1.000,1.000,0.000,0.000,0.000,0.000,1.000,1.000,1.000,1.000,0.000,0.000
0.7250,0.98713,0.99001,0.98847,0.07007,-0.05806,1.22368,-0.03981,-0.02654,-0.03380,0.06718,-0.10190,-0.49030,0.00000,0.00000,0.00000,0.00000,0.00000,0.00000,-0.98713,-0.99001,-0.98847,-0.07007,0.05806,-1.22368,"[1.000, 0.000, 0.000, 1.000, 1.000, 0.000]",1.000,1.000,0.000,0.000,0.000,0.000,1.000,1.000,1.000,1.000,0.000,0.000
0.7300,0.98693,0.98988,0.98831,0.07055,-0.05840,1.22120,-0.04015,-0.02667,-0.03405,0.06613,-0.10094,-0.48958,0.00000,0.00000,0.00000,0.00000,0.00000,0.00000,-0.98693,-0.98988,-0.98831,-0.07055,0.05840,-1.22120,"[1.000, 0.000, 0.000, 1.000, 1.000, 0.000]",1.000,1.000,0.000,0.000,0.000,0.000,1.000,1.000,1.000,1.000,0.000,0.000
0.7350,0.98673,0.98975,0.98813,0.07102,-0.05872,1.21872,-0.04048,-0.02680,-0.03430,0.06507,-0.09999,-0.48886,0.00000,0.00000,0.00000,0.00000,0.00000,0.00000,-0.98673,-0.98975,-0.98813,-0.07102,0.05872,-1.21872,"[1.000, 0.000, 0.000, 1.000, 1.000, 0.000]",1.000,1.000,0.000,0.000,0.000,0.000,1.000,1.000,1.000,1.000,0.000,0.000
0.7400,0.98653,0.98961,0.98796,0.07149,-0.05905,1.21625,-0.04081,-0.02693,-0.03454,0.06401,-0.09903,-0.48814,0.00000,0.00000,0.00000,0.00000,0.00000,0.00000,-0.98653,-0.98961,-0.98796,-0.07149,0.05905,-1.21625,"[1.000, 0.000, 0.000, 1.000, 1.000, 0.000]",1.000,1.000,0.000,0.000,0.000,0.000,1.000,1.000,1.000,1.000,0.000,0.000
0.7450,0.98632,0.98948,0.98779,0.07196,-0.05936,1.21377,-0.04114,-0.02706,-0.03479,0.06295,-0.09808,-0.48741,0.00000,0.00000,0.00000,0.00000,0.00000,0.00000,-0.98632,-0.98948,-0.98779,-0.07196,0.05936,-1.21377,"[1.000, 0.000, 0.000, 1.000, 1.000, 0.000]",1.000,1.000,0.000,0.000,0.000,0.000,1.000,1.000,1.000,1.000,0.000,0.000
0.7500,0.98612,0.98934,0.98761,0.07242,-0.05968,1.21130,-0.04147,-0.02719,-0.03503,0.06327,-0.09866,-0.48643,0.00000,0.00000,0.00000,0.00000,0.00000,0.00000,-0.98612,-0.98934,-0.98761,-0.07242,0.05968,-1.21130,"[1.000, 0.000, 0.000, 1.000, 1.000, 0.000]",1.000,1.000,0.000,0.000,0.000,0.000,1.000,1.000,1.000,1.000,0.000,0.000
0.7550,0.98591,0.98921,0.98744,0.07288,-0.06000,1.20884,-0.04181,-0.02731,-0.03528,0.06359,-0.09924,-0.48544,0.00000,0.00000,0.00000,0.00000,0.00000,0.00000,-0.98591,-0.98921,-0.98744,-0.07288,0.06000,-1.20884,"[1.000, 0.000, 0.000, 1.000, 1.000, 0.000]",1.000,1.000,0.000,0.000,0.000,0.000,1.000,1.000,1.000,1.000,0.000,0.000
0.7600,0.98570,0.98907,0.98726,0.07335,-0.06031,1.20638,-0.04214,-0.02744,-0.03552,0.06391,-0.09982,-0.48446,0.00000,0.00000,0.00000,0.00000,0.00000,0.00000,-0.98570,-0.98907,-0.98726,-0.07335,0.06031,-1.20638,"[1.000, 0.000, 0.000, 1.000, 1.000, 0.000]",1.000,1.000,0.000,0.000,0.000,0.000,1.000,1.000,1.000,1.000,0.000,0.000
0.7650,0.98549,0.98893,0.98708,0.07382,-0.06064,1.20393,-0.04248,-0.02756,-0.03577,0.06423,-0.10040,-0.48347,0.00000,0.00000,0.00000,0.00000,0.00000,0.00000,-0.98549,-0.98893,-0.98708,-0.07382,0.06064,-1.20393,"[1.000, 0.000, 0.000, 1.000, 1.000, 0.000]",1.000,1.000,0.000,0.000,0.000,0.000,1.000,1.000,1.000,1.000,0.000,0.000
0.7700,0.98527,0.98879,0.98690,0.07429,-0.06096,1.20148,-0.04281,-0.02769,-0.03602,0.06455,-0.10099,-0.48248,0.00000,0.00000,0.00000,0.00000,0.00000,0.00000,-0.98527,-0.98879,-0.98690,-0.07429,0.06096,-1.20148,"[1.000, 0.000, 0.000, 1.000, 1.000, 0.000]",1.000,1.000,0.000,0.000,0.000,0.000,1.000,1.000,1.000,1.000,0.000,0.000
0.7750,0.98506,0.98866,0.98672,0.07476,-0.06128,1.19903,-0.04314,-0.02781,-0.03626,0.06486,-0.10157,-0.48150,0.00000,0.00000,0.00000,0.00000,0.00000,0.00000,-0.98506,-0.98866,-0.98672,-0.07476,0.06128,-1.19903,"[1.000, 0.000, 0.000, 1.000, 1.000, 0.000]",1.000,1.000,0.000,0.000,0.000,0.000,1.000,1.000,1.000,1.000,0.000,0.000
0.7800,0.98484,0.98852,0.98654,0.07524,-0.06161,1.19659,-0.04348,-0.02793,-0.03651,0.06518,-0.10215,-0.48051,0.00000,0.00000,0.00000,0.00000,0.00000,0.00000,-0.98484,-0.98852,-0.98654,-0.07524,0.06161,-1.19659,"[1.000, 0.000, 0.000, 1.000, 1.000, 0.000]",1.000,1.000,0.000,0.000,0.000,0.000,1.000,1.000,1.000,1.000,0.000,0.000
0.7850,0.98462,0.98838,0.98636,0.07571,-0.06194,1.19415,-0.04382,-0.02805,-0.03675,0.06550,-0.10273,-0.47953,0.00000,0.00000,0.00000,0.00000,0.00000,0.00000,-0.98462,-0.98838,-0.98636,-0.07571,0.06194,-1.19415,"[1.000, 0.000, 0.000, 1.000, 1.000, 0.000]",1.000,1.000,0.000,0.000,0.000,0.000,1.000,1.000,1.000,1.000,0.000,0.000
0.7900,0.98440,0.98824,0.98617,0.07619,-0.06227,1.19172,-0.04415,-0.02817,-0.03700,0.06582,-0.10331,-0.47854,0.00000,0.00000,0.00000,0.00000,0.00000,0.00000,-0.98440,-0.98824,-0.98617,-0.07619,0.06227,-1.19172,"[1.000, 0.000, 0.000, 1.000, 1.000, 0.000]",1.000,1.000,0.000,0.000,0.000,0.000,1.000,1.000,1.000,1.000,0.000,0.000
0.7950,0.98418,0.98809,0.98599,0.07667,-0.06261,1.18929,-0.04449,-0.02829,-0.03724,0.06614,-0.10390,-0.47756,0.00000,0.00000,0.00000,0.00000,0.00000,0.00000,-0.98418,-0.98809,-0.98599,-0.07667,0.06261,-1.18929,"[1.000, 0.000, 0.000, 1.000, 1.000, 0.000]",1.000,1.000,0.000,0.000,0.000,0.000,1.000,1.000,1.000,1.000,0.000,0.000
0.8000,0.98396,0.98795,0.98580,0.07716,-0.06294,1.18687,-0.04482,-0.02841,-0.03749,0.06543,-0.10332,-0.47678,0.00000,0.00000,0.00000,0.00000,0.00000,0.00000,-0.98396,-0.98795,-0.98580,-0.07716,0.06294,-1.18687,"[1.000, 0.000, 0.000, 1.000, 1.000, 0.000]",1.000,1.000,0.000,0.000,0.000,0.000,1.000,1.000,1.000,1.000,0.000,0.000
0.8050,0.98373,0.98781,0.98561,0.07763,-0.06327,1.18445,-0.04516,-0.02853,-0.03773,0.06473,-0.10274,-0.47600,0.00000,0.00000,0.00000,0.00000,0.00000,0.00000,-0.98373,-0.98781,-0.98561,-0.07763,0.06327,-1.18445,"[1.000, 0.000, 0.000, 1.000, 1.000, 0.000]",1.000,1.000,0.000,0.000,0.000,0.000,1.000,1.000,1.000,1.000,0.000,0.000
0.8100,0.98351,0.98767,0.98542,0.07811,-0.06360,1.18204,-0.04550,-0.02865,-0.03798,0.06403,-0.10216,-0.47523,0.00000,0.00000,0.00000,0.00000,0.00000,0.00000,-0.98351,-0.98767,-0.98542,-0.07811,0.06360,-1.18204,"[1.000, 0.000, 0.000, 1.000, 1.000, 0.000]",1.000,1.000,0.000,0.000,0.000,0.000,1.000,1.000,1.000,1.000,0.000,0.000
0.8150,0.98328,0.98752,0.98523,0.07858,-0.06392,1.17962,-0.04584,-0.02876,-0.03822,0.06332,-0.10158,-0.47445,0.00000,0.00000,0.00000,0.00000,0.00000,0.00000,-0.98328,-0.98752,-0.98523,-0.07858,0.06392,-1.17962,"[1.000, 0.000, 0.000, 1.000, 1.000, 0.000]",1.000,1.000,0.000,0.000,0.000,0.000,1.000,1.000,1.000,1.000,0.000,0.000
0.8200,0.98305,0.98738,0.98504,0.07905,-0.06424,1.17722,-0.04617,-0.02888,-0.03847,0.06262,-0.10100,-0.47368,0.00000,0.00000,0.00000,0.00000,0.00000,0.00000,-0.98305,-0.98738,-0.98504,-0.07905,0.06424,-1.17722,"[1.000, 0.000, 0.000, 1.000, 1.000, 0.000]",1.000,1.000,0.000,0.000,0.000,0.000,1.000,1.000,1.000,1.000,0.000,0.000
0.8250,0.98282,0.98723,0.98485,0.07952,-0.06455,1.17481,-0.04651,-0.02899,-0.03871,0.06191,-0.10042,-0.47290,0.00000,0.00000,0.00000,0.00000,0.00000,0.00000,-0.98282,-0.98723,-0.98485,-0.07952,0.06455,-1.17481,"[1.000, 0.000, 0.000, 1.000, 1.000, 0.000]",1.000,1.000,0.000,0.000,0.000,0.000,1.000,1.000,1.000,1.000,0.000,0.000
0.8300,0.98258,0.98709,0.98465,0.07998,-0.06486,1.17241,-0.04685,-0.02910,-0.03896,0.06121,-0.09984,-0.47212,0.00000,0.00000,0.00000,0.00000,0.00000,0.00000,-0.98258,-0.98709,-0.98465,-0.07998,0.06486,-1.17241,"[1.000, 0.000, 0.000, 1.000, 1.000, 0.000]",1.000,1.000,0.000,0.000,0.000,0.000,1.000,1.000,1.000,1.000,0.000,0.000
0.8350,0.98235,0.98694,0.98446,0.08044,-0.06517,1.17002,-0.04719,-0.02921,-0.03920,0.06050,-0.09926,-0.47135,0.00000,0.00000,0.00000,0.00000,0.00000,0.00000,-0.98235,-0.98694,-0.98446,-0.08044,0.06517,-1.17002,"[1.000, 0.000, 0.000, 1.000, 1.000, 0.000]",1.000,1.000,0.000,0.000,0.000,0.000,1.000,1.000,1.000,1.000,0.000,0.000
0.8400,0.98211,0.98680,0.98426,0.08089,-0.06547,1.16762,-0.04753,-0.02932,-0.03945,0.05980,-0.09869,-0.47057,0.00000,0.00000,0.00000,0.00000,0.00000,0.00000,-0.98211,-0.98680,-0.98426,-0.08089,0.06547,-1.16762,"[1.000, 0.000, 0.000, 1.000, 1.000, 0.000]",1.000,1.000,0.000,0.000,0.000,0.000,1.000,1.000,1.000,1.000,0.000,0.000
0.8450,0.98187,0.98665,0.98406,0.08135,-0.06577,1.16524,-0.04787,-0.02943,-0.03969,0.05909,-0.09811,-0.46980,0.00000,0.00000,0.00000,0.00000,0.00000,0.00000,-0.98187,-0.98665,-0.98406,-0.08135,0.06577,-1.16524,"[1.000, 0.000, 0.000, 1.000, 1.000, 0.000]",1.000,1.000,0.000,0.000,0.000,0.000,1.000,1.000,1.000,1.000,0.000,0.000
0.8500,0.98163,0.98650,0.98387,0.08180,-0.06607,1.16285,-0.04821,-0.02954,-0.03994,0.05919,-0.09842,-0.46888,0.00000,0.00000,0.00000,0.00000,0.00000,0.00000,-0.98163,-0.98650,-0.98387,-0.08180,0.06607,-1.16285,"[1.000, 0.000, 0.000, 1.000, 1.000, 0.000]",1.000,1.000,0.000,0.000,0.000,0.000,1.000,1.000,1.000,1.000,0.000,0.000
0.8550,0.98139,0.98635,0.98367,0.08226,-0.06637,1.16047,-0.04855,-0.02965,-0.04018,0.05929,-0.09873,-0.46796,0.00000,0.00000,0.00000,0.00000,0.00000,0.00000,-0.98139,-0.98635,-0.98367,-0.08226,0.06637,-1.16047,"[1.000, 0.000, 0.000, 1.000, 1.000, 0.000]",1.000,1.000,0.000,0.000,0.000,0.000,1.000,1.000,1.000,1.000,0.000,0.000
0.8600,0.98115,0.98621,0.98346,0.08271,-0.06667,1.15810,-0.04889,-0.02976,-0.04043,0.05939,-0.09904,-0.46704,0.00000,0.00000,0.00000,0.00000,0.00000,0.00000,-0.98115,-0.98621,-0.98346,-0.08271,0.06667,-1.15810,"[1.000, 0.000, 0.000, 1.000, 1.000, 0.000]",1.000,1.000,0.000,0.000,0.000,0.000,1.000,1.000,1.000,1.000,0.000,0.000
0.8650,0.98090,0.98606,0.98326,0.08317,-0.06697,1.15573,-0.04923,-0.02987,-0.04067,0.05948,-0.09935,-0.46612,0.00000,0.00000,0.00000,0.00000,0.00000,0.00000,-0.98090,-0.98606,-0.98326,-0.08317,0.06697,-1.15573,"[1.000, 0.000, 0.000, 1.000, 1.000, 0.000]",1.000,1.000,0.000,0.000,0.000,0.000,1.000,1.000,1.000,1.000,0.000,0.000
0.8700,0.98066,0.98591,0.98306,0.08362,-0.06727,1.15336,-0.04957,-0.02997,-0.04092,0.05958,-0.09965,-0.46520,0.00000,0.00000,0.00000,0.00000,0.00000,0.00000,-0.98066,-0.98591,-0.98306,-0.08362,0.06727,-1.15336,"[1.000, 0.000, 0.000, 1.000, 1.000, 0.000]",1.000,1.000,0.000,0.000,0.000,0.000,1.000,1.000,1.000,1.000,0.000,0.000
0.8750,0.98041,0.98576,0.98285,0.08408,-0.06758,1.15100,-0.04992,-0.03008,-0.04116,0.05968,-0.09996,-0.46428,0.00000,0.00000,0.00000,0.00000,0.00000,0.00000,-0.98041,-0.98576,-0.98285,-0.08408,0.06758,-1.15100,"[1.000, 0.000, 0.000, 1.000, 1.000, 0.000]",1.000,1.000,0.000,0.000,0.000,0.000,1.000,1.000,1.000,1.000,0.000,0.000
0.8800,0.98016,0.98561,0.98265,0.08454,-0.06788,1.14864,-0.05026,-0.03018,-0.04141,0.05977,-0.10027,-0.46336,0.00000,0.00000,0.00000,0.00000,0.00000,0.00000,-0.98016,-0.98561,-0.98265,-0.08454,0.06788,-1.14864,"[1.000, 0.000, 0.000, 1.000, 1.000, 0.000]",1.000,1.000,0.000,0.000,0.000,0.000,1.000,1.000,1.000,1.000,0.000,0.000
0.8850,0.97990,0.98546,0.98244,0.08500,-0.06818,1.14628,-0.05060,-0.03028,-0.04165,0.05987,-0.10058,-0.46244,0.00000,0.00000,0.00000,0.00000,0.00000,0.00000,-0.97990,-0.98546,-0.98244,-0.08500,0.06818,-1.14628,"[1.000, 0.000, 0.000, 1.000, 1.000, 0.000]",1.000,1.000,0.000,0.000,0.000,0.000,1.000,1.000,1.000,1.000,0.000,0.000
0.8900,0.97965,0.98530,0.98223,0.08546,-0.06849,1.14393,-0.05094,-0.03038,-0.04189,0.05997,-0.10089,-0.46152,0.00000,0.00000,0.00000,0.00000,0.00000,0.00000,-0.97965,-0.98530,-0.98223,-0.08546,0.06849,-1.14393,"[1.000, 0.000, 0.000, 1.000, 1.000, 0.000]",1.000,1.000,0.000,0.000,0.000,0.000,1.000,1.000,1.000,1.000,0.000,0.000
0.8950,0.97940,0.98515,0.98202,0.08592,-0.06880,1.14159,-0.05129,-0.03048,-0.04214,0.06007,-0.10120,-0.46060,0.00000,0.00000,0.00000,0.00000,0.00000,0.00000,-0.97940,-0.98515,-0.98202,-0.08592,0.06880,-1.14159,"[1.000, 0.000, 0.000, 1.000, 1.000, 0.000]",1.000,1.000,0.000,0.000,0.000,0.000,1.000,1.000,1.000,1.000,0.000,0.000
0.9000,0.97914,0.98500,0.98181,0.08638,-0.06910,1.13925,-0.05163,-0.03058,-0.04238,0.05957,-0.10083,-0.45980,0.00000,0.00000,0.00000,0.00000,0.00000,0.00000,-0.97914,-0.98500,-0.98181,-0.08638,0.06910,-1.13925,"[1.000, 0.000, 0.000, 1.000, 1.000, 0.000]",1.000,1.000,0.000,0.000,0.000,0.000,1.000,1.000,1.000,1.000,0.000,0.000
0.9050,0.97888,0.98485,0.98160,0.08684,-0.06940,1.13691,-0.05197,-0.03068,-0.04263,0.05906,-0.10046,-0.45900,0.00000,0.00000,0.00000,0.00000,0.00000,0.00000,-0.97888,-0.98485,-0.98160,-0.08684,0.06940,-1.13691,"[1.000, 0.000, 0.000, 1.000, 1.000, 0.000]",1.000,1.000,0.000,0.000,0.000,0.000,1.000,1.000,1.000,1.000,0.000,0.000
