Step,MPC_Start_Time,Control_Time,Actual_Time_Interval,CONTROL_DT,Mission_Phase,Waypoint_Number,Telemetry_X_mm,Telemetry_Y_mm,Telemetry_Z_mm,Telemetry_Roll_deg,Telemetry_Pitch_deg,Telemetry_Yaw_deg,Current_X,Current_Y,Current_Z,Current_Roll,Current_Pitch,Current_Yaw,Current_VX,Current_VY,Current_VZ,Current_WX,Current_WY,Current_WZ,Target_X,Target_Y,Target_Z,Target_Roll,Target_Pitch,Target_Yaw,Target_VX,Target_VY,Target_VZ,Target_WX,Target_WY,Target_WZ,Error_X,Error_Y,Error_Z,Error_Roll,Error_Pitch,Error_Yaw,Error_VX,Error_VY,Error_VZ,Error_WX,Error_WY,Error_WZ,MPC_Computation_Time,MPC_Status,MPC_Solver,MPC_Solver_Time_Limit,MPC_Solve_Time,MPC_Time_Limit_Exceeded,MPC_Fallback_Used,MPC_Objective,MPC_Iterations,MPC_Optimality_Gap,Command_Vector,Command_Hex,Command_Sent_Time,Total_Active_Thrusters,Thruster_Switches,RW_Torque_X,RW_Torque_Y,RW_Torque_Z,Total_MPC_Loop_Time,Timing_Violation
0,0.0450,0.0450,0.0500,0.050,APPROACHING,0,1000.00,1000.00,1000.00,0.00,0.00,90.00,1.00000,1.00000,1.00000,0.00000,0.00000,1.57080,0.00000,0.00000,0.00000,0.00000,0.00000,0.00000,0.00000,0.00000,0.00000,0.00000,0.00000,0.00000,0.00000,0.00000,0.00000,0.00000,0.00000,0.00000,1.00000,1.00000,1.00000,0.00000,0.00000,-1.57080,0.00000,0.00000,0.00000,0.00000,0.00000,0.00000,0.0000,,,,0.0053,,,,,,"[1.000, 0.000, 0.000, 1.000, 1.000, 0.000]",0x100110,0.0450,3,0,-0.269358,0.269358,1.525677,0.0000,NO
1,0.0950,0.0950,0.0500,0.050,APPROACHING,0,999.94,999.94,999.94,-0.23,0.23,91.30,0.99994,0.99994,0.99994,-0.00396,0.00405,1.59346,-0.00248,-0.00252,-0.00250,-0.16014,0.16014,0.90706,0.00000,0.00000,0.00000,0.00000,0.00000,0.00000,0.00000,0.00000,0.00000,0.00000,0.00000,0.00000,0.99994,0.99994,0.99994,0.00396,-0.00405,-1.59346,0.00248,0.00252,0.00250,0.16014,-0.16014,-0.90706,0.0000,,,,0.0218,,,,,,"[1.000, 0.000, 0.000, 1.000, 1.000, 0.000]",0x100110,0.0950,3,0,-0.764841,0.758599,2.000000,0.0000,NO
2,0.1450,0.1450,0.0500,0.050,APPROACHING,0,999.75,999.75,999.75,-1.28,1.39,95.59,0.99975,0.99975,0.99975,-0.02231,0.02429,1.66829,-0.00482,-0.00517,-0.00500,-0.61432,0.61171,2.09612,0.00000,0.00000,0.00000,0.00000,0.00000,0.00000,0.00000,0.00000,0.00000,0.00000,0.00000,0.00000,0.99975,0.99975,0.99975,0.02231,-0.02429,-1.66829,0.00482,0.00517,0.00500,0.61432,-0.61171,-2.09612,0.0000,,,,0.0051,,,,,,"[1.000, 0.000, 0.000, 1.000, 1.000, 0.000]",0x100110,0.1450,3,0,-1.999511,1.999946,2.000000,0.0000,NO
3,0.1950,0.1950,0.0500,0.050,APPROACHING,0,999.46,999.42,999.44,-4.33,5.21,103.13,0.99946,0.99942,0.99944,-0.07553,0.09094,1.79990,-0.00678,-0.00812,-0.00748,-1.79866,1.80512,3.28519,0.00000,0.00000,0.00000,0.00000,0.00000,0.00000,0.00000,0.00000,0.00000,0.00000,0.00000,0.00000,0.99946,0.99942,0.99944,0.07553,-0.09094,-1.79990,0.00678,0.00812,0.00748,1.79866,-1.80512,-3.28519,0.0000,,,,0.0050,,,,,,"[1.000, 0.000, 0.000, 1.000, 1.000, 0.000]",0x100110,0.1950,3,0,-2.000000,2.000000,1.995811,0.0000,NO
4,0.2450,0.2450,0.0500,0.050,APPROACHING,0,999.09,998.93,999.00,-9.55,13.38,113.45,0.99909,0.99893,0.99900,-0.16672,0.23353,1.98004,-0.00800,-0.01152,-0.00984,-2.98329,2.99859,4.47177,0.00000,0.00000,0.00000,0.00000,0.00000,0.00000,0.00000,0.00000,0.00000,0.00000,0.00000,0.00000,0.99909,0.99893,0.99900,0.16672,-0.23353,-1.98004,0.00800,0.01152,0.00984,2.98329,-2.99859,-4.47177,0.0000,,,,0.0050,,,,,,"[1.000, 0.000, 0.000, 1.000, 1.000, 0.000]",0x100110,0.2450,3,0,-2.000000,2.000000,2.000000,0.0000,NO
5,0.2950,0.2950,0.0500,0.050,APPROACHING,0,998.68,998.26,998.46,-15.53,26.60,126.11,0.99868,0.99826,0.99846,-0.27100,0.46433,2.20098,-0.00806,-0.01534,-0.01184,-4.16794,4.19205,5.66082,0.00000,0.00000,0.00000,0.00000,0.00000,0.00000,0.00000,0.00000,0.00000,0.00000,0.00000,0.00000,0.99868,0.99826,0.99846,0.27100,-0.46433,-2.20098,0.00806,0.01534,0.01184,4.16794,-4.19205,-5.66082,0.0000,,,,0.0050,,,,,,"[0.000, 1.000, 0.000, 1.000, 1.000, 0.000]",0x010110,0.2950,3,2,-2.000000,2.000000,2.000000,0.0000,NO
6,0.3450,0.3450,0.0500,0.050,APPROACHING,0,998.24,997.47,997.77,-19.92,45.20,141.94,0.99824,0.99747,0.99777,-0.34758,0.78893,2.47738,-0.00941,-0.01621,-0.01583,-5.35259,5.38551,6.84987,0.00000,0.00000,0.00000,0.00000,0.00000,0.00000,0.00000,0.00000,0.00000,0.00000,0.00000,0.00000,0.99824,0.99747,0.99777,0.34758,-0.78893,-2.47738,0.00941,0.01621,0.01583,5.35259,-5.38551,-6.84987,0.0000,,,,0.0050,,,,,,"[0.000, 1.000, 0.000, 1.000, 1.000, 0.000]",0x010110,0.3450,3,0,-2.000000,1.995834,2.000000,0.0000,NO
7,0.3950,0.3950,0.0500,0.050,APPROACHING,0,997.77,996.62,996.88,-12.98,68.21,170.29,0.99777,0.99662,0.99688,-0.22658,1.19047,2.97214,-0.00905,-0.01807,-0.01967,-6.53729,6.57649,8.03887,0.00000,0.00000,0.00000,0.00000,0.00000,0.00000,0.00000,0.00000,0.00000,0.00000,0.00000,0.00000,0.99777,0.99662,0.99688,0.22658,-1.19047,-2.97214,0.00905,0.01807,0.01967,6.53729,-6.57649,-8.03887,0.0000,,,,0.0050,,,,,,"[0.000, 1.000, 0.000, 1.000, 0.000, 1.000]",0x010101,0.3950,3,2,-2.000000,2.000000,1.995983,0.0000,NO
8,0.4450,0.4450,0.0500,0.050,APPROACHING,0,997.25,995.64,995.85,80.69,74.39,-72.32,0.99725,0.99564,0.99585,1.40829,1.29843,-1.26231,-0.01128,-0.02128,-0.02140,-7.72191,7.77000,9.22552,0.00000,0.00000,0.00000,0.00000,0.00000,0.00000,0.00000,0.00000,0.00000,0.00000,0.00000,0.00000,0.99725,0.99564,0.99585,-1.40829,-1.29843,1.26231,0.01128,0.02128,0.02140,7.72191,-7.77000,-9.22552,0.0000,,,,0.0050,,,,,,"[0.000, 1.000, 0.000, 1.000, 0.000, 1.000]",0x010101,0.4450,3,0,-1.995912,1.998848,2.000000,0.0000,NO
9,0.4950,0.4950,0.0500,0.050,APPROACHING,0,996.68,994.47,994.75,98.70,44.21,-24.93,0.99668,0.99447,0.99475,1.72259,0.77160,-0.43516,-0.01098,-0.02535,-0.02253,-8.90416,8.96273,10.41458,0.00000,0.00000,0.00000,0.00000,0.00000,0.00000,0.00000,0.00000,0.00000,0.00000,0.00000,0.00000,0.99668,0.99447,0.99475,-1.72259,-0.77160,0.43516,0.01098,0.02535,0.02253,8.90416,-8.96273,-10.41458,0.0000,,,,0.0056,,,,,,"[0.000, 1.000, 1.000, 0.000, 0.000, 1.000]",0x011001,0.4950,3,2,-1.999173,1.998213,2.000000,0.0000,NO
10,0.5450,0.5450,0.0500,0.050,APPROACHING,0,996.13,993.15,993.53,84.68,11.39,4.32,0.99613,0.99315,0.99353,1.47791,0.19885,0.07542,-0.01059,-0.02769,-0.02600,-10.08836,10.15513,11.60359,0.00000,0.00000,0.00000,0.00000,0.00000,0.00000,0.00000,0.00000,0.00000,0.00000,0.00000,0.00000,0.99613,0.99315,0.99353,-1.47791,-0.19885,-0.07542,0.01059,0.02769,0.02600,10.08836,-10.15513,-11.60359,0.0000,,,,0.0069,,,,,,"[1.000, 0.000, 1.000, 0.000, 0.000, 1.000]",0x101001,0.5450,3,2,-2.000000,2.000000,2.000000,0.0000,NO
11,0.5950,0.5950,0.0500,0.050,APPROACHING,0,995.56,991.68,992.19,52.58,-10.60,44.95,0.99556,0.99168,0.99219,0.91775,-0.18495,0.78458,-0.01177,-0.03139,-0.02758,-11.27303,11.34861,12.79259,0.00000,0.00000,0.00000,0.00000,0.00000,0.00000,0.00000,0.00000,0.00000,0.00000,0.00000,0.00000,0.99556,0.99168,0.99219,-0.91775,0.18495,-0.78458,0.01177,0.03139,0.02758,11.27303,-11.34861,-12.79259,0.0000,,,,0.0364,,,,,,"[1.000, 0.000, 1.000, 0.000, 1.000, 0.000]",0x101010,0.5950,3,2,-2.000000,2.000000,2.000000,0.0000,NO
12,0.6450,0.6450,0.0500,0.050,APPROACHING,0,994.96,990.07,990.71,10.67,-1.12,94.96,0.99496,0.99007,0.99071,0.18628,-0.01951,1.65745,-0.01173,-0.03319,-0.03132,-12.45771,12.54210,13.98159,0.00000,0.00000,0.00000,0.00000,0.00000,0.00000,0.00000,0.00000,0.00000,0.00000,0.00000,0.00000,0.99496,0.99007,0.99071,-0.18628,0.01951,-1.65745,0.01173,0.03319,0.03132,12.45771,-12.54210,-13.98159,0.0000,,,,0.0408,,,,,,"[1.000, 0.000, 0.000, 1.000, 1.000, 0.000]",0x100110,0.6450,3,2,-2.000000,2.000000,2.000000,0.0000,NO
13,0.6950,0.6950,0.0500,0.050,APPROACHING,0,994.33,988.33,989.10,-15.14,39.20,136.00,0.99433,0.98833,0.98910,-0.26432,0.68424,2.37371,-0.01255,-0.03679,-0.03312,-13.64238,13.73559,15.17058,0.00000,0.00000,0.00000,0.00000,0.00000,0.00000,0.00000,0.00000,0.00000,0.00000,0.00000,0.00000,0.99433,0.98833,0.98910,0.26432,-0.68424,-2.37371,0.01255,0.03679,0.03312,13.64238,-13.73559,-15.17058,0.0000,,,,0.0408,,,,,,"[0.000, 1.000, 0.000, 1.000, 1.000, 0.000]",0x010110,0.6950,3,2,-2.000000,2.000000,2.000000,0.0000,NO
14,0.7450,0.7450,0.0500,0.050,APPROACHING,0,993.70,986.44,987.35,69.23,77.94,-90.30,0.99370,0.98644,0.98735,1.20835,1.36031,-1.57609,-0.01174,-0.03878,-0.03659,-14.82706,14.92909,16.35956,0.00000,0.00000,0.00000,0.00000,0.00000,0.00000,0.00000,0.00000,0.00000,0.00000,0.00000,0.00000,0.99370,0.98644,0.98735,-1.20835,-1.36031,1.57609,0.01174,0.03878,0.03659,14.82706,-14.92909,-16.35956,0.0000,,,,0.0408,,,,,,"[0.000, 1.000, 0.000, 1.000, 0.000, 1.000]",0x010101,0.7450,3,2,-2.000000,2.000000,2.000000,0.0000,NO
15,0.7950,0.7950,0.0500,0.050,APPROACHING,0,993.12,984.41,985.49,94.36,24.99,-8.03,0.99312,0.98441,0.98549,1.64686,0.43613,-0.14019,-0.01105,-0.04268,-0.03740,-16.01175,16.12260,17.54853,0.00000,0.00000,0.00000,0.00000,0.00000,0.00000,0.00000,0.00000,0.00000,0.00000,0.00000,0.00000,0.99312,0.98441,0.98549,-1.64686,-0.43613,0.14019,0.01105,0.04268,0.03740,16.01175,-16.12260,-17.54853,0.0000,,,,0.0408,,,,,,"[1.000, 0.000, 1.000, 0.000, 0.000, 1.000]",0x101001,0.7950,3,4,-2.000000,2.000000,2.000000,0.0000,NO
16,0.8450,0.8450,0.0500,0.050,APPROACHING,0,992.50,982.20,983.58,48.27,-11.15,51.47,0.99250,0.98220,0.98358,0.84248,-0.19465,0.89826,-0.01270,-0.04597,-0.03896,-17.19644,17.31610,18.73750,0.00000,0.00000,0.00000,0.00000,0.00000,0.00000,0.00000,0.00000,0.00000,0.00000,0.00000,0.00000,0.99250,0.98220,0.98358,-0.84248,0.19465,-0.89826,0.01270,0.04597,0.03896,17.19644,-17.31610,-18.73750,0.0000,,,,0.0408,,,,,,"[1.000, 0.000, 1.000, 0.000, 1.000, 0.000]",0x101010,0.8450,3,2,-2.000000,2.000000,2.000000,0.0000,NO
17,0.8950,0.8950,0.0500,0.050,APPROACHING,0,991.87,979.86,981.54,-5.75,19.03,118.41,0.99187,0.97986,0.98154,-0.10028,0.33222,2.06661,-0.01147,-0.04793,-0.04216,-18.38113,18.50962,19.92645,0.00000,0.00000,0.00000,0.00000,0.00000,0.00000,0.00000,0.00000,0.00000,0.00000,0.00000,0.00000,0.99187,0.97986,0.98154,0.10028,-0.33222,-2.06661,0.01147,0.04793,0.04216,18.38113,-18.50962,-19.92645,0.0000,,,,0.0409,,,,,,"[1.000, 0.000, 0.000, 1.000, 1.000, 0.000]",0x100110,0.8950,3,2,-2.000000,2.000000,2.000000,0.0000,NO
18,0.9450,0.9450,0.0500,0.050,APPROACHING,0,991.33,977.36,979.41,45.24,79.70,-119.45,0.99133,0.97736,0.97941,0.78953,1.39101,-2.08473,-0.00960,-0.05134,-0.04224,-19.56583,19.70314,21.11540,0.00000,0.00000,0.00000,0.00000,0.00000,0.00000,0.00000,0.00000,0.00000,0.00000,0.00000,0.00000,0.99133,0.97736,0.97941,-0.78953,-1.39101,2.08473,0.00960,0.05134,0.04224,19.56583,-19.70314,-21.11540,0.0000,,,,0.0408,,,,,,"[0.000, 1.000, 0.000, 1.000, 0.000, 1.000]",0x010101,0.9450,3,4,-2.000000,2.000000,2.000000,0.0000,NO
19,0.9950,0.9950,0.0500,0.050,APPROACHING,0,990.85,974.70,977.27,88.98,14.84,1.67,0.99085,0.97470,0.97727,1.55295,0.25898,0.02915,-0.00882,-0.05506,-0.04286,-20.75052,20.89666,22.30434,0.00000,0.00000,0.00000,0.00000,0.00000,0.00000,0.00000,0.00000,0.00000,0.00000,0.00000,0.00000,0.99085,0.97470,0.97727,-1.55295,-0.25898,-0.02915,0.00882,0.05506,0.04286,20.75052,-20.89666,-22.30434,0.0000,,,,0.0408,,,,,,"[1.000, 0.000, 1.000, 0.000, 0.000, 1.000]",0x101001,0.9950,3,4,-2.000000,2.000000,2.000000,0.0000,NO
20,1.0450,1.0450,0.0500,0.050,APPROACHING,0,990.38,971.86,975.09,20.63,-5.96,84.35,0.99038,0.97186,0.97509,0.36007,-0.10395,1.47210,-0.00890,-0.05871,-0.04391,-21.93523,22.09019,23.49326,0.00000,0.00000,0.00000,0.00000,0.00000,0.00000,0.00000,0.00000,0.00000,0.00000,0.00000,0.00000,0.99038,0.97186,0.97509,-0.36007,0.10395,-1.47210,0.00890,0.05871,0.04391,21.93523,-22.09019,-23.49326,0.0000,,,,0.0408,,,,,,"[1.000, 0.000, 0.000, 1.000, 1.000, 0.000]",0x100110,1.0450,3,4,-2.000000,2.000000,2.000000,0.0000,NO
21,1.0950,1.0950,0.0500,0.050,APPROACHING,0,989.89,968.85,972.85,-14.83,62.84,158.49,0.98989,0.96885,0.97285,-0.25882,1.09669,2.76618,-0.00935,-0.06215,-0.04525,-23.11993,23.28372,24.68218,0.00000,0.00000,0.00000,0.00000,0.00000,0.00000,0.00000,0.00000,0.00000,0.00000,0.00000,0.00000,0.98989,0.96885,0.97285,0.25882,-1.09669,-2.76618,0.00935,0.06215,0.04525,23.11993,-23.28372,-24.68218,0.0000,,,,0.0408,,,,,,"[0.000, 1.000, 0.000, 1.000, 0.000, 1.000]",0x010101,1.0950,3,4,-2.000000,2.000000,2.000000,0.0000,NO
22,1.1450,1.1450,0.0500,0.050,APPROACHING,0,989.38,965.66,970.55,95.13,24.75,-7.36,0.98938,0.96566,0.97055,1.66041,0.43202,-0.12840,-0.01000,-0.06558,-0.04641,-24.30464,24.47726,25.87110,0.00000,0.00000,0.00000,0.00000,0.00000,0.00000,0.00000,0.00000,0.00000,0.00000,0.00000,0.00000,0.98938,0.96566,0.97055,-1.66041,-0.43202,0.12840,0.01000,0.06558,0.04641,24.30464,-24.47726,-25.87110,0.0000,,,,0.0408,,,,,,"[1.000, 0.000, 1.000, 0.000, 0.000, 1.000]",0x101001,1.1450,3,4,-2.000000,2.000000,2.000000,0.0000,NO
23,1.1950,1.1950,0.0500,0.050,APPROACHING,0,988.84,962.31,968.19,19.70,-5.25,85.73,0.98884,0.96231,0.96819,0.34384,-0.09158,1.49630,-0.01052,-0.06899,-0.04750,-25.48936,25.67080,27.06000,0.00000,0.00000,0.00000,0.00000,0.00000,0.00000,0.00000,0.00000,0.00000,0.00000,0.00000,0.00000,0.98884,0.96231,0.96819,-0.34384,0.09158,-1.49630,0.01052,0.06899,0.04750,25.48936,-25.67080,-27.06000,0.0000,,,,0.0408,,,,,,"[1.000, 0.000, 0.000, 1.000, 1.000, 0.000]",0x100110,1.1950,3,4,-2.000000,2.000000,2.000000,0.0000,NO
24,1.2450,1.2450,0.0500,0.050,APPROACHING,0,988.28,958.77,965.78,1.94,75.62,-172.21,0.98828,0.95877,0.96578,0.03382,1.31988,-3.00560,-0.01047,-0.07238,-0.04850,-26.67408,26.86435,28.24889,0.00000,0.00000,0.00000,0.00000,0.00000,0.00000,0.00000,0.00000,0.00000,0.00000,0.00000,0.00000,0.98828,0.95877,0.96578,-0.03382,-1.31988,3.00560,0.01047,0.07238,0.04850,26.67408,-26.86435,-28.24889,0.0000,,,,0.0408,,,,,,"[0.000, 1.000, 0.000, 1.000, 0.000, 1.000]",0x010101,1.2450,3,4,-2.000000,2.000000,2.000000,0.0000,NO
25,1.2950,1.2950,0.0500,0.050,APPROACHING,0,987.75,955.07,963.33,79.48,3.38,15.31,0.98775,0.95507,0.96333,1.38723,0.05899,0.26729,-0.00977,-0.07578,-0.04891,-27.85880,28.05791,29.43778,0.00000,0.00000,0.00000,0.00000,0.00000,0.00000,0.00000,0.00000,0.00000,0.00000,0.00000,0.00000,0.98775,0.95507,0.96333,-1.38723,-0.05899,-0.26729,0.00977,0.07578,0.04891,27.85880,-28.05791,-29.43778,0.0000,,,,0.0408,,,,,,"[1.000, 0.000, 1.000, 0.000, 0.000, 1.000]",0x101001,1.2950,3,4,-2.000000,2.000000,2.000000,0.0000,NO
26,1.3450,1.3450,0.0500,0.050,APPROACHING,0,987.27,951.19,960.86,-7.05,22.81,121.37,0.98727,0.95119,0.96086,-0.12302,0.39808,2.11828,-0.00828,-0.07886,-0.04864,-29.04352,29.25147,30.62665,0.00000,0.00000,0.00000,0.00000,0.00000,0.00000,0.00000,0.00000,0.00000,0.00000,0.00000,0.00000,0.98727,0.95119,0.96086,0.12302,-0.39808,-2.11828,0.00828,0.07886,0.04864,29.04352,-29.25147,-30.62665,0.0000,,,,0.0408,,,,,,"[0.000, 1.000, 0.000, 1.000, 1.000, 0.000]",0x010110,1.3450,3,6,-2.000000,2.000000,2.000000,0.0000,NO
27,1.3950,1.3950,0.0500,0.050,APPROACHING,0,986.85,947.21,958.35,102.57,44.22,-23.33,0.98685,0.94721,0.95835,1.79016,0.77177,-0.40715,-0.00710,-0.08035,-0.05140,-30.22825,30.44503,31.81552,0.00000,0.00000,0.00000,0.00000,0.00000,0.00000,0.00000,0.00000,0.00000,0.00000,0.00000,0.00000,0.98685,0.94721,0.95835,-1.79016,-0.77177,0.40715,0.00710,0.08035,0.05140,30.22825,-30.44503,-31.81552,0.0000,,,,0.0408,,,,,,"[0.000, 1.000, 1.000, 0.000, 0.000, 1.000]",0x011001,1.3950,3,4,-2.000000,2.000000,2.000000,0.0000,NO
28,1.4450,1.4450,0.0500,0.050,APPROACHING,0,986.54,943.15,955.71,19.37,-4.79,86.44,0.98654,0.94315,0.95571,0.33813,-0.08354,1.50869,-0.00461,-0.08162,-0.05309,-31.41298,31.63860,33.00438,0.00000,0.00000,0.00000,0.00000,0.00000,0.00000,0.00000,0.00000,0.00000,0.00000,0.00000,0.00000,0.98654,0.94315,0.95571,-0.33813,0.08354,-1.50869,0.00461,0.08162,0.05309,31.41298,-31.63860,-33.00438,0.0000,,,,0.0408,,,,,,"[1.000, 0.000, 0.000, 1.000, 1.000, 0.000]",0x100110,1.4450,3,6,-2.000000,2.000000,2.000000,0.0000,NO
29,1.4950,1.4950,0.0500,0.050,APPROACHING,0,986.29,938.98,953.02,91.63,73.52,-63.27,0.98629,0.93898,0.95302,1.59925,1.28311,-1.10427,-0.00401,-0.08473,-0.05351,-32.59771,32.83218,34.19323,0.00000,0.00000,0.00000,0.00000,0.00000,0.00000,0.00000,0.00000,0.00000,0.00000,0.00000,0.00000,0.98629,0.93898,0.95302,-1.59925,-1.28311,1.10427,0.00401,0.08473,0.05351,32.59771,-32.83218,-34.19323,0.0000,,,,0.0408,,,,,,"[0.000, 1.000, 0.000, 1.000, 0.000, 1.000]",0x010101,1.4950,3,4,-2.000000,2.000000,2.000000,0.0000,NO
30,1.5450,1.5450,0.0500,0.050,APPROACHING,0,986.12,934.67,950.35,40.30,-10.86,62.06,0.98612,0.93467,0.95035,0.70339,-0.18949,1.08323,-0.00218,-0.08701,-0.05236,-33.78245,34.02576,35.38207,0.00000,0.00000,0.00000,0.00000,0.00000,0.00000,0.00000,0.00000,0.00000,0.00000,0.00000,0.00000,0.98612,0.93467,0.95035,-0.70339,0.18949,-1.08323,0.00218,0.08701,0.05236,33.78245,-34.02576,-35.38207,0.0000,,,,0.0408,,,,,,"[1.000, 0.000, 1.000, 0.000, 1.000, 0.000]",0x101010,1.5450,3,6,-2.000000,2.000000,2.000000,0.0000,NO
31,1.5950,1.5950,0.0500,0.050,APPROACHING,0,986.06,930.28,947.67,38.14,80.04,-128.73,0.98606,0.93028,0.94767,0.66561,1.39694,-2.24674,0.00054,-0.08771,-0.05362,-34.96719,35.21935,36.57091,0.00000,0.00000,0.00000,0.00000,0.00000,0.00000,0.00000,0.00000,0.00000,0.00000,0.00000,0.00000,0.98606,0.93028,0.94767,-0.66561,-1.39694,2.24674,-0.00054,0.08771,0.05362,34.96719,-35.21935,-36.57091,0.0000,,,,0.0408,,,,,,"[0.000, 1.000, 0.000, 1.000, 0.000, 1.000]",0x010101,1.5950,3,6,-2.000000,2.000000,2.000000,0.0000,NO
32,1.6450,1.6450,0.0500,0.050,APPROACHING,0,986.10,925.81,944.98,45.27,-10.93,56.42,0.98610,0.92581,0.94498,0.79017,-0.19077,0.98469,0.00198,-0.09025,-0.05291,-36.15193,36.41294,37.75973,0.00000,0.00000,0.00000,0.00000,0.00000,0.00000,0.00000,0.00000,0.00000,0.00000,0.00000,0.00000,0.98610,0.92581,0.94498,-0.79017,0.19077,-0.98469,-0.00198,0.09025,0.05291,36.15193,-36.41294,-37.75973,0.0000,,,,0.0408,,,,,,"[1.000, 0.000, 1.000, 0.000, 1.000, 0.000]",0x101010,1.6450,3,6,-2.000000,2.000000,2.000000,0.0000,NO
33,1.6950,1.6950,0.0500,0.050,APPROACHING,0,986.25,921.26,942.27,58.81,79.74,-104.89,0.98625,0.92126,0.94227,1.02651,1.39168,-1.83073,0.00453,-0.09089,-0.05421,-37.33668,37.60654,38.94855,0.00000,0.00000,0.00000,0.00000,0.00000,0.00000,0.00000,0.00000,0.00000,0.00000,0.00000,0.00000,0.98625,0.92126,0.94227,-1.02651,-1.39168,1.83073,-0.00453,0.09089,0.05421,37.33668,-37.60654,-38.94855,0.0000,,,,0.0409,,,,,,"[0.000, 1.000, 0.000, 1.000, 0.000, 1.000]",0x010101,1.6950,3,6,-2.000000,2.000000,2.000000,0.0000,NO
34,1.7450,1.7450,0.0500,0.050,APPROACHING,0,986.49,916.63,939.56,33.19,-9.74,70.46,0.98649,0.91663,0.93956,0.57936,-0.17007,1.22969,0.00604,-0.09308,-0.05316,-38.52142,38.80014,40.13735,0.00000,0.00000,0.00000,0.00000,0.00000,0.00000,0.00000,0.00000,0.00000,0.00000,0.00000,0.00000,0.98649,0.91663,0.93956,-0.57936,0.17007,-1.22969,-0.00604,0.09308,0.05316,38.52142,-38.80014,-40.13735,0.0000,,,,0.0408,,,,,,"[1.000, 0.000, 0.000, 1.000, 1.000, 0.000]",0x100110,1.7450,3,4,-2.000000,2.000000,2.000000,0.0000,NO
35,1.7950,1.7950,0.0500,0.050,APPROACHING,0,986.76,911.91,936.87,102.56,63.42,-42.57,0.98676,0.91191,0.93687,1.79009,1.10697,-0.74299,0.00627,-0.09580,-0.05342,-39.70618,39.99375,41.32615,0.00000,0.00000,0.00000,0.00000,0.00000,0.00000,0.00000,0.00000,0.00000,0.00000,0.00000,0.00000,0.98676,0.91191,0.93687,-1.79009,-1.10697,0.74299,-0.00627,0.09580,0.05342,39.70618,-39.99375,-41.32615,0.0000,,,,0.0408,,,,,,"[0.000, 1.000, 1.000, 0.000, 0.000, 1.000]",0x011001,1.7950,3,6,-2.000000,2.000000,2.000000,0.0000,NO
36,1.8450,1.8450,0.0500,0.050,APPROACHING,0,987.09,907.08,934.13,7.98,3.76,100.74,0.98709,0.90708,0.93413,0.13927,0.06562,1.75819,0.00815,-0.09666,-0.05511,-40.89093,41.18737,42.51494,0.00000,0.00000,0.00000,0.00000,0.00000,0.00000,0.00000,0.00000,0.00000,0.00000,0.00000,0.00000,0.98709,0.90708,0.93413,-0.13927,-0.06562,-1.75819,-0.00815,0.09666,0.05511,40.89093,-41.18737,-42.51494,0.0000,,,,0.0408,,,,,,"[1.000, 0.000, 0.000, 1.000, 1.000, 0.000]",0x100110,1.8450,3,6,-2.000000,2.000000,2.000000,0.0000,NO
37,1.8950,1.8950,0.0500,0.050,APPROACHING,0,987.52,902.17,931.36,96.99,27.00,-8.85,0.98752,0.90217,0.93136,1.69281,0.47127,-0.15440,0.00949,-0.09867,-0.05416,-42.07569,42.38099,43.70372,0.00000,0.00000,0.00000,0.00000,0.00000,0.00000,0.00000,0.00000,0.00000,0.00000,0.00000,0.00000,0.98752,0.90217,0.93136,-1.69281,-0.47127,0.15440,-0.00949,0.09867,0.05416,42.07569,-42.38099,-43.70372,0.0000,,,,0.0408,,,,,,"[1.000, 0.000, 1.000, 0.000, 0.000, 1.000]",0x101001,1.8950,3,4,-2.000000,2.000000,2.000000,0.0000,NO
38,1.9450,1.9450,0.0500,0.050,APPROACHING,0,987.98,897.17,928.64,-14.65,43.45,138.27,0.98798,0.89717,0.92864,-0.25578,0.75838,2.41325,0.01010,-0.10113,-0.05386,-43.26045,43.57461,44.89250,0.00000,0.00000,0.00000,0.00000,0.00000,0.00000,0.00000,0.00000,0.00000,0.00000,0.00000,0.00000,0.98798,0.89717,0.92864,0.25578,-0.75838,-2.41325,-0.01010,0.10113,0.05386,43.26045,-43.57461,-44.89250,0.0000,,,,0.0408,,,,,,"[0.000, 1.000, 0.000, 1.000, 1.000, 0.000]",0x010110,1.9450,3,6,-2.000000,2.000000,2.000000,0.0000,NO
39,1.9950,1.9950,0.0500,0.050,APPROACHING,0,988.53,892.08,925.89,58.19,-8.87,41.73,0.98853,0.89208,0.92589,1.01565,-0.15485,0.72827,0.01244,-0.10112,-0.05468,-44.44521,44.76825,46.08126,0.00000,0.00000,0.00000,0.00000,0.00000,0.00000,0.00000,0.00000,0.00000,0.00000,0.00000,0.00000,0.98853,0.89208,0.92589,-1.01565,0.15485,-0.72827,-0.01244,0.10112,0.05468,44.44521,-44.76825,-46.08126,0.0000,,,,0.0408,,,,,,"[1.000, 0.000, 1.000, 0.000, 1.000, 0.000]",0x101010,1.9950,3,4,-2.000000,2.000000,2.000000,0.0000,NO
40,2.0450,2.0450,0.0500,0.050,APPROACHING,0,989.18,887.00,923.10,100.82,67.04,-47.87,0.98918,0.88700,0.92310,1.75958,1.17002,-0.83549,0.01450,-0.10137,-0.05589,-45.62998,45.96188,47.27001,0.00000,0.00000,0.00000,0.00000,0.00000,0.00000,0.00000,0.00000,0.00000,0.00000,0.00000,0.00000,0.98918,0.88700,0.92310,-1.75958,-1.17002,0.83549,-0.01450,0.10137,0.05589,45.62998,-45.96188,-47.27001,0.0000,,,,0.0408,,,,,,"[0.000, 1.000, 1.000, 0.000, 0.000, 1.000]",0x011001,2.0450,3,4,-2.000000,2.000000,2.000000,0.0000,NO
41,2.0950,2.0950,0.0500,0.050,APPROACHING,0,989.92,881.90,920.24,-3.11,17.17,115.82,0.98992,0.88190,0.92024,-0.05421,0.29967,2.02150,0.01629,-0.10180,-0.05727,-46.81475,47.15553,48.45876,0.00000,0.00000,0.00000,0.00000,0.00000,0.00000,0.00000,0.00000,0.00000,0.00000,0.00000,0.00000,0.98992,0.88190,0.92024,0.05421,-0.29967,-2.02150,-0.01629,0.10180,0.05727,46.81475,-47.15553,-48.45876,0.0000,,,,0.0408,,,,,,"[0.000, 1.000, 0.000, 1.000, 1.000, 0.000]",0x010110,2.0950,3,4,-2.000000,2.000000,2.000000,0.0000,NO
42,2.1450,2.1450,0.0500,0.050,APPROACHING,0,990.75,876.79,917.31,72.55,-2.28,24.83,0.99075,0.87679,0.91731,1.26620,-0.03972,0.43337,0.01793,-0.10216,-0.05879,-47.99952,48.34918,49.64750,0.00000,0.00000,0.00000,0.00000,0.00000,0.00000,0.00000,0.00000,0.00000,0.00000,0.00000,0.00000,0.99075,0.87679,0.91731,-1.26620,0.03972,-0.43337,-0.01793,0.10216,0.05879,47.99952,-48.34918,-49.64750,0.0000,,,,0.0408,,,,,,"[1.000, 0.000, 1.000, 0.000, 0.215, 0.631]",0x101001,2.1450,4,6,-2.000000,2.000000,2.000000,0.0000,NO
43,2.1950,2.1950,0.0500,0.050,APPROACHING,0,991.67,871.64,914.34,98.28,69.97,-53.30,0.99167,0.87164,0.91434,1.71533,1.22119,-0.93027,0.01919,-0.10278,-0.05865,-49.18430,49.54283,50.83623,0.00000,0.00000,0.00000,0.00000,0.00000,0.00000,0.00000,0.00000,0.00000,0.00000,0.00000,0.00000,0.99167,0.87164,0.91434,-1.71533,-1.22119,0.93027,-0.01919,0.10278,0.05865,49.18430,-49.54283,-50.83623,0.0000,,,,0.0408,,,,,,"[0.000, 1.000, 1.000, 0.000, 0.000, 1.000]",0x011001,2.1950,3,4,-2.000000,2.000000,2.000000,0.0000,NO
44,2.2450,2.2450,0.0500,0.050,APPROACHING,0,992.64,866.47,911.35,-7.91,25.60,123.42,0.99264,0.86647,0.91135,-0.13805,0.44674,2.15416,0.02084,-0.10297,-0.05990,-50.36907,50.73650,52.02495,0.00000,0.00000,0.00000,0.00000,0.00000,0.00000,0.00000,0.00000,0.00000,0.00000,0.00000,0.00000,0.99264,0.86647,0.91135,0.13805,-0.44674,-2.15416,-0.02084,0.10297,0.05990,50.36907,-50.73650,-52.02495,0.0000,,,,0.0408,,,,,,"[0.000, 1.000, 0.000, 1.000, 1.000, 0.000]",0x010110,2.2450,3,4,-2.000000,2.000000,2.000000,0.0000,NO
45,2.2950,2.2950,0.0500,0.050,APPROACHING,0,993.71,861.30,908.30,51.91,-10.22,49.17,0.99371,0.86130,0.90830,0.90595,-0.17832,0.85821,0.02261,-0.10289,-0.06097,-51.55385,51.93016,53.21366,0.00000,0.00000,0.00000,0.00000,0.00000,0.00000,0.00000,0.00000,0.00000,0.00000,0.00000,0.00000,0.99371,0.86130,0.90830,-0.90595,0.17832,-0.85821,-0.02261,0.10289,0.06097,51.55385,-51.93016,-53.21366,0.0000,,,,0.0408,,,,,,"[1.000, 0.000, 1.000, 0.000, 1.000, 0.000]",0x101010,2.2950,3,4,-2.000000,2.000000,2.000000,0.0000,NO
46,2.3450,2.3450,0.0500,0.050,APPROACHING,0,994.88,856.14,905.20,100.86,35.73,-15.94,0.99488,0.85614,0.90520,1.76042,0.62362,-0.27812,0.02441,-0.10244,-0.06172,-52.73863,53.12384,54.40236,0.00000,0.00000,0.00000,0.00000,0.00000,0.00000,0.00000,0.00000,0.00000,0.00000,0.00000,0.00000,0.99488,0.85614,0.90520,-1.76042,-0.62362,0.27812,-0.02441,0.10244,0.06172,52.73863,-53.12384,-54.40236,0.0000,,,,0.0408,,,,,,"[1.000, 0.000, 1.000, 0.000, 0.000, 1.000]",0x101001,2.3450,3,2,-2.000000,2.000000,2.000000,0.0000,NO
47,2.3950,2.3950,0.0500,0.050,APPROACHING,0,996.09,850.95,902.10,-7.59,71.67,172.95,0.99609,0.85095,0.90210,-0.13243,1.25081,3.01852,0.02473,-0.10420,-0.06098,-53.92342,54.31752,55.59106,0.00000,0.00000,0.00000,0.00000,0.00000,0.00000,0.00000,0.00000,0.00000,0.00000,0.00000,0.00000,0.99609,0.85095,0.90210,0.13243,-1.25081,-3.01852,-0.02473,0.10420,0.06098,53.92342,-54.31752,-55.59106,0.0000,,,,0.0408,,,,,,"[0.000, 1.000, 0.000, 1.000, 0.000, 1.000]",0x010101,2.3950,3,4,-2.000000,2.000000,2.000000,0.0000,NO
48,2.4450,2.4450,0.0500,0.050,APPROACHING,0,997.33,845.68,899.05,-0.43,13.56,112.13,0.99733,0.84568,0.89905,-0.00755,0.23667,1.95700,0.02524,-0.10555,-0.05976,-55.10821,55.51121,56.77975,0.00000,0.00000,0.00000,0.00000,0.00000,0.00000,0.00000,0.00000,0.00000,0.00000,0.00000,0.00000,0.99733,0.84568,0.89905,0.00755,-0.23667,-1.95700,-0.02524,0.10555,0.05976,55.10821,-55.51121,-56.77975,0.0000,,,,0.0408,,,,,,"[1.000, 0.000, 0.000, 1.000, 1.000, 0.000]",0x100110,2.4450,3,4,-2.000000,2.000000,2.000000,0.0000,NO
49,2.4950,2.4950,0.0500,0.050,APPROACHING,0,998.62,840.35,896.08,49.07,-10.54,52.53,0.99862,0.84035,0.89608,0.85644,-0.18398,0.91675,0.02563,-0.10629,-0.05819,-56.29299,56.70490,57.96842,0.00000,0.00000,0.00000,0.00000,0.00000,0.00000,0.00000,0.00000,0.00000,0.00000,0.00000,0.00000,0.99862,0.84035,0.89608,-0.85644,0.18398,-0.91675,-0.02563,0.10629,0.05819,56.29299,-56.70490,-57.96842,0.0000,,,,0.0408,,,,,,"[1.000, 0.000, 1.000, 0.000, 1.000, 0.000]",0x101010,2.4950,3,2,-2.000000,2.000000,2.000000,0.0000,NO
50,2.5450,2.5450,0.0500,0.050,APPROACHING,0,999.94,835.02,893.13,92.08,17.77,-0.41,0.99994,0.83502,0.89313,1.60706,0.31009,-0.00707,0.02711,-0.10553,-0.05885,-57.47779,57.89860,59.15709,0.00000,0.00000,0.00000,0.00000,0.00000,0.00000,0.00000,0.00000,0.00000,0.00000,0.00000,0.00000,0.99994,0.83502,0.89313,-1.60706,-0.31009,0.00707,-0.02711,0.10553,0.05885,57.47779,-57.89860,-59.15709,0.0000,,,,0.0408,,,,,,"[1.000, 0.000, 1.000, 0.000, 0.000, 1.000]",0x101001,2.5450,3,2,-2.000000,2.000000,2.000000,0.0000,NO
51,2.5950,2.5950,0.0500,0.050,APPROACHING,0,1001.30,829.68,890.19,102.74,64.48,-43.63,1.00130,0.82968,0.89019,1.79321,1.12535,-0.76148,0.02740,-0.10669,-0.05761,-58.66258,59.09230,60.34575,0.00000,0.00000,0.00000,0.00000,0.00000,0.00000,0.00000,0.00000,0.00000,0.00000,0.00000,0.00000,1.00130,0.82968,0.89019,-1.79321,-1.12535,0.76148,-0.02740,0.10669,0.05761,58.66258,-59.09230,-60.34575,0.0000,,,,0.0408,,,,,,"[0.000, 1.000, 1.000, 0.000, 0.000, 1.000]",0x011001,2.5950,3,2,-2.000000,2.000000,2.000000,0.0000,NO
52,2.6450,2.6450,0.0500,0.050,APPROACHING,0,1002.70,824.33,887.26,-14.14,64.07,158.92,1.00270,0.82433,0.88726,-0.24673,1.11819,2.77359,0.02869,-0.10615,-0.05845,-59.84738,60.28601,61.53441,0.00000,0.00000,0.00000,0.00000,0.00000,0.00000,0.00000,0.00000,0.00000,0.00000,0.00000,0.00000,1.00270,0.82433,0.88726,0.24673,-1.11819,-2.77359,-0.02869,0.10615,0.05845,59.84738,-60.28601,-61.53441,0.0000,,,,0.0408,,,,,,"[0.000, 1.000, 0.000, 1.000, 0.000, 1.000]",0x010101,2.6450,3,2,-2.000000,2.000000,2.000000,0.0000,NO
53,2.6950,2.6950,0.0500,0.050,APPROACHING,0,1004.13,818.97,884.34,-7.36,24.81,122.65,1.00413,0.81897,0.88434,-0.12851,0.43298,2.14064,0.02880,-0.10732,-0.05728,-61.03218,61.47973,62.72305,0.00000,0.00000,0.00000,0.00000,0.00000,0.00000,0.00000,0.00000,0.00000,0.00000,0.00000,0.00000,1.00413,0.81897,0.88434,0.12851,-0.43298,-2.14064,-0.02880,0.10732,0.05728,61.03218,-61.47973,-62.72305,0.0000,,,,0.0408,,,,,,"[0.000, 1.000, 0.000, 1.000, 1.000, 0.000]",0x010110,2.6950,3,2,-2.000000,2.000000,2.000000,0.0000,NO
54,2.7450,2.7450,0.0500,0.050,APPROACHING,0,1005.60,813.59,881.43,16.32,-2.32,90.78,1.00560,0.81359,0.88143,0.28484,-0.04046,1.58443,0.02996,-0.10663,-0.05814,-62.21698,62.67345,63.91168,0.00000,0.00000,0.00000,0.00000,0.00000,0.00000,0.00000,0.00000,0.00000,0.00000,0.00000,0.00000,1.00560,0.81359,0.88143,-0.28484,0.04046,-1.58443,-0.02996,0.10663,0.05814,62.21698,-62.67345,-63.91168,0.0000,,,,0.0408,,,,,,"[1.000, 0.000, 0.000, 1.000, 1.000, 0.000]",0x100110,2.7450,3,2,-2.000000,2.000000,2.000000,0.0000,NO
55,2.7950,2.7950,0.0500,0.050,APPROACHING,0,1007.10,808.20,878.53,46.96,-10.66,55.06,1.00710,0.80820,0.87853,0.81960,-0.18604,0.96090,0.02996,-0.10756,-0.05694,-63.40178,63.86718,65.10031,0.00000,0.00000,0.00000,0.00000,0.00000,0.00000,0.00000,0.00000,0.00000,0.00000,0.00000,0.00000,1.00710,0.80820,0.87853,-0.81960,0.18604,-0.96090,-0.02996,0.10756,0.05694,63.40178,-63.86718,-65.10031,0.0000,,,,0.0408,,,,,,"[1.000, 0.000, 1.000, 0.000, 1.000, 0.000]",0x101010,2.7950,3,2,-2.000000,2.000000,2.000000,0.0000,NO
56,2.8450,2.8450,0.0500,0.050,APPROACHING,0,1008.64,802.82,875.64,73.19,-1.91,24.38,1.00864,0.80282,0.87564,1.27734,-0.03338,0.42546,0.03093,-0.10661,-0.05771,-64.58658,65.06092,66.28893,0.00000,0.00000,0.00000,0.00000,0.00000,0.00000,0.00000,0.00000,0.00000,0.00000,0.00000,0.00000,1.00864,0.80282,0.87564,-1.27734,0.03338,-0.42546,-0.03093,0.10661,0.05771,64.58658,-65.06092,-66.28893,0.0000,,,,0.0408,,,,,,"[1.000, 0.000, 1.000, 0.000, 1.000, 0.000]",0x101010,2.8450,3,0,-2.000000,2.000000,2.000000,0.0000,NO
57,2.8950,2.8950,0.0500,0.050,APPROACHING,0,1010.20,797.48,872.71,89.95,14.53,2.85,1.01020,0.79748,0.87271,1.56987,0.25356,0.04966,0.03187,-0.10587,-0.05867,-65.77139,66.25466,67.47754,0.00000,0.00000,0.00000,0.00000,0.00000,0.00000,0.00000,0.00000,0.00000,0.00000,0.00000,0.00000,1.01020,0.79748,0.87271,-1.56987,-0.25356,-0.04966,-0.03187,0.10587,0.05867,65.77139,-66.25466,-67.47754,0.0000,,,,0.0408,,,,,,"[1.000, 0.000, 1.000, 0.000, 0.000, 1.000]",0x101001,2.8950,3,2,-2.000000,2.000000,2.000000,0.0000,NO
58,2.9450,2.9450,0.0500,0.050,APPROACHING,0,1011.80,792.13,869.78,99.48,31.66,-12.49,1.01180,0.79213,0.86978,1.73634,0.55252,-0.21805,0.03161,-0.10675,-0.05749,-66.95620,67.44841,68.66614,0.00000,0.00000,0.00000,0.00000,0.00000,0.00000,0.00000,0.00000,0.00000,0.00000,0.00000,0.00000,1.01180,0.79213,0.86978,-1.73634,-0.55252,0.21805,-0.03161,0.10675,0.05749,66.95620,-67.44841,-68.66614,0.0000,,,,0.0408,,,,,,"[1.000, 0.000, 1.000, 0.000, 0.000, 1.000]",0x101001,2.9450,3,0,-2.000000,2.000000,2.000000,0.0000,NO
59,2.9950,2.9950,0.0500,0.050,APPROACHING,0,1013.37,786.74,866.91,104.02,46.30,-24.52,1.01337,0.78674,0.86691,1.81556,0.80809,-0.42792,0.03130,-0.10771,-0.05642,-68.14101,68.64217,69.85473,0.00000,0.00000,0.00000,0.00000,0.00000,0.00000,0.00000,0.00000,0.00000,0.00000,0.00000,0.00000,1.01337,0.78674,0.86691,-1.81556,-0.80809,0.42792,-0.03130,0.10771,0.05642,68.14101,-68.64217,-69.85473,0.0000,,,,0.0407,,,,,,"[0.000, 1.000, 1.000, 0.000, 0.000, 1.000]",0x011001,2.9950,3,2,-2.000000,2.000000,2.000000,0.0000,NO
60,3.0450,3.0450,0.0500,0.050,APPROACHING,0,1014.98,781.35,864.06,104.80,57.16,-34.63,1.01498,0.78135,0.86406,1.82910,0.99761,-0.60435,0.03198,-0.10682,-0.05728,-69.32582,69.83593,71.04331,0.00000,0.00000,0.00000,0.00000,0.00000,0.00000,0.00000,0.00000,0.00000,0.00000,0.00000,0.00000,1.01498,0.78135,0.86406,-1.82910,-0.99761,0.60435,-0.03198,0.10682,0.05728,69.32582,-69.83593,-71.04331,0.0000,,,,0.0407,,,,,,"[0.000, 1.000, 1.000, 0.000, 0.000, 1.000]",0x011001,3.0450,3,0,-2.000000,2.000000,2.000000,0.0000,NO
61,3.0950,3.0950,0.0500,0.050,APPROACHING,0,1016.60,776.01,861.15,103.28,63.79,-42.51,1.01660,0.77601,0.86115,1.80264,1.11330,-0.74197,0.03261,-0.10597,-0.05821,-70.51064,71.02970,72.23189,0.00000,0.00000,0.00000,0.00000,0.00000,0.00000,0.00000,0.00000,0.00000,0.00000,0.00000,0.00000,1.01660,0.77601,0.86115,-1.80264,-1.11330,0.74197,-0.03261,0.10597,0.05821,70.51064,-71.02970,-72.23189,0.0000,,,,0.0408,,,,,,"[0.000, 1.000, 1.000, 0.000, 0.000, 1.000]",0x011001,3.0950,3,0,-2.000000,2.000000,2.000000,0.0000,NO
62,3.1450,3.1450,0.0500,0.050,APPROACHING,0,1018.26,770.70,858.20,102.07,66.20,-46.04,1.01826,0.77070,0.85820,1.78145,1.15533,-0.80349,0.03318,-0.10513,-0.05918,-71.69545,72.22348,73.42045,0.00000,0.00000,0.00000,0.00000,0.00000,0.00000,0.00000,0.00000,0.00000,0.00000,0.00000,0.00000,1.01826,0.77070,0.85820,-1.78145,-1.15533,0.80349,-0.03318,0.10513,0.05918,71.69545,-72.22348,-73.42045,0.0000,,,,0.0408,,,,,,"[0.000, 1.000, 1.000, 0.000, 0.000, 1.000]",0x011001,3.1450,3,0,-2.000000,2.000000,2.000000,0.0000,NO
63,3.1950,3.1950,0.0500,0.050,APPROACHING,0,1019.94,765.44,855.20,103.01,64.49,-43.47,1.01994,0.76544,0.85520,1.79784,1.12561,-0.75877,0.03369,-0.10429,-0.06018,-72.88027,73.41726,74.60901,0.00000,0.00000,0.00000,0.00000,0.00000,0.00000,0.00000,0.00000,0.00000,0.00000,0.00000,0.00000,1.01994,0.76544,0.85520,-1.79784,-1.12561,0.75877,-0.03369,0.10429,0.06018,72.88027,-73.41726,-74.60901,0.0000,,,,0.0407,,,,,,"[0.000, 1.000, 1.000, 0.000, 0.000, 1.000]",0x011001,3.1950,3,0,-2.000000,2.000000,2.000000,0.0000,NO
64,3.2450,3.2450,0.0500,0.050,APPROACHING,0,1021.65,760.22,852.15,104.71,58.59,-36.13,1.02165,0.76022,0.85215,1.82751,1.02264,-0.63059,0.03415,-0.10345,-0.06122,-74.06509,74.61105,75.79756,0.00000,0.00000,0.00000,0.00000,0.00000,0.00000,0.00000,0.00000,0.00000,0.00000,0.00000,0.00000,1.02165,0.76022,0.85215,-1.82751,-1.02264,0.63059,-0.03415,0.10345,0.06122,74.06509,-74.61105,-75.79756,0.0000,,,,0.0408,,,,,,"[0.000, 1.000, 1.000, 0.000, 0.000, 1.000]",0x011001,3.2450,3,0,-2.000000,2.000000,2.000000,0.0000,NO
65,3.2950,3.2950,0.0500,0.050,APPROACHING,0,1023.38,755.04,849.05,104.47,48.44,-26.32,1.02338,0.75504,0.84905,1.82341,0.84545,-0.45931,0.03457,-0.10264,-0.06230,-75.24991,75.80485,76.98610,0.00000,0.00000,0.00000,0.00000,0.00000,0.00000,0.00000,0.00000,0.00000,0.00000,0.00000,0.00000,1.02338,0.75504,0.84905,-1.82341,-0.84545,0.45931,-0.03457,0.10264,0.06230,75.24991,-75.80485,-76.98610,0.0000,,,,0.0408,,,,,,"[0.000, 1.000, 1.000, 0.000, 0.000, 1.000]",0x011001,3.2950,3,0,-2.000000,2.000000,2.000000,0.0000,NO
66,3.3450,3.3450,0.0500,0.050,APPROACHING,0,1025.14,749.91,845.90,100.66,34.39,-14.67,1.02514,0.74991,0.84590,1.75688,0.60014,-0.25608,0.03499,-0.10189,-0.06344,-76.43474,76.99865,78.17464,0.00000,0.00000,0.00000,0.00000,0.00000,0.00000,0.00000,0.00000,0.00000,0.00000,0.00000,0.00000,1.02514,0.74991,0.84590,-1.75688,-0.60014,0.25608,-0.03499,0.10189,0.06344,76.43474,-76.99865,-78.17464,0.0000,,,,0.0408,,,,,,"[1.000, 0.000, 1.000, 0.000, 0.000, 1.000]",0x101001,3.3450,3,2,-2.000000,2.000000,2.000000,0.0000,NO
67,3.3950,3.3950,0.0500,0.050,APPROACHING,0,1026.88,744.77,842.73,92.10,17.54,-0.06,1.02688,0.74477,0.84273,1.60746,0.30606,-0.00103,0.03419,-0.10276,-0.06254,-77.61956,78.19246,79.36316,0.00000,0.00000,0.00000,0.00000,0.00000,0.00000,0.00000,0.00000,0.00000,0.00000,0.00000,0.00000,1.02688,0.74477,0.84273,-1.60746,-0.30606,0.00103,-0.03419,0.10276,0.06254,77.61956,-78.19246,-79.36316,0.0000,,,,0.0408,,,,,,"[1.000, 0.000, 1.000, 0.000, 0.000, 1.000]",0x101001,3.3950,3,0,-2.000000,2.000000,2.000000,0.0000,NO
68,3.4450,3.4450,0.0500,0.050,APPROACHING,0,1028.58,739.59,839.62,76.78,0.63,20.16,1.02858,0.73959,0.83962,1.34010,0.01103,0.35187,0.03342,-0.10375,-0.06175,-78.80439,79.38628,80.55168,0.00000,0.00000,0.00000,0.00000,0.00000,0.00000,0.00000,0.00000,0.00000,0.00000,0.00000,0.00000,1.02858,0.73959,0.83962,-1.34010,-0.01103,-0.35187,-0.03342,0.10375,0.06175,78.80439,-79.38628,-80.55168,0.0000,,,,0.0408,,,,,,"[1.000, 0.000, 1.000, 0.000, 0.000, 1.000]",0x101001,3.4450,3,0,-2.000000,2.000000,2.000000,0.0000,NO
69,3.4950,3.4950,0.0500,0.050,APPROACHING,0,1030.26,734.36,836.55,52.15,-10.09,49.24,1.03026,0.73436,0.83655,0.91016,-0.17613,0.85948,0.03280,-0.10490,-0.06100,-79.98922,80.58010,81.74018,0.00000,0.00000,0.00000,0.00000,0.00000,0.00000,0.00000,0.00000,0.00000,0.00000,0.00000,0.00000,1.03026,0.73436,0.83655,-0.91016,0.17613,-0.85948,-0.03280,0.10490,0.06100,79.98922,-80.58010,-81.74018,0.0000,,,,0.0408,,,,,,"[1.000, 0.000, 1.000, 0.000, 1.000, 0.000]",0x101010,3.4950,3,2,-2.000000,2.000000,2.000000,0.0000,NO
70,3.5450,3.5450,0.0500,0.050,APPROACHING,0,1031.93,729.12,833.47,21.44,-5.09,84.82,1.03193,0.72912,0.83347,0.37419,-0.08892,1.48040,0.03314,-0.10423,-0.06234,-81.17405,81.77393,82.92868,0.00000,0.00000,0.00000,0.00000,0.00000,0.00000,0.00000,0.00000,0.00000,0.00000,0.00000,0.00000,1.03193,0.72912,0.83347,-0.37419,0.08892,-1.48040,-0.03314,0.10423,0.06234,81.17405,-81.77393,-82.92868,0.0000,,,,0.0408,,,,,,"[1.000, 0.000, 0.000, 1.000, 1.000, 0.000]",0x100110,3.5450,3,2,-2.000000,2.000000,2.000000,0.0000,NO
71,3.5950,3.5950,0.0500,0.050,APPROACHING,0,1033.58,723.87,830.36,-3.97,19.19,117.48,1.03358,0.72387,0.83036,-0.06935,0.33486,2.05050,0.03229,-0.10526,-0.06168,-82.35888,82.96777,84.11717,0.00000,0.00000,0.00000,0.00000,0.00000,0.00000,0.00000,0.00000,0.00000,0.00000,0.00000,0.00000,1.03358,0.72387,0.83036,0.06935,-0.33486,-2.05050,-0.03229,0.10526,0.06168,82.35888,-82.96777,-84.11717,0.0000,,,,0.0408,,,,,,"[0.000, 1.000, 0.000, 1.000, 1.000, 0.000]",0x010110,3.5950,3,2,-2.000000,2.000000,2.000000,0.0000,NO
72,3.6450,3.6450,0.0500,0.050,APPROACHING,0,1035.21,718.61,827.24,-15.76,57.03,150.28,1.03521,0.71861,0.82724,-0.27498,0.99541,2.62282,0.03244,-0.10452,-0.06303,-83.54371,84.16161,85.30565,0.00000,0.00000,0.00000,0.00000,0.00000,0.00000,0.00000,0.00000,0.00000,0.00000,0.00000,0.00000,1.03521,0.71861,0.82724,0.27498,-0.99541,-2.62282,-0.03244,0.10452,0.06303,83.54371,-84.16161,-85.30565,0.0000,,,,0.0407,,,,,,"[0.000, 1.000, 0.000, 1.000, 0.000, 1.000]",0x010101,3.6450,3,2,-2.000000,2.000000,2.000000,0.0000,NO
73,3.6950,3.6950,0.0500,0.050,APPROACHING,0,1036.82,713.34,824.09,96.50,71.99,-57.33,1.03682,0.71334,0.82409,1.68418,1.25639,-1.00067,0.03145,-0.10555,-0.06235,-84.72854,85.35547,86.49413,0.00000,0.00000,0.00000,0.00000,0.00000,0.00000,0.00000,0.00000,0.00000,0.00000,0.00000,0.00000,1.03682,0.71334,0.82409,-1.68418,-1.25639,1.00067,-0.03145,0.10555,0.06235,84.72854,-85.35547,-86.49413,0.0000,,,,0.0407,,,,,,"[0.000, 1.000, 1.000, 0.000, 0.000, 1.000]",0x011001,3.6950,3,2,-2.000000,2.000000,2.000000,0.0000,NO
74,3.7450,3.7450,0.0500,0.050,APPROACHING,0,1038.41,708.06,820.93,96.71,25.37,-7.12,1.03841,0.70806,0.82093,1.68793,0.44283,-0.12433,0.03154,-0.10487,-0.06373,-85.91338,86.54932,87.68259,0.00000,0.00000,0.00000,0.00000,0.00000,0.00000,0.00000,0.00000,0.00000,0.00000,0.00000,0.00000,1.03841,0.70806,0.82093,-1.68793,-0.44283,0.12433,-0.03154,0.10487,0.06373,85.91338,-86.54932,-87.68259,0.0000,,,,0.0408,,,,,,"[1.000, 0.000, 1.000, 0.000, 0.000, 1.000]",0x101001,3.7450,3,2,-2.000000,2.000000,2.000000,0.0000,NO
75,3.7950,3.7950,0.0500,0.050,APPROACHING,0,1039.97,702.78,817.76,58.56,-8.69,41.88,1.03997,0.70278,0.81776,1.02208,-0.15169,0.73098,0.03059,-0.10602,-0.06316,-87.09821,87.74319,88.87105,0.00000,0.00000,0.00000,0.00000,0.00000,0.00000,0.00000,0.00000,0.00000,0.00000,0.00000,0.00000,1.03997,0.70278,0.81776,-1.02208,0.15169,-0.73098,-0.03059,0.10602,0.06316,87.09821,-87.74319,-88.87105,0.0000,,,,0.0408,,,,,,"[1.000, 0.000, 1.000, 0.000, 1.000, 0.000]",0x101010,3.7950,3,2,-2.000000,2.000000,2.000000,0.0000,NO
76,3.8450,3.8450,0.0500,0.050,APPROACHING,0,1041.52,697.48,814.56,6.37,6.04,103.33,1.04152,0.69748,0.81456,0.11115,0.10539,1.80345,0.03088,-0.10553,-0.06469,-88.28305,88.93706,90.05950,0.00000,0.00000,0.00000,0.00000,0.00000,0.00000,0.00000,0.00000,0.00000,0.00000,0.00000,0.00000,1.04152,0.69748,0.81456,-0.11115,-0.10539,-1.80345,-0.03088,0.10553,0.06469,88.28305,-88.93706,-90.05950,0.0000,,,,0.0408,,,,,,"[1.000, 0.000, 0.000, 1.000, 1.000, 0.000]",0x100110,3.8450,3,2,-2.000000,2.000000,2.000000,0.0000,NO
77,3.8950,3.8950,0.0500,0.050,APPROACHING,0,1043.07,692.16,811.34,-15.01,61.47,155.24,1.04307,0.69216,0.81134,-0.26204,1.07285,2.70952,0.03031,-0.10693,-0.06419,-89.46789,90.13094,91.24794,0.00000,0.00000,0.00000,0.00000,0.00000,0.00000,0.00000,0.00000,0.00000,0.00000,0.00000,0.00000,1.04307,0.69216,0.81134,0.26204,-1.07285,-2.70952,-0.03031,0.10693,0.06419,89.46789,-90.13094,-91.24794,0.0000,,,,0.0407,,,,,,"[0.000, 1.000, 0.000, 1.000, 0.000, 1.000]",0x010101,3.8950,3,4,-2.000000,2.000000,2.000000,0.0000,NO
78,3.9450,3.9450,0.0500,0.050,APPROACHING,0,1044.57,686.78,808.14,104.36,46.97,-24.97,1.04457,0.68678,0.80814,1.82147,0.81973,-0.43576,0.02935,-0.10817,-0.06369,-90.65273,91.32483,92.43637,0.00000,0.00000,0.00000,0.00000,0.00000,0.00000,0.00000,0.00000,0.00000,0.00000,0.00000,0.00000,1.04457,0.68678,0.80814,-1.82147,-0.81973,0.43576,-0.02935,0.10817,0.06369,90.65273,-91.32483,-92.43637,0.0000,,,,0.0408,,,,,,"[0.009, 0.838, 1.000, 0.000, 0.000, 1.000]",0x011001,3.9450,3,3,-2.000000,2.000000,2.000000,0.0000,NO
79,3.9950,3.9950,0.0500,0.050,APPROACHING,0,1046.06,681.37,804.93,64.04,-6.79,35.53,1.04606,0.68137,0.80493,1.11764,-0.11858,0.62010,0.02986,-0.10791,-0.06520,-91.83757,92.51873,93.62479,0.00000,0.00000,0.00000,0.00000,0.00000,0.00000,0.00000,0.00000,0.00000,0.00000,0.00000,0.00000,1.04606,0.68137,0.80493,-1.11764,0.11858,-0.62010,-0.02986,0.10791,0.06520,91.83757,-92.51873,-93.62479,0.0000,,,,0.0408,,,,,,"[1.000, 0.000, 1.000, 0.000, 1.000, 0.000]",0x101010,3.9950,3,4,-2.000000,2.000000,2.000000,0.0000,NO
80,4.0450,4.0450,0.0500,0.050,APPROACHING,0,1047.57,675.98,801.63,-0.82,14.59,112.97,1.04757,0.67598,0.80163,-0.01437,0.25463,1.97178,0.03013,-0.10751,-0.06680,-93.02241,93.71263,94.81321,0.00000,0.00000,0.00000,0.00000,0.00000,0.00000,0.00000,0.00000,0.00000,0.00000,0.00000,0.00000,1.04757,0.67598,0.80163,0.01437,-0.25463,-1.97178,-0.03013,0.10751,0.06680,93.02241,-93.71263,-94.81321,0.0000,,,,0.0407,,,,,,"[0.000, 1.000, 0.000, 1.000, 1.000, 0.000]",0x010110,4.0450,3,4,-2.000000,2.000000,2.000000,0.0000,NO
81,4.0950,4.0950,0.0500,0.050,APPROACHING,0,1049.09,670.61,798.24,60.86,79.99,-103.37,1.04909,0.67061,0.79824,1.06221,1.39600,-1.80417,0.03021,-0.10701,-0.06839,-94.20725,94.90654,96.00162,0.00000,0.00000,0.00000,0.00000,0.00000,0.00000,0.00000,0.00000,0.00000,0.00000,0.00000,0.00000,1.04909,0.67061,0.79824,-1.06221,-1.39600,1.80417,-0.03021,0.10701,0.06839,94.20725,-94.90654,-96.00162,0.0000,,,,0.0408,,,,,,"[0.000, 1.000, 0.000, 1.000, 0.000, 1.000]",0x010101,4.0950,3,2,-2.000000,2.000000,2.000000,0.0000,NO
82,4.1450,4.1450,0.0500,0.050,APPROACHING,0,1050.59,665.22,794.84,83.89,7.02,11.35,1.05059,0.66522,0.79484,1.46420,0.12254,0.19805,0.02984,-0.10857,-0.06784,-95.39210,96.10045,97.19001,0.00000,0.00000,0.00000,0.00000,0.00000,0.00000,0.00000,0.00000,0.00000,0.00000,0.00000,0.00000,1.05059,0.66522,0.79484,-1.46420,-0.12254,-0.19805,-0.02984,0.10857,0.06784,95.39210,-96.10045,-97.19001,0.0000,,,,0.0407,,,,,,"[1.000, 0.000, 1.000, 0.000, 0.000, 1.000]",0x101001,4.1450,3,4,-2.000000,2.000000,2.000000,0.0000,NO
83,4.1950,4.1950,0.0500,0.050,APPROACHING,0,1052.08,659.75,791.46,6.81,5.66,102.81,1.05208,0.65975,0.79146,0.11880,0.09872,1.79435,0.02945,-0.11014,-0.06734,-96.57694,97.29438,98.37840,0.00000,0.00000,0.00000,0.00000,0.00000,0.00000,0.00000,0.00000,0.00000,0.00000,0.00000,0.00000,1.05208,0.65975,0.79146,-0.11880,-0.09872,-1.79435,-0.02945,0.11014,0.06734,96.57694,-97.29438,-98.37840,0.0000,,,,0.0407,,,,,,"[1.000, 0.000, 0.000, 1.000, 1.000, 0.000]",0x100110,4.1950,3,4,-2.000000,2.000000,2.000000,0.0000,NO
84,4.2450,4.2450,0.0500,0.050,APPROACHING,0,1053.55,654.20,788.11,65.89,79.64,-97.50,1.05355,0.65420,0.78811,1.15004,1.39001,-1.70170,0.02912,-0.11170,-0.06685,-97.76179,98.48831,99.56679,0.00000,0.00000,0.00000,0.00000,0.00000,0.00000,0.00000,0.00000,0.00000,0.00000,0.00000,0.00000,1.05355,0.65420,0.78811,-1.15004,-1.39001,1.70170,-0.02912,0.11170,0.06685,97.76179,-98.48831,-99.56679,0.0000,,,,0.0407,,,,,,"[0.000, 1.000, 0.000, 1.000, 0.000, 1.000]",0x010101,4.2450,3,4,-2.000000,2.000000,2.000000,0.0000,NO
85,4.2950,4.2950,0.0500,0.050,APPROACHING,0,1055.01,648.58,784.79,73.55,-1.73,24.27,1.05501,0.64858,0.78479,1.28365,-0.03022,0.42353,0.02889,-0.11329,-0.06625,-98.94663,99.68225,100.75516,0.00000,0.00000,0.00000,0.00000,0.00000,0.00000,0.00000,0.00000,0.00000,0.00000,0.00000,0.00000,1.05501,0.64858,0.78479,-1.28365,0.03022,-0.42353,-0.02889,0.11329,0.06625,98.94663,-99.68225,-100.75516,0.0000,,,,0.0408,,,,,,"[1.000, 0.000, 1.000, 0.000, 1.000, 0.000]",0x101010,4.2950,3,6,-2.000000,2.000000,2.000000,0.0000,NO
86,4.3450,4.3450,0.0500,0.050,APPROACHING,0,1056.46,642.92,781.43,-8.34,27.28,124.59,1.05646,0.64292,0.78143,-0.14560,0.47608,2.17449,0.02914,-0.11296,-0.06793,-100.13148,100.87619,101.94353,0.00000,0.00000,0.00000,0.00000,0.00000,0.00000,0.00000,0.00000,0.00000,0.00000,0.00000,0.00000,1.05646,0.64292,0.78143,0.14560,-0.47608,-2.17449,-0.02914,0.11296,0.06793,100.13148,-100.87619,-101.94353,0.0000,,,,0.0408,,,,,,"[0.000, 1.000, 0.000, 1.000, 1.000, 0.000]",0x010110,4.3450,3,4,-2.000000,2.000000,2.000000,0.0000,NO
87,4.3950,4.3950,0.0500,0.050,APPROACHING,0,1057.94,637.28,778.00,103.85,44.16,-22.56,1.05794,0.63728,0.77800,1.81244,0.77065,-0.39369,0.02967,-0.11277,-0.06954,-101.31633,102.07015,103.13188,0.00000,0.00000,0.00000,0.00000,0.00000,0.00000,0.00000,0.00000,0.00000,0.00000,0.00000,0.00000,1.05794,0.63728,0.77800,-1.81244,-0.77065,0.39369,-0.02967,0.11277,0.06954,101.31633,-102.07015,-103.13188,0.0000,,,,0.0408,,,,,,"[1.000, 0.000, 1.000, 0.000, 0.000, 1.000]",0x101001,4.3950,3,6,-2.000000,2.000000,2.000000,0.0000,NO
88,4.4450,4.4450,0.0500,0.050,APPROACHING,0,1059.39,631.61,774.53,23.94,-6.18,81.98,1.05939,0.63161,0.77453,0.41783,-0.10785,1.43087,0.02864,-0.11408,-0.06917,-102.50117,103.26411,104.32023,0.00000,0.00000,0.00000,0.00000,0.00000,0.00000,0.00000,0.00000,0.00000,0.00000,0.00000,0.00000,1.05939,0.63161,0.77453,-0.41783,0.10785,-1.43087,-0.02864,0.11408,0.06917,102.50117,-103.26411,-104.32023,0.0000,,,,0.0408,,,,,,"[1.000, 0.000, 0.000, 1.000, 1.000, 0.000]",0x100110,4.4450,3,4,-2.000000,2.000000,2.000000,0.0000,NO
89,4.4950,4.4950,0.0500,0.050,APPROACHING,0,1060.81,625.86,771.08,66.72,79.59,-96.55,1.06081,0.62586,0.77108,1.16457,1.38904,-1.68517,0.02808,-0.11563,-0.06878,-103.68602,104.45808,105.50857,0.00000,0.00000,0.00000,0.00000,0.00000,0.00000,0.00000,0.00000,0.00000,0.00000,0.00000,0.00000,1.06081,0.62586,0.77108,-1.16457,-1.38904,1.68517,-0.02808,0.11563,0.06878,103.68602,-104.45808,-105.50857,0.0000,,,,0.0408,,,,,,"[0.000, 1.000, 0.856, 0.000, 0.000, 1.000]",0x011001,4.4950,3,6,-2.000000,2.000000,2.000000,0.0000,NO
90,4.5450,4.5450,0.0500,0.050,APPROACHING,0,1062.22,620.09,767.60,53.96,-9.75,47.31,1.06222,0.62009,0.76760,0.94171,-0.17020,0.82579,0.02828,-0.11532,-0.07043,-104.87087,105.65205,106.69690,0.00000,0.00000,0.00000,0.00000,0.00000,0.00000,0.00000,0.00000,0.00000,0.00000,0.00000,0.00000,1.06222,0.62009,0.76760,-0.94171,0.17020,-0.82579,-0.02828,0.11532,0.07043,104.87087,-105.65205,-106.69690,0.0000,,,,0.0408,,,,,,"[1.000, 0.000, 1.000, 0.000, 1.000, 0.000]",0x101010,4.5450,3,5,-2.000000,2.000000,2.000000,0.0000,NO
91,4.5950,4.5950,0.0500,0.050,APPROACHING,0,1063.65,614.33,764.04,-11.31,68.54,165.63,1.06365,0.61433,0.76404,-0.19738,1.19618,2.89070,0.02914,-0.11516,-0.07192,-106.05572,106.84604,107.88523,0.00000,0.00000,0.00000,0.00000,0.00000,0.00000,0.00000,0.00000,0.00000,0.00000,0.00000,0.00000,1.06365,0.61433,0.76404,0.19738,-1.19618,-2.89070,-0.02914,0.11516,0.07192,106.05572,-106.84604,-107.88523,0.0000,,,,0.0408,,,,,,"[0.000, 1.000, 0.000, 1.000, 0.000, 1.000]",0x010101,4.5950,3,6,-2.000000,2.000000,2.000000,0.0000,NO
92,4.6450,4.6450,0.0500,0.050,APPROACHING,0,1065.10,608.53,760.46,66.81,-5.57,32.36,1.06510,0.60853,0.76046,1.16605,-0.09715,0.56470,0.02875,-0.11676,-0.07142,-107.24057,108.04003,109.07354,0.00000,0.00000,0.00000,0.00000,0.00000,0.00000,0.00000,0.00000,0.00000,0.00000,0.00000,0.00000,1.06510,0.60853,0.76046,-1.16605,0.09715,-0.56470,-0.02875,0.11676,0.07142,107.24057,-108.04003,-109.07354,0.0000,,,,0.0408,,,,,,"[1.000, 0.000, 1.000, 0.000, 1.000, 0.000]",0x101010,4.6450,3,6,-2.000000,2.000000,2.000000,0.0000,NO
93,4.6950,4.6950,0.0500,0.050,APPROACHING,0,1066.55,602.70,756.84,-14.27,63.68,157.99,1.06655,0.60270,0.75684,-0.24902,1.11141,2.75746,0.02942,-0.11658,-0.07300,-108.42542,109.23403,110.26185,0.00000,0.00000,0.00000,0.00000,0.00000,0.00000,0.00000,0.00000,0.00000,0.00000,0.00000,0.00000,1.06655,0.60270,0.75684,0.24902,-1.11141,-2.75746,-0.02942,0.11658,0.07300,108.42542,-109.23403,-110.26185,0.0000,,,,0.0408,,,,,,"[0.000, 1.000, 0.000, 1.000, 0.000, 1.000]",0x010101,4.6950,3,6,-2.000000,2.000000,2.000000,0.0000,NO
94,4.7450,4.7450,0.0500,0.050,APPROACHING,0,1068.00,596.83,753.20,63.67,-6.94,36.05,1.06800,0.59683,0.75320,1.11132,-0.12108,0.62923,0.02900,-0.11817,-0.07250,-109.61027,110.42804,111.45015,0.00000,0.00000,0.00000,0.00000,0.00000,0.00000,0.00000,0.00000,0.00000,0.00000,0.00000,0.00000,1.06800,0.59683,0.75320,-1.11132,0.12108,-0.62923,-0.02900,0.11817,0.07250,109.61027,-110.42804,-111.45015,0.0000,,,,0.0408,,,,,,"[1.000, 0.000, 1.000, 0.000, 1.000, 0.000]",0x101010,4.7450,3,6,-2.000000,2.000000,2.000000,0.0000,NO
95,4.7950,4.7950,0.0500,0.050,APPROACHING,0,1069.47,590.92,749.54,-1.99,74.72,-178.83,1.06947,0.59092,0.74954,-0.03481,1.30419,-3.12111,0.02980,-0.11798,-0.07400,-110.79512,111.62205,112.63844,0.00000,0.00000,0.00000,0.00000,0.00000,0.00000,0.00000,0.00000,0.00000,0.00000,0.00000,0.00000,1.06947,0.59092,0.74954,0.03481,-1.30419,3.12111,-0.02980,0.11798,0.07400,110.79512,-111.62205,-112.63844,0.0000,,,,0.0408,,,,,,"[0.000, 1.000, 0.000, 1.000, 0.000, 1.000]",0x010101,4.7950,3,6,-2.000000,2.000000,2.000000,0.0000,NO
96,4.8450,4.8450,0.0500,0.050,APPROACHING,0,1070.95,584.98,745.85,43.62,-10.57,59.23,1.07095,0.58498,0.74585,0.76133,-0.18457,1.03380,0.02966,-0.11954,-0.07332,-111.97997,112.81608,113.82673,0.00000,0.00000,0.00000,0.00000,0.00000,0.00000,0.00000,0.00000,0.00000,0.00000,0.00000,0.00000,1.07095,0.58498,0.74585,-0.76133,0.18457,-1.03380,-0.02966,0.11954,0.07332,111.97997,-112.81608,-113.82673,0.0000,,,,0.0408,,,,,,"[1.000, 0.000, 0.000, 1.000, 1.000, 0.000]",0x100110,4.8450,3,4,-2.000000,2.000000,2.000000,0.0000,NO
97,4.8950,4.8950,0.0500,0.050,APPROACHING,0,1072.41,578.97,742.19,100.45,68.93,-50.45,1.07241,0.57897,0.74219,1.75325,1.20312,-0.88043,0.02901,-0.12100,-0.07291,-113.16483,114.01011,115.01500,0.00000,0.00000,0.00000,0.00000,0.00000,0.00000,0.00000,0.00000,0.00000,0.00000,0.00000,0.00000,1.07241,0.57897,0.74219,-1.75325,-1.20312,0.88043,-0.02901,0.12100,0.07291,113.16483,-114.01011,-115.01500,0.0000,,,,0.0407,,,,,,"[0.000, 1.000, 1.000, 0.000, 0.000, 1.000]",0x011001,4.8950,3,6,-2.000000,2.000000,2.000000,0.0000,NO
98,4.9450,4.9450,0.0500,0.050,APPROACHING,0,1073.87,572.93,738.51,9.67,3.07,99.25,1.07387,0.57293,0.73851,0.16881,0.05363,1.73227,0.02977,-0.12080,-0.07436,-114.34968,115.20415,116.20327,0.00000,0.00000,0.00000,0.00000,0.00000,0.00000,0.00000,0.00000,0.00000,0.00000,0.00000,0.00000,1.07387,0.57293,0.73851,-0.16881,-0.05363,-1.73227,-0.02977,0.12080,0.07436,114.34968,-115.20415,-116.20327,0.0000,,,,0.0408,,,,,,"[1.000, 0.000, 0.000, 1.000, 1.000, 0.000]",0x100110,4.9450,3,6,-2.000000,2.000000,2.000000,0.0000,NO
99,4.9950,4.9950,0.0500,0.050,APPROACHING,0,1075.35,566.85,734.80,96.49,24.70,-6.46,1.07535,0.56685,0.73480,1.68414,0.43112,-0.11276,0.02980,-0.12222,-0.07354,-115.53453,116.39819,117.39153,0.00000,0.00000,0.00000,0.00000,0.00000,0.00000,0.00000,0.00000,0.00000,0.00000,0.00000,0.00000,1.07535,0.56685,0.73480,-1.68414,-0.43112,0.11276,-0.02980,0.12222,0.07354,115.53453,-116.39819,-117.39153,0.0000,,,,0.0408,,,,,,"[1.000, 0.000, 1.000, 0.000, 0.000, 1.000]",0x101001,4.9950,3,4,-2.000000,2.000000,2.000000,0.0000,NO
100,5.0450,5.0450,0.0500,0.050,APPROACHING,0,1076.83,560.70,731.14,-15.50,50.38,143.75,1.07683,0.56070,0.73114,-0.27061,0.87937,2.50898,0.02957,-0.12372,-0.07289,-116.71938,117.59225,118.57978,0.00000,0.00000,0.00000,0.00000,0.00000,0.00000,0.00000,0.00000,0.00000,0.00000,0.00000,0.00000,1.07683,0.56070,0.73114,0.27061,-0.87937,-2.50898,-0.02957,0.12372,0.07289,116.71938,-117.59225,-118.57978,0.0000,,,,0.0408,,,,,,"[0.000, 1.000, 0.000, 1.000, 0.000, 1.000]",0x010101,5.0450,3,4,-2.000000,2.000000,2.000000,0.0000,NO
101,5.0950,5.0950,0.0500,0.050,APPROACHING,0,1078.28,554.48,727.50,47.84,-10.49,54.41,1.07828,0.55448,0.72750,0.83498,-0.18300,0.94959,0.02913,-0.12520,-0.07232,-117.90423,118.78631,119.76802,0.00000,0.00000,0.00000,0.00000,0.00000,0.00000,0.00000,0.00000,0.00000,0.00000,0.00000,0.00000,1.07828,0.55448,0.72750,-0.83498,0.18300,-0.94959,-0.02913,0.12520,0.07232,117.90423,-118.78631,-119.76802,0.0000,,,,0.0408,,,,,,"[1.000, 0.000, 0.000, 1.000, 1.000, 0.000]",0x100110,5.0950,3,4,-2.000000,2.000000,2.000000,0.0000,NO
102,5.1450,5.1450,0.0500,0.050,APPROACHING,0,1079.72,548.19,723.89,105.21,52.23,-29.54,1.07972,0.54819,0.72389,1.83624,0.91151,-0.51558,0.02858,-0.12662,-0.07182,-119.08908,119.98038,120.95626,0.00000,0.00000,0.00000,0.00000,0.00000,0.00000,0.00000,0.00000,0.00000,0.00000,0.00000,0.00000,1.07972,0.54819,0.72389,-1.83624,-0.91151,0.51558,-0.02858,0.12662,0.07182,119.08908,-119.98038,-120.95626,0.0000,,,,0.0408,,,,,,"[1.000, 0.000, 1.000, 0.000, 0.000, 1.000]",0x101001,5.1450,3,4,-2.000000,2.000000,2.000000,0.0000,NO
103,5.1950,5.1950,0.0500,0.050,APPROACHING,0,1081.12,541.82,720.31,-11.49,34.74,130.71,1.08112,0.54182,0.72031,-0.20059,0.60632,2.28127,0.02796,-0.12801,-0.07130,-120.27393,121.17446,122.14448,0.00000,0.00000,0.00000,0.00000,0.00000,0.00000,0.00000,0.00000,0.00000,0.00000,0.00000,0.00000,1.08112,0.54182,0.72031,0.20059,-0.60632,-2.28127,-0.02796,0.12801,0.07130,120.27393,-121.17446,-122.14448,0.0000,,,,0.0408,,,,,,"[0.000, 1.000, 0.000, 1.000, 1.000, 0.000]",0x010110,5.1950,3,6,-2.000000,2.000000,2.000000,0.0000,NO
104,5.2450,5.2450,0.0500,0.050,APPROACHING,0,1082.53,535.43,716.71,51.23,-10.16,50.53,1.08253,0.53543,0.71671,0.89407,-0.17736,0.88187,0.02902,-0.12758,-0.07241,-121.45879,122.36855,123.33270,0.00000,0.00000,0.00000,0.00000,0.00000,0.00000,0.00000,0.00000,0.00000,0.00000,0.00000,0.00000,1.08253,0.53543,0.71671,-0.89407,0.17736,-0.88187,-0.02902,0.12758,0.07241,121.45879,-122.36855,-123.33270,0.0000,,,,0.0408,,,,,,"[1.000, 0.000, 0.000, 1.000, 1.000, 0.000]",0x100110,5.2450,3,2,-2.000000,2.000000,2.000000,0.0000,NO
105,5.2950,5.2950,0.0500,0.050,APPROACHING,0,1083.96,529.02,713.10,103.66,43.00,-21.55,1.08396,0.52902,0.71310,1.80926,0.75053,-0.37606,0.02851,-0.12895,-0.07183,-122.64364,123.56264,124.52091,0.00000,0.00000,0.00000,0.00000,0.00000,0.00000,0.00000,0.00000,0.00000,0.00000,0.00000,0.00000,1.08396,0.52902,0.71310,-1.80926,-0.75053,0.37606,-0.02851,0.12895,0.07183,122.64364,-123.56264,-124.52091,0.0000,,,,0.0408,,,,,,"[1.000, 0.000, 1.000, 0.000, 0.000, 1.000]",0x101001,5.2950,3,4,-2.000000,2.000000,2.000000,0.0000,NO
106,5.3450,5.3450,0.0500,0.050,APPROACHING,0,1085.36,522.54,709.52,-15.73,56.34,149.40,1.08536,0.52254,0.70952,-0.27457,0.98339,2.60760,0.02811,-0.13032,-0.07118,-123.82849,124.75675,125.70912,0.00000,0.00000,0.00000,0.00000,0.00000,0.00000,0.00000,0.00000,0.00000,0.00000,0.00000,0.00000,1.08536,0.52254,0.70952,0.27457,-0.98339,-2.60760,-0.02811,0.13032,0.07118,123.82849,-124.75675,-125.70912,0.0000,,,,0.0408,,,,,,"[0.000, 1.000, 0.000, 1.000, 0.000, 1.000]",0x010101,5.3450,3,4,-2.000000,2.000000,2.000000,0.0000,NO
107,5.3950,5.3950,0.0500,0.050,APPROACHING,0,1086.75,515.98,705.97,17.75,-2.85,89.41,1.08675,0.51598,0.70597,0.30976,-0.04982,1.56051,0.02786,-0.13166,-0.07038,-125.01334,125.95086,126.89731,0.00000,0.00000,0.00000,0.00000,0.00000,0.00000,0.00000,0.00000,0.00000,0.00000,0.00000,0.00000,1.08675,0.51598,0.70597,-0.30976,0.04982,-1.56051,-0.02786,0.13166,0.07038,125.01334,-125.95086,-126.89731,0.0000,,,,0.0409,,,,,,"[1.000, 0.000, 0.000, 1.000, 1.000, 0.000]",0x100110,5.3950,3,4,-2.000000,2.000000,2.000000,0.0000,NO
108,5.4450,5.4450,0.0500,0.050,APPROACHING,0,1088.13,509.36,702.46,79.34,2.63,17.30,1.08813,0.50936,0.70246,1.38473,0.04583,0.30200,0.02777,-0.13287,-0.06944,-126.19819,127.14498,128.08550,0.00000,0.00000,0.00000,0.00000,0.00000,0.00000,0.00000,0.00000,0.00000,0.00000,0.00000,0.00000,1.08813,0.50936,0.70246,-1.38473,-0.04583,-0.30200,-0.02777,0.13287,0.06944,126.19819,-127.14498,-128.08550,0.0000,,,,0.0408,,,,,,"[1.000, 0.000, 1.000, 0.000, 1.000, 0.000]",0x101010,5.4450,3,2,-2.000000,2.000000,2.000000,0.0000,NO
109,5.4950,5.4950,0.0500,0.050,APPROACHING,0,1089.53,502.73,698.95,105.26,57.23,-34.43,1.08953,0.50273,0.69895,1.83709,0.99887,-0.60088,0.02856,-0.13240,-0.07070,-127.38304,128.33911,129.27368,0.00000,0.00000,0.00000,0.00000,0.00000,0.00000,0.00000,0.00000,0.00000,0.00000,0.00000,0.00000,1.08953,0.50273,0.69895,-1.83709,-0.99887,0.60088,-0.02856,0.13240,0.07070,127.38304,-128.33911,-129.27368,0.0000,,,,0.0408,,,,,,"[0.000, 1.000, 1.000, 0.000, 0.000, 1.000]",0x011001,5.4950,3,4,-2.000000,2.000000,2.000000,0.0000,NO
110,5.5450,5.5450,0.0500,0.050,APPROACHING,0,1090.97,496.11,695.38,-15.49,58.89,152.09,1.09097,0.49611,0.69538,-0.27042,1.02780,2.65446,0.02952,-0.13181,-0.07170,-128.56789,129.53325,130.46185,0.00000,0.00000,0.00000,0.00000,0.00000,0.00000,0.00000,0.00000,0.00000,0.00000,0.00000,0.00000,1.09097,0.49611,0.69538,0.27042,-1.02780,-2.65446,-0.02952,0.13181,0.07170,128.56789,-129.53325,-130.46185,0.0000,,,,0.0408,,,,,,"[0.000, 1.000, 0.000, 1.000, 0.000, 1.000]",0x010101,5.5450,3,2,-2.000000,2.000000,2.000000,0.0000,NO
111,5.5950,5.5950,0.0500,0.050,APPROACHING,0,1092.43,489.49,691.81,3.12,9.78,107.72,1.09243,0.48949,0.69181,0.05442,0.17076,1.88015,0.02928,-0.13301,-0.07078,-129.75274,130.72739,131.65001,0.00000,0.00000,0.00000,0.00000,0.00000,0.00000,0.00000,0.00000,0.00000,0.00000,0.00000,0.00000,1.09243,0.48949,0.69181,-0.05442,-0.17076,-1.88015,-0.02928,0.13301,0.07078,129.75274,-130.72739,-131.65001,0.0000,,,,0.0408,,,,,,"[0.000, 1.000, 0.000, 1.000, 1.000, 0.000]",0x010110,5.5950,3,2,-2.000000,2.000000,2.000000,0.0000,NO
112,5.6450,5.6450,0.0500,0.050,APPROACHING,0,1093.90,482.84,688.23,46.10,-10.55,56.45,1.09390,0.48284,0.68823,0.80454,-0.18405,0.98532,0.03006,-0.13247,-0.07194,-130.93758,131.92154,132.83817,0.00000,0.00000,0.00000,0.00000,0.00000,0.00000,0.00000,0.00000,0.00000,0.00000,0.00000,0.00000,1.09390,0.48284,0.68823,-0.80454,0.18405,-0.98532,-0.03006,0.13247,0.07194,130.93758,-131.92154,-132.83817,0.0000,,,,0.0409,,,,,,"[1.000, 0.000, 0.000, 1.000, 1.000, 0.000]",0x100110,5.6450,3,2,-2.000000,2.000000,2.000000,0.0000,NO
113,5.6950,5.6950,0.0500,0.050,APPROACHING,0,1095.38,476.19,684.64,85.38,8.53,9.62,1.09538,0.47619,0.68464,1.49018,0.14886,0.16787,0.02970,-0.13363,-0.07111,-132.12243,133.11571,134.02631,0.00000,0.00000,0.00000,0.00000,0.00000,0.00000,0.00000,0.00000,0.00000,0.00000,0.00000,0.00000,1.09538,0.47619,0.68464,-1.49018,-0.14886,-0.16787,-0.02970,0.13363,0.07111,132.12243,-133.11571,-134.02631,0.0000,,,,0.0408,,,,,,"[1.000, 0.000, 1.000, 0.000, 0.579, 0.265]",0x101010,5.6950,4,4,-2.000000,2.000000,2.000000,0.0000,NO
