Time,Current_X,Current_Y,Current_Z,Current_Roll,Current_Pitch,Current_Yaw,Current_VX,Current_VY,Current_VZ,Current_WX,Current_WY,Current_WZ,Target_X,Target_Y,Target_Z,Target_Roll,Target_Pitch,Target_Yaw,Error_X,Error_Y,Error_Z,Error_Roll,Error_Pitch,Error_Yaw,Command_Vector,Thruster_1_Cmd,Thruster_1_Val,Thruster_2_Cmd,Thruster_2_Val,Thruster_3_Cmd,Thruster_3_Val,Thruster_4_Cmd,Thruster_4_Val,Thruster_5_Cmd,Thruster_5_Val,Thruster_6_Cmd,Thruster_6_Val
0.0050,1.00000,1.00000,0.00000,0.00000,0.00000,0.00000,0.00000,0.00000,0.00000,0.00000,0.00000,0.00000,0.00000,0.00000,0.00000,0.00000,0.00000,0.00000,-1.00000,-1.00000,0.00000,0.00000,0.00000,0.00000,"[0.000, 0.000, 0.000, 0.000, 0.000, 0.000]",0.000,0.000,0.000,0.000,0.000,0.000,0.000,0.000,0.000,0.000,0.000,0.000
0.0100,1.00000,1.00000,0.00000,0.00000,0.00000,0.00000,0.00000,0.00000,0.00000,0.00000,0.00000,0.00000,0.00000,0.00000,0.00000,0.00000,0.00000,0.00000,-1.00000,-1.00000,0.00000,0.00000,0.00000,0.00000,"[0.000, 0.000, 0.000, 0.000, 0.000, 0.000]",0.000,0.000,0.000,0.000,0.000,0.000,0.000,0.000,0.000,0.000,0.000,0.000
0.0150,1.00000,1.00000,0.00000,0.00000,0.00000,0.00000,0.00000,0.00000,0.00000,0.00000,0.00000,0.00000,0.00000,0.00000,0.00000,0.00000,0.00000,0.00000,-1.00000,-1.00000,0.00000,0.00000,0.00000,0.00000,"[0.000, 0.000, 0.000, 0.000, 0.000, 0.000]",0.000,0.000,0.000,0.000,0.000,0.000,0.000,0.000,0.000,0.000,0.000,0.000
0.0200,1.00000,1.00000,0.00000,0.00000,0.00000,0.00000,0.00000,0.00000,0.00000,0.00000,0.00000,0.00000,0.00000,0.00000,0.00000,0.00000,0.00000,0.00000,-1.00000,-1.00000,0.00000,0.00000,0.00000,0.00000,"[0.000, 0.000, 0.000, 0.000, 0.000, 0.000]",0.000,0.000,0.000,0.000,0.000,0.000,0.000,0.000,0.000,0.000,0.000,0.000
0.0250,1.00000,1.00000,0.00000,0.00000,0.00000,0.00000,0.00000,0.00000,0.00000,0.00000,0.00000,0.00000,0.00000,0.00000,0.00000,0.00000,0.00000,0.00000,-1.00000,-1.00000,0.00000,0.00000,0.00000,0.00000,"[0.000, 0.000, 0.000, 0.000, 0.000, 0.000]",0.000,0.000,0.000,0.000,0.000,0.000,0.000,0.000,0.000,0.000,0.000,0.000
0.0300,1.00000,1.00000,0.00000,0.00000,0.00000,0.00000,0.00000,0.00000,0.00000,0.00000,0.00000,0.00000,0.00000,0.00000,0.00000,0.00000,0.00000,0.00000,-1.00000,-1.00000,0.00000,0.00000,0.00000,0.00000,"[0.000, 0.000, 0.000, 0.000, 0.000, 0.000]",0.000,0.000,0.000,0.000,0.000,0.000,0.000,0.000,0.000,0.000,0.000,0.000
0.0350,1.00000,1.00000,0.00000,0.00000,0.00000,0.00000,0.00000,0.00000,0.00000,0.00000,0.00000,0.00000,0.00000,0.00000,0.00000,0.00000,0.00000,0.00000,-1.00000,-1.00000,0.00000,0.00000,0.00000,0.00000,"[0.000, 0.000, 0.000, 0.000, 0.000, 0.000]",0.000,0.000,0.000,0.000,0.000,0.000,0.000,0.000,0.000,0.000,0.000,0.000
0.0400,1.00000,1.00000,0.00000,0.00000,0.00000,0.00000,0.00000,0.00000,0.00000,0.00000,0.00000,0.00000,0.00000,0.00000,0.00000,0.00000,0.00000,0.00000,-1.00000,-1.00000,0.00000,0.00000,0.00000,0.00000,"[0.000, 0.000, 0.000, 0.000, 0.000, 0.000]",0.000,0.000,0.000,0.000,0.000,0.000,0.000,0.000,0.000,0.000,0.000,0.000
0.0450,1.00000,1.00000,0.00000,0.00000,0.00000,0.00000,0.00000,0.00000,0.00000,0.00000,0.00000,0.00000,0.00000,0.00000,0.00000,0.00000,0.00000,0.00000,-1.00000,-1.00000,0.00000,0.00000,0.00000,0.00000,"[0.000, 0.000, 0.000, 0.000, 0.000, 0.000]",0.000,0.000,0.000,0.000,0.000,0.000,0.000,0.000,0.000,0.000,0.000,0.000
0.0500,1.00000,1.00000,0.00000,0.00000,0.00000,0.00000,-0.00022,-0.00021,0.00000,0.00000,-0.00000,-0.00000,0.00000,0.00000,0.00000,0.00000,0.00000,0.00000,-1.00000,-1.00000,0.00000,-0.00000,0.00000,0.00000,"[1.000, 0.000, 1.000, 0.000, 0.000, 0.000]",1.000,1.000,0.000,0.000,1.000,1.000,0.000,0.000,0.000,0.000,0.000,0.000
0.0550,1.00000,1.00000,-0.00000,0.00000,0.00000,0.00000,-0.00044,-0.00043,-0.00000,0.00000,-0.00000,-0.00000,0.00000,0.00000,0.00000,0.00000,0.00000,0.00000,-1.00000,-1.00000,0.00000,-0.00000,0.00000,0.00000,"[1.000, 0.000, 1.000, 0.000, 0.000, 0.000]",1.000,1.000,0.000,0.000,1.000,1.000,0.000,0.000,0.000,0.000,0.000,0.000
0.0600,1.00000,1.00000,-0.00000,0.00000,0.00000,0.00000,-0.00066,-0.00064,-0.00000,-0.00000,0.00000,0.00000,0.00000,0.00000,0.00000,0.00000,0.00000,0.00000,-1.00000,-1.00000,0.00000,-0.00000,0.00000,0.00000,"[1.000, 0.000, 1.000, 0.000, 0.000, 0.000]",1.000,1.000,0.000,0.000,1.000,1.000,0.000,0.000,0.000,0.000,0.000,0.000
0.0650,0.99999,0.99999,-0.00000,0.00000,0.00000,0.00000,-0.00088,-0.00086,-0.00000,-0.00000,-0.00000,0.00000,0.00000,0.00000,0.00000,0.00000,0.00000,0.00000,-0.99999,-0.99999,0.00000,-0.00000,0.00000,0.00000,"[1.000, 0.000, 1.000, 0.000, 0.000, 0.000]",1.000,1.000,0.000,0.000,1.000,1.000,0.000,0.000,0.000,0.000,0.000,0.000
0.0700,0.99999,0.99999,-0.00000,0.00000,0.00000,0.00000,-0.00110,-0.00107,-0.00000,-0.00000,-0.00000,0.00000,0.00000,0.00000,0.00000,0.00000,0.00000,0.00000,-0.99999,-0.99999,0.00000,-0.00000,0.00000,0.00000,"[1.000, 0.000, 1.000, 0.000, 0.000, 0.000]",1.000,1.000,0.000,0.000,1.000,1.000,0.000,0.000,0.000,0.000,0.000,0.000
0.0750,0.99998,0.99998,-0.00000,0.00000,0.00000,0.00000,-0.00132,-0.00128,-0.00000,-0.00000,-0.00000,-0.00000,0.00000,0.00000,0.00000,0.00000,0.00000,0.00000,-0.99998,-0.99998,0.00000,-0.00000,0.00000,0.00000,"[1.000, 0.000, 1.000, 0.000, 0.000, 0.000]",1.000,1.000,0.000,0.000,1.000,1.000,0.000,0.000,0.000,0.000,0.000,0.000
0.0800,0.99997,0.99997,-0.00000,0.00000,0.00000,0.00000,-0.00155,-0.00150,-0.00000,-0.00000,-0.00000,-0.00000,0.00000,0.00000,0.00000,0.00000,0.00000,0.00000,-0.99997,-0.99997,0.00000,-0.00000,0.00000,0.00000,"[1.000, 0.000, 1.000, 0.000, 0.000, 0.000]",1.000,1.000,0.000,0.000,1.000,1.000,0.000,0.000,0.000,0.000,0.000,0.000
0.0850,0.99996,0.99997,-0.00000,0.00000,0.00000,0.00000,-0.00177,-0.00171,-0.00000,0.00000,-0.00000,-0.00000,0.00000,0.00000,0.00000,0.00000,0.00000,0.00000,-0.99996,-0.99997,0.00000,-0.00000,0.00000,0.00000,"[1.000, 0.000, 1.000, 0.000, 0.000, 0.000]",1.000,1.000,0.000,0.000,1.000,1.000,0.000,0.000,0.000,0.000,0.000,0.000
0.0900,0.99996,0.99996,-0.00000,0.00000,0.00000,0.00000,-0.00199,-0.00192,-0.00000,0.00000,0.00000,-0.00000,0.00000,0.00000,0.00000,0.00000,0.00000,0.00000,-0.99996,-0.99996,0.00000,-0.00000,0.00000,0.00000,"[1.000, 0.000, 1.000, 0.000, 0.000, 0.000]",1.000,1.000,0.000,0.000,1.000,1.000,0.000,0.000,0.000,0.000,0.000,0.000
0.0950,0.99994,0.99995,-0.00000,0.00000,0.00000,0.00000,-0.00221,-0.00214,-0.00000,0.00000,0.00000,0.00000,0.00000,0.00000,0.00000,0.00000,0.00000,0.00000,-0.99994,-0.99995,0.00000,-0.00000,0.00000,0.00000,"[1.000, 0.000, 1.000, 0.000, 0.000, 0.000]",1.000,1.000,0.000,0.000,1.000,1.000,0.000,0.000,0.000,0.000,0.000,0.000
0.1000,0.99993,0.99994,-0.00000,0.00000,0.00000,0.00000,-0.00243,-0.00235,-0.00000,-0.00000,0.00000,0.00000,0.00000,0.00000,0.00000,0.00000,0.00000,0.00000,-0.99993,-0.99994,0.00000,-0.00000,0.00000,0.00000,"[0.999, 0.001, 0.999, 0.001, 0.000, 0.000]",0.999,0.999,0.001,0.001,0.999,0.999,0.001,0.001,0.000,0.000,0.000,0.000
