Step,MPC_Start_Time,Control_Time,Actual_Time_Interval,CONTROL_DT,Mission_Phase,Waypoint_Number,Telemetry_X_mm,Telemetry_Y_mm,Telemetry_Z_mm,Telemetry_Roll_deg,Telemetry_Pitch_deg,Telemetry_Yaw_deg,Current_X,Current_Y,Current_Z,Current_Roll,Current_Pitch,Current_Yaw,Current_VX,Current_VY,Current_VZ,Current_WX,Current_WY,Current_WZ,Target_X,Target_Y,Target_Z,Target_Roll,Target_Pitch,Target_Yaw,Target_VX,Target_VY,Target_VZ,Target_WX,Target_WY,Target_WZ,Error_X,Error_Y,Error_Z,Error_Roll,Error_Pitch,Error_Yaw,Error_VX,Error_VY,Error_VZ,Error_WX,Error_WY,Error_WZ,MPC_Computation_Time,MPC_Status,MPC_Solver,MPC_Solver_Time_Limit,MPC_Solve_Time,MPC_Time_Limit_Exceeded,MPC_Fallback_Used,MPC_Objective,MPC_Iterations,MPC_Optimality_Gap,Command_Vector,Command_Hex,Command_Sent_Time,Total_Active_Thrusters,Thruster_Switches,RW_Torque_X,RW_Torque_Y,RW_Torque_Z,Total_MPC_Loop_Time,Timing_Violation
0,0.0450,0.0450,0.0500,0.050,APPROACHING,0,1000.00,1000.00,1000.00,0.00,0.00,90.00,1.00000,1.00000,1.00000,0.00000,0.00000,1.57080,0.00000,0.00000,0.00000,0.00000,0.00000,0.00000,0.00000,0.00000,0.00000,0.00000,0.00000,0.00000,0.00000,0.00000,0.00000,0.00000,0.00000,0.00000,1.00000,1.00000,1.00000,0.00000,0.00000,-1.57080,0.00000,0.00000,0.00000,0.00000,0.00000,0.00000,0.0000,,,,0.0424,,,,,,"[0.000, 0.000, 0.000, 0.000, 0.000, 0.000]",0x000000,0.0450,0,0,0.000000,0.000000,0.000000,0.0000,NO
1,0.0950,0.0950,0.0500,0.050,APPROACHING,0,1000.00,1000.00,1000.00,0.00,0.00,90.00,1.00000,1.00000,1.00000,0.00000,0.00000,1.57080,0.00000,0.00000,0.00000,0.00000,0.00000,0.00000,0.00000,0.00000,0.00000,0.00000,0.00000,0.00000,0.00000,0.00000,0.00000,0.00000,0.00000,0.00000,1.00000,1.00000,1.00000,0.00000,0.00000,-1.57080,0.00000,0.00000,0.00000,0.00000,0.00000,0.00000,0.0000,,,,0.0422,,,,,,"[0.000, 0.000, 0.000, 0.000, 0.000, 0.000]",0x000000,0.0950,0,0,0.000000,0.000000,0.000000,0.0000,NO
2,0.1450,0.1450,0.0500,0.050,APPROACHING,0,1000.00,1000.00,1000.00,0.00,0.00,90.00,1.00000,1.00000,1.00000,0.00000,0.00000,1.57080,0.00000,0.00000,0.00000,0.00000,0.00000,0.00000,0.00000,0.00000,0.00000,0.00000,0.00000,0.00000,0.00000,0.00000,0.00000,0.00000,0.00000,0.00000,1.00000,1.00000,1.00000,0.00000,0.00000,-1.57080,0.00000,0.00000,0.00000,0.00000,0.00000,0.00000,0.0000,,,,0.0130,,,,,,"[1.000, 0.000, 0.000, 0.000, 1.000, 0.000]",0x100010,0.1450,2,2,0.357471,-0.357471,-0.500000,0.0000,NO
3,0.1950,0.1950,0.0500,0.050,APPROACHING,0,1000.00,999.94,999.94,0.31,-0.30,89.57,1.00000,0.99994,0.99994,0.00533,-0.00529,1.56335,-0.00001,-0.00250,-0.00250,0.21253,-0.21253,-0.29727,0.00000,0.00000,0.00000,0.00000,0.00000,0.00000,0.00000,0.00000,0.00000,0.00000,0.00000,0.00000,1.00000,0.99994,0.99994,-0.00533,0.00529,-1.56335,0.00001,0.00250,0.00250,-0.21253,0.21253,0.29727,0.0000,,,,0.0323,,,,,,"[0.998, 0.000, 0.000, 0.000, 0.998, 0.000]",0x100010,0.1950,2,0,-0.304440,0.293424,-0.499699,0.0000,NO
4,0.2450,0.2450,0.0500,0.050,APPROACHING,0,1000.00,999.75,999.75,0.67,-0.65,88.29,1.00000,0.99975,0.99975,0.01164,-0.01135,1.54101,-0.00007,-0.00497,-0.00503,0.03124,-0.03837,-0.59435,0.00000,0.00000,0.00000,0.00000,0.00000,0.00000,0.00000,0.00000,0.00000,0.00000,0.00000,0.00000,1.00000,0.99975,0.99975,-0.01164,0.01135,-1.54101,0.00007,0.00497,0.00503,-0.03124,0.03837,0.59435,0.0000,,,,0.0323,,,,,,"[0.998, 0.000, 0.000, 0.000, 0.998, 0.000]",0x100010,0.2450,2,0,0.237959,-0.239940,-0.173413,0.0000,NO
5,0.2950,0.2950,0.0500,0.050,APPROACHING,0,999.99,999.44,999.43,0.98,-0.94,86.44,0.99999,0.99944,0.99943,0.01717,-0.01638,1.50863,-0.00021,-0.00744,-0.00756,0.17292,-0.18082,-0.69745,0.00000,0.00000,0.00000,0.00000,0.00000,0.00000,0.00000,0.00000,0.00000,0.00000,0.00000,0.00000,0.99999,0.99944,0.99943,-0.01717,0.01638,-1.50863,0.00021,0.00744,0.00756,-0.17292,0.18082,0.69745,0.0000,,,,0.0341,,,,,,"[0.998, 0.000, 0.000, 0.000, 0.998, 0.000]",0x100010,0.2950,2,0,-0.206944,0.196485,0.176602,0.0000,NO
6,0.3450,0.3450,0.0500,0.050,APPROACHING,0,999.98,999.01,998.99,1.34,-1.25,84.58,0.99998,0.99901,0.99899,0.02337,-0.02184,1.47626,-0.00045,-0.00988,-0.01010,0.04973,-0.06417,-0.59245,0.00000,0.00000,0.00000,0.00000,0.00000,0.00000,0.00000,0.00000,0.00000,0.00000,0.00000,0.00000,0.99998,0.99901,0.99899,-0.02337,0.02184,-1.47626,0.00045,0.00988,0.01010,-0.04973,0.06417,0.59245,0.0000,,,,0.0296,,,,,,"[0.998, 0.000, 0.000, 0.000, 0.998, 0.000]",0x100010,0.3450,2,0,0.158207,-0.160480,-0.110223,0.0000,NO
7,0.3950,0.3950,0.0500,0.050,APPROACHING,0,999.94,998.45,998.42,1.66,-1.53,82.78,0.99994,0.99845,0.99842,0.02896,-0.02662,1.44486,-0.00078,-0.01230,-0.01266,0.14392,-0.15945,-0.65798,0.00000,0.00000,0.00000,0.00000,0.00000,0.00000,0.00000,0.00000,0.00000,0.00000,0.00000,0.00000,0.99994,0.99845,0.99842,-0.02896,0.02662,-1.44486,0.00078,0.01230,0.01266,-0.14392,0.15945,0.65798,0.0000,,,,0.0212,,,,,,"[1.000, 0.000, 0.000, 0.000, 1.000, 0.000]",0x100010,0.3950,2,0,-0.141087,0.131824,0.124460,0.0000,NO
8,0.4450,0.4450,0.0500,0.050,APPROACHING,0,999.90,997.78,997.73,2.00,-1.81,80.99,0.99990,0.99778,0.99773,0.03498,-0.03163,1.41362,-0.00120,-0.01469,-0.01523,0.05994,-0.08119,-0.58398,0.00000,0.00000,0.00000,0.00000,0.00000,0.00000,0.00000,0.00000,0.00000,0.00000,0.00000,0.00000,0.99990,0.99778,0.99773,-0.03498,0.03163,-1.41362,0.00120,0.01469,0.01523,-0.05994,0.08119,0.58398,0.0000,,,,0.0043,,,,,,"[1.000, 0.000, 0.000, 0.000, 1.000, 0.000]",0x100010,0.4450,2,0,0.101468,-0.104217,-0.065077,0.0000,NO
9,0.4950,0.4950,0.0500,0.050,APPROACHING,0,999.82,996.98,996.90,2.32,-2.07,79.25,0.99982,0.99698,0.99690,0.04051,-0.03610,1.38324,-0.00170,-0.01705,-0.01781,0.12034,-0.14307,-0.62268,0.00000,0.00000,0.00000,0.00000,0.00000,0.00000,0.00000,0.00000,0.00000,0.00000,0.00000,0.00000,0.99982,0.99698,0.99690,-0.04051,0.03610,-1.38324,0.00170,0.01705,0.01781,-0.12034,0.14307,0.62268,0.0000,,,,0.0041,,,,,,"[1.000, 0.000, 0.000, 0.000, 1.000, 0.000]",0x100010,0.4950,2,0,-0.088828,0.081027,0.083194,0.0000,NO
10,0.5450,0.5450,0.0500,0.050,APPROACHING,0,999.72,996.07,995.95,2.66,-2.33,77.53,0.99972,0.99607,0.99595,0.04637,-0.04075,1.35309,-0.00229,-0.01938,-0.02041,0.06748,-0.09496,-0.57321,0.00000,0.00000,0.00000,0.00000,0.00000,0.00000,0.00000,0.00000,0.00000,0.00000,0.00000,0.00000,0.99972,0.99607,0.99595,-0.04637,0.04075,-1.35309,0.00229,0.01938,0.02041,-0.06748,0.09496,0.57321,0.0000,,,,0.0041,,,,,,"[1.000, 0.000, 0.000, 0.000, 1.000, 0.000]",0x100010,0.5450,2,0,0.057732,-0.061104,-0.031147,0.0000,NO
11,0.5950,0.5950,0.0500,0.050,APPROACHING,0,999.59,995.05,994.86,2.97,-2.58,75.84,0.99959,0.99505,0.99486,0.05186,-0.04497,1.32370,-0.00295,-0.02168,-0.02301,0.10185,-0.13124,-0.59173,0.00000,0.00000,0.00000,0.00000,0.00000,0.00000,0.00000,0.00000,0.00000,0.00000,0.00000,0.00000,0.99959,0.99505,0.99486,-0.05186,0.04497,-1.32370,0.00295,0.02168,0.02301,-0.10185,0.13124,0.59173,0.0000,,,,0.0079,,,,,,"[1.000, 0.000, 0.000, 0.000, 1.000, 0.000]",0x100010,0.5950,2,0,-0.056299,0.049717,0.057703,0.0000,NO
12,0.6450,0.6450,0.0500,0.050,APPROACHING,0,999.43,993.91,993.64,3.29,-2.82,74.18,0.99943,0.99391,0.99364,0.05748,-0.04921,1.29467,-0.00370,-0.02395,-0.02562,0.06834,-0.10173,-0.55742,0.00000,0.00000,0.00000,0.00000,0.00000,0.00000,0.00000,0.00000,0.00000,0.00000,0.00000,0.00000,0.99943,0.99391,0.99364,-0.05748,0.04921,-1.29467,0.00370,0.02395,0.02562,-0.06834,0.10173,0.55742,0.0000,,,,0.0041,,,,,,"[1.000, 0.000, 0.000, 0.000, 1.000, 0.000]",0x100010,0.6450,2,0,0.034268,-0.037794,-0.012928,0.0000,NO
13,0.6950,0.6950,0.0500,0.050,APPROACHING,0,999.22,992.65,992.30,3.60,-3.05,72.55,0.99922,0.99265,0.99230,0.06286,-0.05316,1.26628,-0.00452,-0.02618,-0.02824,0.08875,-0.12417,-0.56511,0.00000,0.00000,0.00000,0.00000,0.00000,0.00000,0.00000,0.00000,0.00000,0.00000,0.00000,0.00000,0.99922,0.99265,0.99230,-0.06286,0.05316,-1.26628,0.00452,0.02618,0.02824,-0.08875,0.12417,0.56511,0.0000,,,,0.0042,,,,,,"[1.000, 0.000, 0.000, 0.000, 1.000, 0.000]",0x100010,0.6950,2,0,-0.036533,0.030870,0.042139,0.0000,NO
14,0.7450,0.7450,0.0500,0.050,APPROACHING,0,998.97,991.29,990.82,3.91,-3.27,70.95,0.99897,0.99129,0.99082,0.06830,-0.05709,1.23829,-0.00541,-0.02837,-0.03087,0.06701,-0.10584,-0.54005,0.00000,0.00000,0.00000,0.00000,0.00000,0.00000,0.00000,0.00000,0.00000,0.00000,0.00000,0.00000,0.99897,0.99129,0.99082,-0.06830,0.05709,-1.23829,0.00541,0.02837,0.03087,-0.06701,0.10584,0.54005,0.0000,,,,0.0061,,,,,,"[1.000, 0.000, 0.000, 0.000, 1.000, 0.000]",0x100010,0.7450,2,0,0.018767,-0.022348,-0.000986,0.0000,NO
15,0.7950,0.7950,0.0500,0.050,APPROACHING,0,998.68,989.82,989.21,4.21,-3.48,69.38,0.99868,0.98982,0.98921,0.07354,-0.06079,1.21089,-0.00637,-0.03052,-0.03350,0.07818,-0.11911,-0.54064,0.00000,0.00000,0.00000,0.00000,0.00000,0.00000,0.00000,0.00000,0.00000,0.00000,0.00000,0.00000,0.99868,0.98982,0.98921,-0.07354,0.06079,-1.21089,0.00637,0.03052,0.03350,-0.07818,0.11911,0.54064,0.0000,,,,0.0059,,,,,,"[1.000, 0.000, 0.001, 0.000, 1.000, 0.000]",0x100010,0.7950,2,0,-0.024848,0.019927,0.032842,0.0000,NO
16,0.8450,0.8450,0.0500,0.050,APPROACHING,0,998.34,988.24,987.47,4.51,-3.69,67.83,0.99834,0.98824,0.98747,0.07876,-0.06441,1.18394,-0.00739,-0.03263,-0.03615,0.06340,-0.10728,-0.52111,0.00000,0.00000,0.00000,0.00000,0.00000,0.00000,0.00000,0.00000,0.00000,0.00000,0.00000,0.00000,0.99834,0.98824,0.98747,-0.07876,0.06441,-1.18394,0.00739,0.03263,0.03615,-0.06340,0.10728,0.52111,0.0000,,,,0.0041,,,,,,"[1.000, 0.000, 0.000, 0.000, 1.000, 0.000]",0x100010,0.8450,2,0,0.009523,-0.012990,0.006029,0.0000,NO
17,0.8950,0.8950,0.0500,0.050,APPROACHING,0,997.94,986.55,985.60,4.80,-3.89,66.32,0.99794,0.98655,0.98560,0.08382,-0.06784,1.15755,-0.00849,-0.03470,-0.03880,0.06907,-0.11500,-0.51753,0.00000,0.00000,0.00000,0.00000,0.00000,0.00000,0.00000,0.00000,0.00000,0.00000,0.00000,0.00000,0.99794,0.98655,0.98560,-0.08382,0.06784,-1.15755,0.00849,0.03470,0.03880,-0.06907,0.11500,0.51753,0.0000,,,,0.0041,,,,,,"[1.000, 0.000, 0.000, 0.000, 1.000, 0.000]",0x100010,0.8950,2,0,-0.016736,0.012478,0.026319,0.0000,NO
18,0.9450,0.9450,0.0500,0.050,APPROACHING,0,997.49,984.77,983.59,5.09,-4.08,64.84,0.99749,0.98477,0.98359,0.08883,-0.07119,1.13162,-0.00964,-0.03672,-0.04145,0.05912,-0.10759,-0.50188,0.00000,0.00000,0.00000,0.00000,0.00000,0.00000,0.00000,0.00000,0.00000,0.00000,0.00000,0.00000,0.99749,0.98477,0.98359,-0.08883,0.07119,-1.13162,0.00964,0.03672,0.04145,-0.05912,0.10759,0.50188,0.0000,,,,0.0042,,,,,,"[1.000, 0.000, 0.000, 0.000, 1.000, 0.000]",0x100010,0.9450,2,0,0.003691,-0.006975,0.010335,0.0000,NO
19,0.9950,0.9950,0.0500,0.050,APPROACHING,0,996.98,982.88,981.45,5.37,-4.26,63.38,0.99698,0.98288,0.98145,0.09368,-0.07437,1.10622,-0.01085,-0.03871,-0.04412,0.06132,-0.11173,-0.49573,0.00000,0.00000,0.00000,0.00000,0.00000,0.00000,0.00000,0.00000,0.00000,0.00000,0.00000,0.00000,0.99698,0.98288,0.98145,-0.09368,0.07437,-1.10622,0.01085,0.03871,0.04412,-0.06132,0.11173,0.49573,0.0000,,,,0.0083,,,,,,"[1.000, 0.000, 0.000, 0.000, 1.000, 0.000]",0x100010,0.9950,2,0,-0.012026,0.008310,0.022416,0.0000,NO
20,1.0450,1.0450,0.0500,0.050,APPROACHING,0,996.40,980.90,979.18,5.64,-4.44,61.95,0.99640,0.98090,0.97918,0.09846,-0.07747,1.08128,-0.01212,-0.04064,-0.04679,0.05417,-0.10680,-0.48241,0.00000,0.00000,0.00000,0.00000,0.00000,0.00000,0.00000,0.00000,0.00000,0.00000,0.00000,0.00000,0.99640,0.98090,0.97918,-0.09846,0.07747,-1.08128,0.01212,0.04064,0.04679,-0.05417,0.10680,0.48241,0.0000,,,,0.0042,,,,,,"[1.000, 0.000, 0.000, 0.000, 1.000, 0.000]",0x100010,1.0450,2,0,0.000637,-0.003653,0.012446,0.0000,NO
21,1.0950,1.0950,0.0500,0.050,APPROACHING,0,995.76,978.82,976.77,5.91,-4.61,60.55,0.99576,0.97882,0.97677,0.10311,-0.08042,1.05685,-0.01344,-0.04254,-0.04947,0.05455,-0.10897,-0.47501,0.00000,0.00000,0.00000,0.00000,0.00000,0.00000,0.00000,0.00000,0.00000,0.00000,0.00000,0.00000,0.99576,0.97882,0.97677,-0.10311,0.08042,-1.05685,0.01344,0.04254,0.04947,-0.05455,0.10897,0.47501,0.0000,,,,0.0063,,,,,,"[1.000, 0.000, 0.000, 0.000, 1.000, 0.000]",0x100010,1.0950,2,0,-0.009205,0.005952,0.019954,0.0000,NO
22,1.1450,1.1450,0.0500,0.050,APPROACHING,0,995.06,976.65,974.23,6.17,-4.77,59.18,0.99506,0.97665,0.97423,0.10766,-0.08329,1.03288,-0.01481,-0.04439,-0.05215,0.04908,-0.10543,-0.46314,0.00000,0.00000,0.00000,0.00000,0.00000,0.00000,0.00000,0.00000,0.00000,0.00000,0.00000,0.00000,0.99506,0.97665,0.97423,-0.10766,0.08329,-1.03288,0.01481,0.04439,0.05215,-0.04908,0.10543,0.46314,0.0000,,,,0.0040,,,,,,"[1.000, 0.000, 0.000, 0.000, 1.000, 0.000]",0x100010,1.1450,2,0,-0.001204,-0.001522,0.013590,0.0000,NO
23,1.1950,1.1950,0.0500,0.050,APPROACHING,0,994.28,974.38,971.56,6.42,-4.93,57.83,0.99428,0.97438,0.97156,0.11208,-0.08603,1.00940,-0.01624,-0.04619,-0.05484,0.04836,-0.10634,-0.45506,0.00000,0.00000,0.00000,0.00000,0.00000,0.00000,0.00000,0.00000,0.00000,0.00000,0.00000,0.00000,0.99428,0.97438,0.97156,-0.11208,0.08603,-1.00940,0.01624,0.04619,0.05484,-0.04836,0.10634,0.45506,0.0000,,,,0.0041,,,,,,"[1.000, 0.000, 0.000, 0.000, 1.000, 0.000]",0x100010,1.1950,2,0,-0.007280,0.004451,0.018163,0.0000,NO
24,1.2450,1.2450,0.0500,0.050,APPROACHING,0,993.43,972.03,968.75,6.67,-5.08,56.52,0.99343,0.97203,0.96875,0.11640,-0.08869,0.98637,-0.01771,-0.04795,-0.05753,0.04404,-0.10370,-0.44426,0.00000,0.00000,0.00000,0.00000,0.00000,0.00000,0.00000,0.00000,0.00000,0.00000,0.00000,0.00000,0.99343,0.97203,0.96875,-0.11640,0.08869,-0.98637,0.01771,0.04795,0.05753,-0.04404,0.10370,0.44426,0.0000,,,,0.0080,,,,,,"[1.000, 0.000, 0.000, 0.000, 1.000, 0.000]",0x100010,1.2450,2,0,-0.002364,-0.000073,0.014190,0.0000,NO
25,1.2950,1.2950,0.0500,0.050,APPROACHING,0,992.51,969.59,965.80,6.91,-5.23,55.22,0.99251,0.96959,0.96580,0.12059,-0.09124,0.96382,-0.01922,-0.04966,-0.06022,0.04263,-0.10374,-0.43582,0.00000,0.00000,0.00000,0.00000,0.00000,0.00000,0.00000,0.00000,0.00000,0.00000,0.00000,0.00000,0.99251,0.96959,0.96580,-0.12059,0.09124,-0.96382,0.01922,0.04966,0.06022,-0.04263,0.10374,0.43582,0.0000,,,,0.0042,,,,,,"[1.000, 0.000, 0.000, 0.000, 1.000, 0.000]",0x100010,1.2950,2,0,-0.006047,0.003608,0.016890,0.0000,NO
26,1.3450,1.3450,0.0500,0.050,APPROACHING,0,991.51,967.06,962.73,7.14,-5.37,53.96,0.99151,0.96706,0.96273,0.12467,-0.09370,0.94172,-0.02078,-0.05133,-0.06293,0.03904,-0.10160,-0.42578,0.00000,0.00000,0.00000,0.00000,0.00000,0.00000,0.00000,0.00000,0.00000,0.00000,0.00000,0.00000,0.99151,0.96706,0.96273,-0.12467,0.09370,-0.94172,0.02078,0.05133,0.06293,-0.03904,0.10160,0.42578,0.0000,,,,0.0065,,,,,,"[1.000, 0.000, 0.000, 0.000, 1.000, 0.000]",0x100010,1.3450,2,0,-0.002949,0.000812,0.014325,0.0000,NO
27,1.3950,1.3950,0.0500,0.050,APPROACHING,0,990.43,964.46,959.51,7.37,-5.50,52.72,0.99043,0.96446,0.95951,0.12863,-0.09606,0.92008,-0.02237,-0.05295,-0.06563,0.03729,-0.10112,-0.41727,0.00000,0.00000,0.00000,0.00000,0.00000,0.00000,0.00000,0.00000,0.00000,0.00000,0.00000,0.00000,0.99043,0.96446,0.95951,-0.12863,0.09606,-0.92008,0.02237,0.05295,0.06563,-0.03729,0.10112,0.41727,0.0000,,,,0.0042,,,,,,"[1.000, 0.000, 0.000, 0.000, 1.000, 0.000]",0x100010,1.3950,2,0,-0.005194,0.003111,0.015899,0.0000,NO
28,1.4450,1.4450,0.0500,0.050,APPROACHING,0,989.27,961.77,956.16,7.59,-5.63,51.50,0.98927,0.96177,0.95616,0.13248,-0.09834,0.89887,-0.02401,-0.05453,-0.06834,0.03420,-0.09927,-0.40781,0.00000,0.00000,0.00000,0.00000,0.00000,0.00000,0.00000,0.00000,0.00000,0.00000,0.00000,0.00000,0.98927,0.96177,0.95616,-0.13248,0.09834,-0.89887,0.02401,0.05453,0.06834,-0.03420,0.09927,0.40781,0.0000,,,,0.0063,,,,,,"[1.000, 0.000, 0.000, 0.000, 1.000, 0.000]",0x100010,1.4450,2,0,-0.003240,0.001399,0.014216,0.0000,NO
29,1.4950,1.4950,0.0500,0.050,APPROACHING,0,988.03,959.00,952.68,7.80,-5.76,50.31,0.98803,0.95900,0.95268,0.13620,-0.10054,0.87811,-0.02568,-0.05606,-0.07105,0.03227,-0.09844,-0.39936,0.00000,0.00000,0.00000,0.00000,0.00000,0.00000,0.00000,0.00000,0.00000,0.00000,0.00000,0.00000,0.98803,0.95900,0.95268,-0.13620,0.10054,-0.87811,0.02568,0.05606,0.07105,-0.03227,0.09844,0.39936,0.0000,,,,0.0079,,,,,,"[1.000, 0.000, 0.000, 0.000, 1.000, 0.000]",0x100010,1.4950,2,0,-0.004608,0.002853,0.015106,0.0000,NO
30,1.5450,1.5450,0.0500,0.050,APPROACHING,0,986.70,956.16,949.06,8.01,-5.88,49.15,0.98670,0.95616,0.94906,0.13981,-0.10265,0.85778,-0.02739,-0.05754,-0.07377,0.02953,-0.09674,-0.39038,0.00000,0.00000,0.00000,0.00000,0.00000,0.00000,0.00000,0.00000,0.00000,0.00000,0.00000,0.00000,0.98670,0.95616,0.94906,-0.13981,0.10265,-0.85778,0.02739,0.05754,0.07377,-0.02953,0.09674,0.39038,0.0000,,,,0.0062,,,,,,"[1.000, 0.000, 0.000, 0.000, 1.000, 0.000]",0x100010,1.5450,2,0,-0.003304,0.001755,0.013922,0.0000,NO
31,1.5950,1.5950,0.0500,0.050,APPROACHING,0,985.29,953.25,945.30,8.21,-6.00,48.01,0.98529,0.95325,0.94530,0.14330,-0.10469,0.83787,-0.02913,-0.05899,-0.07649,0.02757,-0.09570,-0.38210,0.00000,0.00000,0.00000,0.00000,0.00000,0.00000,0.00000,0.00000,0.00000,0.00000,0.00000,0.00000,0.98529,0.95325,0.94530,-0.14330,0.10469,-0.83787,0.02913,0.05899,0.07649,-0.02757,0.09570,0.38210,0.0000,,,,0.0041,,,,,,"[1.000, 0.000, 0.000, 0.000, 1.000, 0.000]",0x100010,1.5950,2,0,-0.004164,0.002715,0.014415,0.0000,NO
32,1.6450,1.6450,0.0500,0.050,APPROACHING,0,983.79,950.27,941.41,8.40,-6.11,46.89,0.98379,0.95027,0.94141,0.14667,-0.10666,0.81839,-0.03090,-0.06038,-0.07921,0.02510,-0.09409,-0.37353,0.00000,0.00000,0.00000,0.00000,0.00000,0.00000,0.00000,0.00000,0.00000,0.00000,0.00000,0.00000,0.98379,0.95027,0.94141,-0.14667,0.10666,-0.81839,0.03090,0.06038,0.07921,-0.02510,0.09409,0.37353,0.0000,,,,0.0041,,,,,,"[1.000, 0.000, 0.000, 0.000, 1.000, 0.000]",0x100010,1.6450,2,0,-0.003319,0.002045,0.013583,0.0000,NO
33,1.6950,1.6950,0.0500,0.050,APPROACHING,0,982.20,947.21,937.38,8.59,-6.22,45.80,0.98220,0.94721,0.93738,0.14992,-0.10855,0.79932,-0.03269,-0.06174,-0.08194,0.02312,-0.09288,-0.36545,0.00000,0.00000,0.00000,0.00000,0.00000,0.00000,0.00000,0.00000,0.00000,0.00000,0.00000,0.00000,0.98220,0.94721,0.93738,-0.14992,0.10855,-0.79932,0.03269,0.06174,0.08194,-0.02312,0.09288,0.36545,0.0000,,,,0.0062,,,,,,"[1.000, 0.000, 0.000, 0.000, 1.000, 0.000]",0x100010,1.6950,2,0,-0.003809,0.002645,0.013785,0.0000,NO
34,1.7450,1.7450,0.0500,0.050,APPROACHING,0,980.52,944.09,933.21,8.77,-6.32,44.73,0.98052,0.94409,0.93321,0.15306,-0.11038,0.78065,-0.03452,-0.06305,-0.08467,0.02086,-0.09130,-0.35726,0.00000,0.00000,0.00000,0.00000,0.00000,0.00000,0.00000,0.00000,0.00000,0.00000,0.00000,0.00000,0.98052,0.94409,0.93321,-0.15306,0.11038,-0.78065,0.03452,0.06305,0.08467,-0.02086,0.09130,0.35726,0.0000,,,,0.0041,,,,,,"[1.000, 0.000, 0.000, 0.000, 1.000, 0.000]",0x100010,1.7450,2,0,-0.003231,0.002225,0.013164,0.0000,NO
35,1.7950,1.7950,0.0500,0.050,APPROACHING,0,978.75,940.91,928.91,8.94,-6.42,43.68,0.97875,0.94091,0.92891,0.15608,-0.11213,0.76238,-0.03637,-0.06431,-0.08740,0.01894,-0.08998,-0.34943,0.00000,0.00000,0.00000,0.00000,0.00000,0.00000,0.00000,0.00000,0.00000,0.00000,0.00000,0.00000,0.97875,0.94091,0.92891,-0.15608,0.11213,-0.76238,0.03637,0.06431,0.08740,-0.01894,0.08998,0.34943,0.0000,,,,0.0080,,,,,,"[1.000, 0.000, 0.000, 0.000, 1.000, 0.000]",0x100010,1.7950,2,0,-0.003534,0.002634,0.013213,0.0000,NO
36,1.8450,1.8450,0.0500,0.050,APPROACHING,0,976.88,937.66,924.47,9.11,-6.52,42.66,0.97688,0.93766,0.92447,0.15899,-0.11383,0.74451,-0.03825,-0.06554,-0.09014,0.01684,-0.08842,-0.34158,0.00000,0.00000,0.00000,0.00000,0.00000,0.00000,0.00000,0.00000,0.00000,0.00000,0.00000,0.00000,0.97688,0.93766,0.92447,-0.15899,0.11383,-0.74451,0.03825,0.06554,0.09014,-0.01684,0.08842,0.34158,0.0000,,,,0.0084,,,,,,"[1.000, 0.000, 0.000, 0.000, 1.000, 0.000]",0x100010,1.8450,2,0,-0.003115,0.002360,0.012718,0.0000,NO
37,1.8950,1.8950,0.0500,0.050,APPROACHING,0,974.92,934.35,919.90,9.27,-6.62,41.66,0.97492,0.93435,0.91990,0.16179,-0.11546,0.72702,-0.04015,-0.06672,-0.09288,0.01499,-0.08702,-0.33401,0.00000,0.00000,0.00000,0.00000,0.00000,0.00000,0.00000,0.00000,0.00000,0.00000,0.00000,0.00000,0.97492,0.93435,0.91990,-0.16179,0.11546,-0.72702,0.04015,0.06672,0.09288,-0.01499,0.08702,0.33401,0.0000,,,,0.0041,,,,,,"[1.000, 0.000, 0.000, 0.000, 1.000, 0.000]",0x100010,1.8950,2,0,-0.003279,0.002629,0.012663,0.0000,NO
38,1.9450,1.9450,0.0500,0.050,APPROACHING,0,972.87,930.99,915.19,9.42,-6.71,40.67,0.97287,0.93099,0.91519,0.16447,-0.11703,0.70991,-0.04207,-0.06786,-0.09562,0.01304,-0.08546,-0.32649,0.00000,0.00000,0.00000,0.00000,0.00000,0.00000,0.00000,0.00000,0.00000,0.00000,0.00000,0.00000,0.97287,0.93099,0.91519,-0.16447,0.11703,-0.70991,0.04207,0.06786,0.09562,-0.01304,0.08546,0.32649,0.0000,,,,0.0041,,,,,,"[1.000, 0.000, 0.000, 0.000, 1.000, 0.000]",0x100010,1.9450,2,0,-0.002999,0.002477,0.012268,0.0000,NO
39,1.9950,1.9950,0.0500,0.050,APPROACHING,0,970.71,927.57,910.34,9.57,-6.79,39.72,0.97071,0.92757,0.91034,0.16705,-0.11855,0.69317,-0.04401,-0.06897,-0.09836,0.01125,-0.08398,-0.31919,0.00000,0.00000,0.00000,0.00000,0.00000,0.00000,0.00000,0.00000,0.00000,0.00000,0.00000,0.00000,0.97071,0.92757,0.91034,-0.16705,0.11855,-0.69317,0.04401,0.06897,0.09836,-0.01125,0.08398,0.31919,0.0000,,,,0.0041,,,,,,"[1.000, 0.000, 0.000, 0.000, 1.000, 0.000]",0x100010,1.9950,2,0,-0.003060,0.002642,0.012137,0.0000,NO
40,2.0450,2.0450,0.0500,0.050,APPROACHING,0,968.47,924.09,905.35,9.71,-6.88,38.78,0.96847,0.92409,0.90535,0.16951,-0.12001,0.67680,-0.04597,-0.07003,-0.10110,0.00943,-0.08241,-0.31198,0.00000,0.00000,0.00000,0.00000,0.00000,0.00000,0.00000,0.00000,0.00000,0.00000,0.00000,0.00000,0.96847,0.92409,0.90535,-0.16951,0.12001,-0.67680,0.04597,0.07003,0.10110,-0.00943,0.08241,0.31198,0.0000,,,,0.0062,,,,,,"[1.000, 0.000, 0.000, 0.000, 1.000, 0.000]",0x100010,2.0450,2,0,-0.002870,0.002568,0.011809,0.0000,NO
41,2.0950,2.0950,0.0500,0.050,APPROACHING,0,966.12,920.57,900.23,9.85,-6.96,37.86,0.96612,0.92057,0.90023,0.17187,-0.12141,0.66079,-0.04794,-0.07105,-0.10385,0.00773,-0.08089,-0.30495,0.00000,0.00000,0.00000,0.00000,0.00000,0.00000,0.00000,0.00000,0.00000,0.00000,0.00000,0.00000,0.96612,0.92057,0.90023,-0.17187,0.12141,-0.66079,0.04794,0.07105,0.10385,-0.00773,0.08089,0.30495,0.0000,,,,0.0100,,,,,,"[1.000, 0.000, 1.000, 0.000, 1.000, 0.000]",0x101010,2.0950,3,1,-0.002862,0.002661,0.011634,0.0000,NO
42,2.1450,2.1450,0.0500,0.050,APPROACHING,0,963.71,916.94,894.95,9.98,-7.03,36.96,0.96371,0.91694,0.89495,0.17412,-0.12276,0.64514,-0.04840,-0.07396,-0.10702,0.00603,-0.07931,-0.29804,0.00000,0.00000,0.00000,0.00000,0.00000,0.00000,0.00000,0.00000,0.00000,0.00000,0.00000,0.00000,0.96371,0.91694,0.89495,-0.17412,0.12276,-0.64514,0.04840,0.07396,0.10702,-0.00603,0.07931,0.29804,0.0000,,,,0.0062,,,,,,"[1.000, 0.000, 1.000, 0.000, 1.000, 0.000]",0x101010,2.1450,3,0,-0.002737,0.002612,0.011341,0.0000,NO
43,2.1950,2.1950,0.0500,0.050,APPROACHING,0,961.28,913.17,889.52,10.10,-7.11,36.09,0.96128,0.91317,0.88952,0.17627,-0.12406,0.62983,-0.04890,-0.07685,-0.11021,0.00440,-0.07776,-0.29129,0.00000,0.00000,0.00000,0.00000,0.00000,0.00000,0.00000,0.00000,0.00000,0.00000,0.00000,0.00000,0.96128,0.91317,0.88952,-0.17627,0.12406,-0.62983,0.04890,0.07685,0.11021,-0.00440,0.07776,0.29129,0.0000,,,,0.0062,,,,,,"[1.000, 0.000, 1.000, 0.000, 1.000, 0.000]",0x101010,2.1950,3,0,-0.002732,0.002668,0.011148,0.0000,NO
44,2.2450,2.2450,0.0500,0.050,APPROACHING,0,958.82,909.26,883.93,10.22,-7.18,35.23,0.95882,0.90926,0.88393,0.17831,-0.12531,0.61486,-0.04944,-0.07973,-0.11340,0.00278,-0.07617,-0.28467,0.00000,0.00000,0.00000,0.00000,0.00000,0.00000,0.00000,0.00000,0.00000,0.00000,0.00000,0.00000,0.95882,0.90926,0.88393,-0.17831,0.12531,-0.61486,0.04944,0.07973,0.11340,-0.00278,0.07617,0.28467,0.0000,,,,0.0061,,,,,,"[1.000, 0.000, 1.000, 0.000, 1.000, 0.000]",0x101010,2.2450,3,0,-0.002631,0.002636,0.010879,0.0000,NO
45,2.2950,2.2950,0.0500,0.050,APPROACHING,0,956.33,905.20,878.18,10.33,-7.25,34.39,0.95633,0.90520,0.87818,0.18024,-0.12651,0.60023,-0.05002,-0.08259,-0.11659,0.00121,-0.07461,-0.27820,0.00000,0.00000,0.00000,0.00000,0.00000,0.00000,0.00000,0.00000,0.00000,0.00000,0.00000,0.00000,0.95633,0.90520,0.87818,-0.18024,0.12651,-0.60023,0.05002,0.08259,0.11659,-0.00121,0.07461,0.27820,0.0000,,,,0.0083,,,,,,"[1.000, 0.000, 1.000, 0.000, 1.000, 0.000]",0x101010,2.2950,3,0,-0.002612,0.002674,0.010678,0.0000,NO
46,2.3450,2.3450,0.0500,0.050,APPROACHING,0,953.82,901.00,872.27,10.43,-7.31,33.57,0.95382,0.90100,0.87227,0.18208,-0.12766,0.58592,-0.05065,-0.08544,-0.11980,-0.00034,-0.07302,-0.27185,0.00000,0.00000,0.00000,0.00000,0.00000,0.00000,0.00000,0.00000,0.00000,0.00000,0.00000,0.00000,0.95382,0.90100,0.87227,-0.18208,0.12766,-0.58592,0.05065,0.08544,0.11980,0.00034,0.07302,0.27185,0.0000,,,,0.0061,,,,,,"[1.000, 0.000, 1.000, 0.000, 1.000, 0.000]",0x101010,2.3450,3,0,-0.002527,0.002652,0.010425,0.0000,NO
47,2.3950,2.3950,0.0500,0.050,APPROACHING,0,951.27,896.65,866.20,10.53,-7.38,32.77,0.95127,0.89665,0.86620,0.18381,-0.12877,0.57194,-0.05132,-0.08827,-0.12300,-0.00184,-0.07144,-0.26565,0.00000,0.00000,0.00000,0.00000,0.00000,0.00000,0.00000,0.00000,0.00000,0.00000,0.00000,0.00000,0.95127,0.89665,0.86620,-0.18381,0.12877,-0.57194,0.05132,0.08827,0.12300,0.00184,0.07144,0.26565,0.0000,,,,0.0061,,,,,,"[1.000, 0.000, 1.000, 0.000, 1.000, 0.000]",0x101010,2.3950,3,0,-0.002500,0.002679,0.010221,0.0000,NO
48,2.4450,2.4450,0.0500,0.050,APPROACHING,0,948.68,892.17,859.97,10.63,-7.44,31.99,0.94868,0.89217,0.85997,0.18545,-0.12983,0.55827,-0.05202,-0.09108,-0.12622,-0.00333,-0.06985,-0.25957,0.00000,0.00000,0.00000,0.00000,0.00000,0.00000,0.00000,0.00000,0.00000,0.00000,0.00000,0.00000,0.94868,0.89217,0.85997,-0.18545,0.12983,-0.55827,0.05202,0.09108,0.12622,0.00333,0.06985,0.25957,0.0000,,,,0.0104,,,,,,"[1.000, 0.000, 1.000, 0.000, 1.000, 0.000]",0x101010,2.4450,3,0,-0.002428,0.002664,0.009984,0.0000,NO
49,2.4950,2.4950,0.0500,0.050,APPROACHING,0,946.06,887.55,853.58,10.71,-7.50,31.22,0.94606,0.88755,0.85358,0.18698,-0.13085,0.54490,-0.05276,-0.09388,-0.12944,-0.00477,-0.06827,-0.25364,0.00000,0.00000,0.00000,0.00000,0.00000,0.00000,0.00000,0.00000,0.00000,0.00000,0.00000,0.00000,0.94606,0.88755,0.85358,-0.18698,0.13085,-0.54490,0.05276,0.09388,0.12944,0.00477,0.06827,0.25364,0.0000,,,,0.0062,,,,,,"[1.000, 0.000, 1.000, 0.000, 1.000, 0.000]",0x101010,2.4950,3,0,-0.002393,0.002681,0.009779,0.0000,NO
50,2.5450,2.5450,0.0500,0.050,APPROACHING,0,943.41,882.78,847.03,10.80,-7.55,30.47,0.94341,0.88278,0.84703,0.18842,-0.13182,0.53185,-0.05354,-0.09667,-0.13266,-0.00620,-0.06667,-0.24782,0.00000,0.00000,0.00000,0.00000,0.00000,0.00000,0.00000,0.00000,0.00000,0.00000,0.00000,0.00000,0.94341,0.88278,0.84703,-0.18842,0.13182,-0.53185,0.05354,0.09667,0.13266,0.00620,0.06667,0.24782,0.0000,,,,0.0041,,,,,,"[1.000, 0.000, 1.000, 0.000, 1.000, 0.000]",0x101010,2.5450,3,0,-0.002321,0.002662,0.009553,0.0000,NO
51,2.5950,2.5950,0.0500,0.050,APPROACHING,0,940.71,877.88,840.32,10.87,-7.61,29.74,0.94071,0.87788,0.84032,0.18975,-0.13275,0.51908,-0.05435,-0.09943,-0.13589,-0.00758,-0.06509,-0.24214,0.00000,0.00000,0.00000,0.00000,0.00000,0.00000,0.00000,0.00000,0.00000,0.00000,0.00000,0.00000,0.94071,0.87788,0.84032,-0.18975,0.13275,-0.51908,0.05435,0.09943,0.13589,0.00758,0.06509,0.24214,0.0000,,,,0.0084,,,,,,"[1.000, 0.000, 1.000, 0.000, 1.000, 0.000]",0x101010,2.5950,3,0,-0.002317,0.002701,0.009354,0.0000,NO
52,2.6450,2.6450,0.0500,0.050,APPROACHING,0,937.97,872.84,833.44,10.94,-7.66,29.03,0.93797,0.87284,0.83344,0.19100,-0.13364,0.50661,-0.05520,-0.10219,-0.13913,-0.00895,-0.06349,-0.23658,0.00000,0.00000,0.00000,0.00000,0.00000,0.00000,0.00000,0.00000,0.00000,0.00000,0.00000,0.00000,0.93797,0.87284,0.83344,-0.19100,0.13364,-0.50661,0.05520,0.10219,0.13913,0.00895,0.06349,0.23658,0.0000,,,,0.0062,,,,,,"[1.000, 0.000, 1.000, 0.000, 1.000, 0.000]",0x101010,2.6450,3,0,-0.002223,0.002660,0.009134,0.0000,NO
53,2.6950,2.6950,0.0500,0.050,APPROACHING,0,935.19,867.66,826.40,11.01,-7.71,28.33,0.93519,0.86766,0.82640,0.19215,-0.13450,0.49443,-0.05608,-0.10492,-0.14236,-0.01028,-0.06191,-0.23115,0.00000,0.00000,0.00000,0.00000,0.00000,0.00000,0.00000,0.00000,0.00000,0.00000,0.00000,0.00000,0.93519,0.86766,0.82640,-0.19215,0.13450,-0.49443,0.05608,0.10492,0.14236,0.01028,0.06191,0.23115,0.0000,,,,0.0085,,,,,,"[1.000, 0.000, 1.000, 0.000, 1.000, 0.000]",0x101010,2.6950,3,0,-0.002219,0.002695,0.008940,0.0000,NO
54,2.7450,2.7450,0.0500,0.050,APPROACHING,0,932.36,862.35,819.20,11.07,-7.75,27.65,0.93236,0.86235,0.81920,0.19320,-0.13531,0.48252,-0.05699,-0.10765,-0.14561,-0.01159,-0.06031,-0.22584,0.00000,0.00000,0.00000,0.00000,0.00000,0.00000,0.00000,0.00000,0.00000,0.00000,0.00000,0.00000,0.93236,0.86235,0.81920,-0.19320,0.13531,-0.48252,0.05699,0.10765,0.14561,0.01159,0.06031,0.22584,0.0000,,,,0.0063,,,,,,"[1.000, 0.000, 1.000, 0.000, 1.000, 0.000]",0x101010,2.7450,3,0,-0.002141,0.002665,0.008731,0.0000,NO
55,2.7950,2.7950,0.0500,0.050,APPROACHING,0,929.49,856.90,811.84,11.12,-7.80,26.98,0.92949,0.85690,0.81184,0.19416,-0.13608,0.47089,-0.05793,-0.11035,-0.14885,-0.01287,-0.05872,-0.22065,0.00000,0.00000,0.00000,0.00000,0.00000,0.00000,0.00000,0.00000,0.00000,0.00000,0.00000,0.00000,0.92949,0.85690,0.81184,-0.19416,0.13608,-0.47089,0.05793,0.11035,0.14885,0.01287,0.05872,0.22065,0.0000,,,,0.0041,,,,,,"[1.000, 0.000, 0.265, 0.000, 1.000, 0.000]",0x100010,2.7950,3,1,-0.002115,0.002678,0.008540,0.0000,NO
56,2.8450,2.8450,0.0500,0.050,APPROACHING,0,926.57,851.31,804.32,11.17,-7.84,26.33,0.92657,0.85131,0.80432,0.19503,-0.13681,0.45952,-0.05890,-0.11305,-0.15210,-0.01413,-0.05713,-0.21557,0.00000,0.00000,0.00000,0.00000,0.00000,0.00000,0.00000,0.00000,0.00000,0.00000,0.00000,0.00000,0.92657,0.85131,0.80432,-0.19503,0.13681,-0.45952,0.05890,0.11305,0.15210,0.01413,0.05713,0.21557,0.0000,,,,0.0064,,,,,,"[1.000, 0.000, 0.000, 0.000, 1.000, 0.000]",0x100010,2.8450,2,1,-0.002088,0.002688,0.008343,0.0000,NO
57,2.8950,2.8950,0.0500,0.050,APPROACHING,0,923.57,845.65,796.64,11.22,-7.88,25.69,0.92357,0.84565,0.79664,0.19581,-0.13751,0.44842,-0.06104,-0.11355,-0.15487,-0.01537,-0.05553,-0.21061,0.00000,0.00000,0.00000,0.00000,0.00000,0.00000,0.00000,0.00000,0.00000,0.00000,0.00000,0.00000,0.92357,0.84565,0.79664,-0.19581,0.13751,-0.44842,0.06104,0.11355,0.15487,0.01537,0.05553,0.21061,0.0000,,,,0.0081,,,,,,"[1.000, 0.000, 1.000, 0.000, 1.000, 0.000]",0x101010,2.8950,3,1,-0.002004,0.002674,0.008156,0.0000,NO
58,2.9450,2.9450,0.0500,0.050,APPROACHING,0,920.49,839.90,788.82,11.26,-7.92,25.07,0.92049,0.83990,0.78882,0.19651,-0.13816,0.43757,-0.06207,-0.11622,-0.15813,-0.01656,-0.05394,-0.20576,0.00000,0.00000,0.00000,0.00000,0.00000,0.00000,0.00000,0.00000,0.00000,0.00000,0.00000,0.00000,0.92049,0.83990,0.78882,-0.19651,0.13816,-0.43757,0.06207,0.11622,0.15813,0.01656,0.05394,0.20576,0.0000,,,,0.0062,,,,,,"[1.000, 0.000, 1.000, 0.000, 1.000, 0.000]",0x101010,2.9450,3,0,-0.001984,0.002690,0.007969,0.0000,NO
59,2.9950,2.9950,0.0500,0.050,APPROACHING,0,917.36,834.03,780.83,11.29,-7.95,24.46,0.91736,0.83403,0.78083,0.19711,-0.13878,0.42698,-0.06312,-0.11887,-0.16138,-0.01774,-0.05235,-0.20102,0.00000,0.00000,0.00000,0.00000,0.00000,0.00000,0.00000,0.00000,0.00000,0.00000,0.00000,0.00000,0.91736,0.83403,0.78083,-0.19711,0.13878,-0.42698,0.06312,0.11887,0.16138,0.01774,0.05235,0.20102,0.0000,,,,0.0063,,,,,,"[1.000, 0.000, 1.000, 0.000, 1.000, 0.000]",0x101010,2.9950,3,0,-0.001932,0.002672,0.007787,0.0000,NO
60,3.0450,3.0450,0.0500,0.050,APPROACHING,0,914.18,828.02,772.68,11.32,-7.98,23.87,0.91418,0.82802,0.77268,0.19763,-0.13936,0.41663,-0.06421,-0.12150,-0.16464,-0.01889,-0.05076,-0.19639,0.00000,0.00000,0.00000,0.00000,0.00000,0.00000,0.00000,0.00000,0.00000,0.00000,0.00000,0.00000,0.91418,0.82802,0.77268,-0.19763,0.13936,-0.41663,0.06421,0.12150,0.16464,0.01889,0.05076,0.19639,0.0000,,,,0.0083,,,,,,"[1.000, 0.000, 1.000, 0.000, 0.825, 0.000]",0x101010,3.0450,3,1,-0.001909,0.002682,0.007607,0.0000,NO
61,3.0950,3.0950,0.0500,0.050,APPROACHING,0,910.94,821.88,764.37,11.35,-8.02,23.29,0.91094,0.82188,0.76437,0.19806,-0.13990,0.40653,-0.06531,-0.12413,-0.16791,-0.02002,-0.04916,-0.19187,0.00000,0.00000,0.00000,0.00000,0.00000,0.00000,0.00000,0.00000,0.00000,0.00000,0.00000,0.00000,0.91094,0.82188,0.76437,-0.19806,0.13990,-0.40653,0.06531,0.12413,0.16791,0.02002,0.04916,0.19187,0.0000,,,,0.0041,,,,,,"[1.000, 0.000, 0.736, 0.000, 0.001, 0.000]",0x101000,3.0950,2,2,-0.001848,0.002654,0.007431,0.0000,NO
62,3.1450,3.1450,0.0500,0.050,APPROACHING,0,907.65,815.59,755.95,11.37,-8.04,22.73,0.90765,0.81559,0.75595,0.19841,-0.14040,0.39666,-0.06657,-0.12732,-0.16874,-0.02112,-0.04759,-0.18745,0.00000,0.00000,0.00000,0.00000,0.00000,0.00000,0.00000,0.00000,0.00000,0.00000,0.00000,0.00000,0.90765,0.81559,0.75595,-0.19841,0.14040,-0.39666,0.06657,0.12732,0.16874,0.02112,0.04759,0.18745,0.0000,,,,0.0062,,,,,,"[1.000, 0.000, 0.000, 0.000, 0.000, 0.000]",0x100000,3.1450,1,1,-0.001847,0.002670,0.007263,0.0000,NO
63,3.1950,3.1950,0.0500,0.050,APPROACHING,0,904.26,809.20,747.51,11.38,-8.07,22.17,0.90426,0.80920,0.74751,0.19868,-0.14087,0.38702,-0.06886,-0.12827,-0.16909,-0.02222,-0.04600,-0.18313,0.00000,0.00000,0.00000,0.00000,0.00000,0.00000,0.00000,0.00000,0.00000,0.00000,0.00000,0.00000,0.90426,0.80920,0.74751,-0.19868,0.14087,-0.38702,0.06886,0.12827,0.16909,0.02222,0.04600,0.18313,0.0000,,,,0.0040,,,,,,"[1.000, 0.000, 0.000, 0.000, 0.000, 0.000]",0x100000,3.1950,1,0,-0.001705,0.002585,0.007099,0.0000,NO
64,3.2450,3.2450,0.0500,0.050,APPROACHING,0,900.76,802.76,739.04,11.39,-8.10,21.64,0.90076,0.80276,0.73904,0.19887,-0.14130,0.37760,-0.07115,-0.12919,-0.16944,-0.02323,-0.04446,-0.17891,0.00000,0.00000,0.00000,0.00000,0.00000,0.00000,0.00000,0.00000,0.00000,0.00000,0.00000,0.00000,0.90076,0.80276,0.73904,-0.19887,0.14130,-0.37760,0.07115,0.12919,0.16944,0.02323,0.04446,0.17891,0.0000,,,,0.0063,,,,,,"[1.000, 0.000, 0.000, 0.000, 0.000, 0.000]",0x100000,3.2450,1,0,-0.001719,0.002637,0.006940,0.0000,NO
65,3.2950,3.2950,0.0500,0.050,APPROACHING,0,897.15,796.28,730.56,11.40,-8.12,21.11,0.89715,0.79628,0.73056,0.19898,-0.14169,0.36841,-0.07346,-0.13010,-0.16980,-0.02425,-0.04290,-0.17478,0.00000,0.00000,0.00000,0.00000,0.00000,0.00000,0.00000,0.00000,0.00000,0.00000,0.00000,0.00000,0.89715,0.79628,0.73056,-0.19898,0.14169,-0.36841,0.07346,0.13010,0.16980,0.02425,0.04290,0.17478,0.0000,,,,0.0041,,,,,,"[1.000, 0.000, 0.000, 0.000, 0.000, 0.000]",0x100000,3.2950,1,0,-0.001556,0.002529,0.006782,0.0000,NO
66,3.3450,3.3450,0.0500,0.050,APPROACHING,0,893.42,789.75,722.06,11.40,-8.14,20.59,0.89342,0.78975,0.72206,0.19901,-0.14205,0.35944,-0.07577,-0.13098,-0.17015,-0.02518,-0.04139,-0.17075,0.00000,0.00000,0.00000,0.00000,0.00000,0.00000,0.00000,0.00000,0.00000,0.00000,0.00000,0.00000,0.89342,0.78975,0.72206,-0.19901,0.14205,-0.35944,0.07577,0.13098,0.17015,0.02518,0.04139,0.17075,0.0000,,,,0.0041,,,,,,"[1.000, 0.000, 0.000, 0.000, 0.000, 0.000]",0x100000,3.3450,1,0,-0.001579,0.002584,0.006629,0.0000,NO
67,3.3950,3.3950,0.0500,0.050,APPROACHING,0,889.57,783.18,713.55,11.40,-8.16,20.09,0.88957,0.78318,0.71355,0.19897,-0.14237,0.35068,-0.07809,-0.13184,-0.17050,-0.02612,-0.03986,-0.16681,0.00000,0.00000,0.00000,0.00000,0.00000,0.00000,0.00000,0.00000,0.00000,0.00000,0.00000,0.00000,0.88957,0.78318,0.71355,-0.19897,0.14237,-0.35068,0.07809,0.13184,0.17050,0.02612,0.03986,0.16681,0.0000,,,,0.0082,,,,,,"[1.000, 0.000, 0.000, 0.000, 0.000, 0.000]",0x100000,3.3950,1,0,-0.001462,0.002514,0.006478,0.0000,NO
68,3.4450,3.4450,0.0500,0.050,APPROACHING,0,885.61,776.57,705.01,11.39,-8.17,19.60,0.88561,0.77657,0.70501,0.19886,-0.14266,0.34212,-0.08042,-0.13268,-0.17086,-0.02699,-0.03837,-0.16296,0.00000,0.00000,0.00000,0.00000,0.00000,0.00000,0.00000,0.00000,0.00000,0.00000,0.00000,0.00000,0.88561,0.77657,0.70501,-0.19886,0.14266,-0.34212,0.08042,0.13268,0.17086,0.02699,0.03837,0.16296,0.0000,,,,0.0080,,,,,,"[1.000, 0.000, 1.000, 0.000, 0.000, 0.000]",0x101000,3.4450,2,1,-0.001426,0.002511,0.006330,0.0000,NO
69,3.4950,3.4950,0.0500,0.050,APPROACHING,0,881.55,769.86,696.45,11.38,-8.19,19.12,0.88155,0.76986,0.69645,0.19868,-0.14291,0.33377,-0.08187,-0.13579,-0.17170,-0.02784,-0.03687,-0.15920,0.00000,0.00000,0.00000,0.00000,0.00000,0.00000,0.00000,0.00000,0.00000,0.00000,0.00000,0.00000,0.88155,0.76986,0.69645,-0.19868,0.14291,-0.33377,0.08187,0.13579,0.17170,0.02784,0.03687,0.15920,0.0000,,,,0.0042,,,,,,"[1.000, 0.000, 0.881, 0.000, 0.000, 0.000]",0x101000,3.4950,2,1,-0.001350,0.002450,0.006185,0.0000,NO
70,3.5450,3.5450,0.0500,0.050,APPROACHING,0,877.42,762.99,687.84,11.37,-8.20,18.66,0.87742,0.76299,0.68784,0.19843,-0.14313,0.32562,-0.08335,-0.13889,-0.17255,-0.02864,-0.03542,-0.15552,0.00000,0.00000,0.00000,0.00000,0.00000,0.00000,0.00000,0.00000,0.00000,0.00000,0.00000,0.00000,0.87742,0.76299,0.68784,-0.19843,0.14313,-0.32562,0.08335,0.13889,0.17255,0.02864,0.03542,0.15552,0.0000,,,,0.0061,,,,,,"[1.000, 0.000, 0.000, 0.000, 0.000, 0.000]",0x100000,3.5450,1,1,-0.001369,0.002467,0.006041,0.0000,NO
71,3.5950,3.5950,0.0500,0.050,APPROACHING,0,873.19,756.03,679.21,11.35,-8.21,18.20,0.87319,0.75603,0.67921,0.19811,-0.14332,0.31766,-0.08570,-0.13967,-0.17290,-0.02945,-0.03395,-0.15193,0.00000,0.00000,0.00000,0.00000,0.00000,0.00000,0.00000,0.00000,0.00000,0.00000,0.00000,0.00000,0.87319,0.75603,0.67921,-0.19811,0.14332,-0.31766,0.08570,0.13967,0.17290,0.02945,0.03395,0.15193,0.0000,,,,0.0040,,,,,,"[1.000, 0.000, 0.000, 0.000, 0.000, 0.000]",0x100000,3.5950,1,0,-0.001238,0.002378,0.005903,0.0000,NO
72,3.6450,3.6450,0.0500,0.050,APPROACHING,0,868.85,749.02,670.55,11.33,-8.22,17.76,0.86885,0.74902,0.67055,0.19773,-0.14347,0.30989,-0.08805,-0.14044,-0.17326,-0.03019,-0.03254,-0.14842,0.00000,0.00000,0.00000,0.00000,0.00000,0.00000,0.00000,0.00000,0.00000,0.00000,0.00000,0.00000,0.86885,0.74902,0.67055,-0.19773,0.14347,-0.30989,0.08805,0.14044,0.17326,0.03019,0.03254,0.14842,0.0000,,,,0.0062,,,,,,"[1.000, 0.000, 0.000, 0.000, 0.000, 0.000]",0x100000,3.6450,1,0,-0.001271,0.002432,0.005767,0.0000,NO
73,3.6950,3.6950,0.0500,0.050,APPROACHING,0,864.39,741.98,661.88,11.30,-8.23,17.32,0.86439,0.74198,0.66188,0.19729,-0.14359,0.30231,-0.09041,-0.14118,-0.17362,-0.03095,-0.03109,-0.14499,0.00000,0.00000,0.00000,0.00000,0.00000,0.00000,0.00000,0.00000,0.00000,0.00000,0.00000,0.00000,0.86439,0.74198,0.66188,-0.19729,0.14359,-0.30231,0.09041,0.14118,0.17362,0.03095,0.03109,0.14499,0.0000,,,,0.0041,,,,,,"[1.000, 0.000, 0.000, 0.000, 0.000, 0.000]",0x100000,3.6950,1,0,-0.001119,0.002320,0.005635,0.0000,NO
74,3.7450,3.7450,0.0500,0.050,APPROACHING,0,859.81,734.91,653.19,11.27,-8.23,16.90,0.85981,0.73491,0.65319,0.19678,-0.14368,0.29490,-0.09278,-0.14191,-0.17398,-0.03161,-0.02971,-0.14164,0.00000,0.00000,0.00000,0.00000,0.00000,0.00000,0.00000,0.00000,0.00000,0.00000,0.00000,0.00000,0.85981,0.73491,0.65319,-0.19678,0.14368,-0.29490,0.09278,0.14191,0.17398,0.03161,0.02971,0.14164,0.0000,,,,0.0064,,,,,,"[1.000, 0.000, 0.000, 0.000, 0.000, 0.000]",0x100000,3.7450,1,0,-0.001174,0.002391,0.005504,0.0000,NO
75,3.7950,3.7950,0.0500,0.050,APPROACHING,0,855.11,727.79,644.48,11.24,-8.24,16.48,0.85511,0.72779,0.64448,0.19622,-0.14374,0.28768,-0.09514,-0.14262,-0.17434,-0.03231,-0.02829,-0.13837,0.00000,0.00000,0.00000,0.00000,0.00000,0.00000,0.00000,0.00000,0.00000,0.00000,0.00000,0.00000,0.85511,0.72779,0.64448,-0.19622,0.14374,-0.28768,0.09514,0.14262,0.17434,0.03231,0.02829,0.13837,0.0000,,,,0.0040,,,,,,"[1.000, 0.000, 0.000, 0.000, 0.000, 0.000]",0x100000,3.7950,1,0,-0.001011,0.002264,0.005378,0.0000,NO
76,3.8450,3.8450,0.0500,0.050,APPROACHING,0,850.29,720.64,635.76,11.21,-8.24,16.08,0.85029,0.72064,0.63576,0.19560,-0.14376,0.28063,-0.09752,-0.14332,-0.17469,-0.03291,-0.02695,-0.13517,0.00000,0.00000,0.00000,0.00000,0.00000,0.00000,0.00000,0.00000,0.00000,0.00000,0.00000,0.00000,0.85029,0.72064,0.63576,-0.19560,0.14376,-0.28063,0.09752,0.14332,0.17469,0.03291,0.02695,0.13517,0.0000,,,,0.0063,,,,,,"[1.000, 0.000, 0.000, 0.000, 0.000, 0.000]",0x100000,3.8450,1,0,-0.001081,0.002347,0.005253,0.0000,NO
77,3.8950,3.8950,0.0500,0.050,APPROACHING,0,845.36,713.46,627.01,11.17,-8.24,15.68,0.84536,0.71346,0.62701,0.19492,-0.14375,0.27375,-0.09990,-0.14399,-0.17505,-0.03355,-0.02555,-0.13204,0.00000,0.00000,0.00000,0.00000,0.00000,0.00000,0.00000,0.00000,0.00000,0.00000,0.00000,0.00000,0.84536,0.71346,0.62701,-0.19492,0.14375,-0.27375,0.09990,0.14399,0.17505,0.03355,0.02555,0.13204,0.0000,,,,0.0041,,,,,,"[1.000, 0.000, 0.000, 0.000, 0.000, 0.000]",0x100000,3.8950,1,0,-0.000912,0.002210,0.005133,0.0000,NO
78,3.9450,3.9450,0.0500,0.050,APPROACHING,0,840.30,706.25,618.25,11.13,-8.23,15.30,0.84030,0.70625,0.61825,0.19419,-0.14371,0.26704,-0.10228,-0.14466,-0.17541,-0.03410,-0.02424,-0.12899,0.00000,0.00000,0.00000,0.00000,0.00000,0.00000,0.00000,0.00000,0.00000,0.00000,0.00000,0.00000,0.84030,0.70625,0.61825,-0.19419,0.14371,-0.26704,0.10228,0.14466,0.17541,0.03410,0.02424,0.12899,0.0000,,,,0.0061,,,,,,"[1.000, 0.000, 0.000, 0.000, 0.000, 0.000]",0x100000,3.9450,1,0,-0.000993,0.002301,0.005012,0.0000,NO
79,3.9950,3.9950,0.0500,0.050,APPROACHING,0,835.13,699.00,609.47,11.08,-8.23,14.93,0.83513,0.69900,0.60947,0.19341,-0.14364,0.26049,-0.10467,-0.14530,-0.17577,-0.03469,-0.02287,-0.12601,0.00000,0.00000,0.00000,0.00000,0.00000,0.00000,0.00000,0.00000,0.00000,0.00000,0.00000,0.00000,0.83513,0.69900,0.60947,-0.19341,0.14364,-0.26049,0.10467,0.14530,0.17577,0.03469,0.02287,0.12601,0.0000,,,,0.0041,,,,,,"[1.000, 0.000, 0.000, 0.000, 0.000, 0.000]",0x100000,3.9950,1,0,-0.000821,0.002157,0.004898,0.0000,NO
80,4.0450,4.0450,0.0500,0.050,APPROACHING,0,829.84,691.72,600.67,11.03,-8.22,14.56,0.82984,0.69172,0.60067,0.19258,-0.14354,0.25410,-0.10706,-0.14593,-0.17613,-0.03518,-0.02159,-0.12310,0.00000,0.00000,0.00000,0.00000,0.00000,0.00000,0.00000,0.00000,0.00000,0.00000,0.00000,0.00000,0.82984,0.69172,0.60067,-0.19258,0.14354,-0.25410,0.10706,0.14593,0.17613,0.03518,0.02159,0.12310,0.0000,,,,0.0042,,,,,,"[1.000, 0.000, 0.000, 0.000, 0.000, 0.000]",0x100000,4.0450,1,0,-0.000893,0.002238,0.004782,0.0000,NO
81,4.0950,4.0950,0.0500,0.050,APPROACHING,0,824.42,684.40,591.86,10.98,-8.22,14.20,0.82442,0.68440,0.59186,0.19170,-0.14340,0.24786,-0.10946,-0.14655,-0.17648,-0.03571,-0.02026,-0.12026,0.00000,0.00000,0.00000,0.00000,0.00000,0.00000,0.00000,0.00000,0.00000,0.00000,0.00000,0.00000,0.82442,0.68440,0.59186,-0.19170,0.14340,-0.24786,0.10946,0.14655,0.17648,0.03571,0.02026,0.12026,0.0000,,,,0.0062,,,,,,"[1.000, 0.000, 0.000, 0.000, 0.000, 0.000]",0x100000,4.0950,1,0,-0.000778,0.002145,0.004672,0.0000,NO
82,4.1450,4.1450,0.0500,0.050,APPROACHING,0,818.89,677.06,583.03,10.93,-8.21,13.85,0.81889,0.67706,0.58303,0.19077,-0.14323,0.24178,-0.11186,-0.14715,-0.17684,-0.03617,-0.01898,-0.11748,0.00000,0.00000,0.00000,0.00000,0.00000,0.00000,0.00000,0.00000,0.00000,0.00000,0.00000,0.00000,0.81889,0.67706,0.58303,-0.19077,0.14323,-0.24178,0.11186,0.14715,0.17684,0.03617,0.01898,0.11748,0.0000,,,,0.0058,,,,,,"[1.000, 0.000, 0.000, 0.000, 0.000, 0.000]",0x100000,4.1450,1,0,-0.000768,0.002145,0.004563,0.0000,NO
83,4.1950,4.1950,0.0500,0.050,APPROACHING,0,813.24,669.69,574.17,10.87,-8.20,13.51,0.81324,0.66969,0.57417,0.18980,-0.14304,0.23584,-0.11427,-0.14773,-0.17720,-0.03663,-0.01771,-0.11477,0.00000,0.00000,0.00000,0.00000,0.00000,0.00000,0.00000,0.00000,0.00000,0.00000,0.00000,0.00000,0.81324,0.66969,0.57417,-0.18980,0.14304,-0.23584,0.11427,0.14773,0.17720,0.03663,0.01771,0.11477,0.0000,,,,0.0041,,,,,,"[1.000, 0.000, 0.000, 0.000, 0.000, 0.000]",0x100000,4.1950,1,0,-0.000721,0.002114,0.004457,0.0000,NO
84,4.2450,4.2450,0.0500,0.050,APPROACHING,0,807.46,662.29,565.31,10.82,-8.18,13.18,0.80746,0.66229,0.56531,0.18878,-0.14281,0.23005,-0.11667,-0.14831,-0.17755,-0.03706,-0.01645,-0.11212,0.00000,0.00000,0.00000,0.00000,0.00000,0.00000,0.00000,0.00000,0.00000,0.00000,0.00000,0.00000,0.80746,0.66229,0.56531,-0.18878,0.14281,-0.23005,0.11667,0.14831,0.17755,0.03706,0.01645,0.11212,0.0000,,,,0.0062,,,,,,"[1.000, 0.000, 0.000, 0.000, 0.000, 0.000]",0x100000,4.2450,1,0,-0.000706,0.002109,0.004353,0.0000,NO
85,4.2950,4.2950,0.0500,0.050,APPROACHING,0,801.57,654.86,556.42,10.76,-8.17,12.86,0.80157,0.65486,0.55642,0.18772,-0.14255,0.22441,-0.11908,-0.14886,-0.17791,-0.03748,-0.01520,-0.10953,0.00000,0.00000,0.00000,0.00000,0.00000,0.00000,0.00000,0.00000,0.00000,0.00000,0.00000,0.00000,0.80157,0.65486,0.55642,-0.18772,0.14255,-0.22441,0.11908,0.14886,0.17791,0.03748,0.01520,0.10953,0.0000,,,,0.0063,,,,,,"[1.000, 0.000, 0.000, 0.000, 0.000, 0.000]",0x100000,4.2950,1,0,-0.000638,0.002053,0.004252,0.0000,NO
86,4.3450,4.3450,0.0500,0.050,APPROACHING,0,795.55,647.40,547.51,10.69,-8.15,12.54,0.79555,0.64740,0.54751,0.18662,-0.14226,0.21890,-0.12150,-0.14941,-0.17826,-0.03785,-0.01398,-0.10700,0.00000,0.00000,0.00000,0.00000,0.00000,0.00000,0.00000,0.00000,0.00000,0.00000,0.00000,0.00000,0.79555,0.64740,0.54751,-0.18662,0.14226,-0.21890,0.12150,0.14941,0.17826,0.03785,0.01398,0.10700,0.0000,,,,0.0040,,,,,,"[1.000, 0.000, 0.000, 0.000, 0.000, 0.000]",0x100000,4.3450,1,0,-0.000616,0.002039,0.004153,0.0000,NO
87,4.3950,4.3950,0.0500,0.050,APPROACHING,0,789.42,639.92,538.59,10.63,-8.13,12.23,0.78942,0.63992,0.53859,0.18548,-0.14194,0.21352,-0.12391,-0.14994,-0.17862,-0.03822,-0.01277,-0.10453,0.00000,0.00000,0.00000,0.00000,0.00000,0.00000,0.00000,0.00000,0.00000,0.00000,0.00000,0.00000,0.78942,0.63992,0.53859,-0.18548,0.14194,-0.21352,0.12391,0.14994,0.17862,0.03822,0.01277,0.10453,0.0000,,,,0.0062,,,,,,"[1.000, 0.000, 0.000, 0.000, 0.000, 0.000]",0x100000,4.3950,1,0,-0.000601,0.002035,0.004055,0.0000,NO
88,4.4450,4.4450,0.0500,0.050,APPROACHING,0,783.16,632.41,529.65,10.56,-8.11,11.93,0.78316,0.63241,0.52965,0.18430,-0.14159,0.20828,-0.12633,-0.15046,-0.17897,-0.03858,-0.01156,-0.10212,0.00000,0.00000,0.00000,0.00000,0.00000,0.00000,0.00000,0.00000,0.00000,0.00000,0.00000,0.00000,0.78316,0.63241,0.52965,-0.18430,0.14159,-0.20828,0.12633,0.15046,0.17897,0.03858,0.01156,0.10212,0.0000,,,,0.0063,,,,,,"[1.000, 0.000, 0.000, 0.000, 0.000, 0.000]",0x100000,4.4450,1,0,-0.000540,0.001979,0.003962,0.0000,NO
89,4.4950,4.4950,0.0500,0.050,APPROACHING,0,776.79,624.87,520.70,10.49,-8.09,11.64,0.77679,0.62487,0.52070,0.18308,-0.14120,0.20316,-0.12876,-0.15097,-0.17932,-0.03890,-0.01038,-0.09976,0.00000,0.00000,0.00000,0.00000,0.00000,0.00000,0.00000,0.00000,0.00000,0.00000,0.00000,0.00000,0.77679,0.62487,0.52070,-0.18308,0.14120,-0.20316,0.12876,0.15097,0.17932,0.03890,0.01038,0.09976,0.0000,,,,0.0041,,,,,,"[1.000, 0.000, 0.000, 0.000, 0.000, 0.000]",0x100000,4.4950,1,0,-0.000519,0.001966,0.003869,0.0000,NO
90,4.5450,4.5450,0.0500,0.050,APPROACHING,0,770.29,617.31,511.72,10.42,-8.07,11.35,0.77029,0.61731,0.51172,0.18183,-0.14079,0.19818,-0.13118,-0.15146,-0.17967,-0.03921,-0.00921,-0.09746,0.00000,0.00000,0.00000,0.00000,0.00000,0.00000,0.00000,0.00000,0.00000,0.00000,0.00000,0.00000,0.77029,0.61731,0.51172,-0.18183,0.14079,-0.19818,0.13118,0.15146,0.17967,0.03921,0.00921,0.09746,0.0000,,,,0.0062,,,,,,"[1.000, 0.000, 0.000, 0.000, 0.000, 0.000]",0x100000,4.5450,1,0,-0.000509,0.001962,0.003778,0.0000,NO
91,4.5950,4.5950,0.0500,0.050,APPROACHING,0,763.67,609.73,502.73,10.34,-8.04,11.08,0.76367,0.60973,0.50273,0.18054,-0.14035,0.19331,-0.13361,-0.15194,-0.18002,-0.03951,-0.00805,-0.09522,0.00000,0.00000,0.00000,0.00000,0.00000,0.00000,0.00000,0.00000,0.00000,0.00000,0.00000,0.00000,0.76367,0.60973,0.50273,-0.18054,0.14035,-0.19331,0.13361,0.15194,0.18002,0.03951,0.00805,0.09522,0.0000,,,,0.0063,,,,,,"[1.000, 0.000, 0.000, 0.000, 0.000, 0.000]",0x100000,4.5950,1,0,-0.000450,0.001906,0.003691,0.0000,NO
92,4.6450,4.6450,0.0500,0.050,APPROACHING,0,756.93,602.12,493.72,10.27,-8.01,10.80,0.75693,0.60212,0.49372,0.17922,-0.13987,0.18857,-0.13604,-0.15241,-0.18037,-0.03978,-0.00691,-0.09302,0.00000,0.00000,0.00000,0.00000,0.00000,0.00000,0.00000,0.00000,0.00000,0.00000,0.00000,0.00000,0.75693,0.60212,0.49372,-0.17922,0.13987,-0.18857,0.13604,0.15241,0.18037,0.03978,0.00691,0.09302,0.0000,,,,0.0062,,,,,,"[1.000, 0.000, 0.000, 0.000, 0.000, 0.000]",0x100000,4.6450,1,0,-0.000447,0.001908,0.003604,0.0000,NO
93,4.6950,4.6950,0.0500,0.050,APPROACHING,0,750.06,594.49,484.69,10.19,-7.99,10.54,0.75006,0.59449,0.48469,0.17787,-0.13937,0.18394,-0.13847,-0.15287,-0.18072,-0.04005,-0.00578,-0.09088,0.00000,0.00000,0.00000,0.00000,0.00000,0.00000,0.00000,0.00000,0.00000,0.00000,0.00000,0.00000,0.75006,0.59449,0.48469,-0.17787,0.13937,-0.18394,0.13847,0.15287,0.18072,0.04005,0.00578,0.09088,0.0000,,,,0.0063,,,,,,"[1.000, 0.000, 0.000, 0.000, 0.000, 0.000]",0x100000,4.6950,1,0,-0.000400,0.001862,0.003521,0.0000,NO
94,4.7450,4.7450,0.0500,0.050,APPROACHING,0,743.08,586.83,475.65,10.11,-7.95,10.28,0.74308,0.58683,0.47565,0.17649,-0.13883,0.17943,-0.14091,-0.15332,-0.18107,-0.04028,-0.00467,-0.08879,0.00000,0.00000,0.00000,0.00000,0.00000,0.00000,0.00000,0.00000,0.00000,0.00000,0.00000,0.00000,0.74308,0.58683,0.47565,-0.17649,0.13883,-0.17943,0.14091,0.15332,0.18107,0.04028,0.00467,0.08879,0.0000,,,,0.0040,,,,,,"[1.000, 0.000, 0.000, 0.000, 0.000, 0.000]",0x100000,4.7450,1,0,-0.000377,0.001841,0.003438,0.0000,NO
95,4.7950,4.7950,0.0500,0.050,APPROACHING,0,735.97,579.15,466.58,10.03,-7.92,10.03,0.73597,0.57915,0.46658,0.17508,-0.13827,0.17503,-0.14335,-0.15376,-0.18141,-0.04051,-0.00358,-0.08674,0.00000,0.00000,0.00000,0.00000,0.00000,0.00000,0.00000,0.00000,0.00000,0.00000,0.00000,0.00000,0.73597,0.57915,0.46658,-0.17508,0.13827,-0.17503,0.14335,0.15376,0.18141,0.04051,0.00358,0.08674,0.0000,,,,0.0062,,,,,,"[1.000, 0.000, 0.000, 0.000, 0.000, 0.000]",0x100000,4.7950,1,0,-0.000377,0.001846,0.003357,0.0000,NO
96,4.8450,4.8450,0.0500,0.050,APPROACHING,0,728.74,571.45,457.50,9.95,-7.89,9.78,0.72874,0.57145,0.45750,0.17363,-0.13767,0.17074,-0.14579,-0.15418,-0.18176,-0.04073,-0.00248,-0.08475,0.00000,0.00000,0.00000,0.00000,0.00000,0.00000,0.00000,0.00000,0.00000,0.00000,0.00000,0.00000,0.72874,0.57145,0.45750,-0.17363,0.13767,-0.17074,0.14579,0.15418,0.18176,0.04073,0.00248,0.08475,0.0000,,,,0.0063,,,,,,"[1.000, 0.000, 0.000, 0.000, 0.000, 0.000]",0x100000,4.8450,1,0,-0.000320,0.001783,0.003280,0.0000,NO
97,4.8950,4.8950,0.0500,0.050,APPROACHING,0,721.39,563.74,448.41,9.86,-7.85,9.54,0.72139,0.56374,0.44841,0.17217,-0.13705,0.16656,-0.14823,-0.15460,-0.18210,-0.04092,-0.00142,-0.08280,0.00000,0.00000,0.00000,0.00000,0.00000,0.00000,0.00000,0.00000,0.00000,0.00000,0.00000,0.00000,0.72139,0.56374,0.44841,-0.17217,0.13705,-0.16656,0.14823,0.15460,0.18210,0.04092,0.00142,0.08280,0.0000,,,,0.0063,,,,,,"[1.000, 0.000, 0.000, 0.000, 0.000, 0.000]",0x100000,4.8950,1,0,-0.000324,0.001791,0.003203,0.0000,NO
98,4.9450,4.9450,0.0500,0.050,APPROACHING,0,713.92,556.00,439.29,9.78,-7.81,9.31,0.71392,0.55600,0.43929,0.17067,-0.13639,0.16248,-0.15067,-0.15500,-0.18244,-0.04112,-0.00036,-0.08089,0.00000,0.00000,0.00000,0.00000,0.00000,0.00000,0.00000,0.00000,0.00000,0.00000,0.00000,0.00000,0.71392,0.55600,0.43929,-0.17067,0.13639,-0.16248,0.15067,0.15500,0.18244,0.04112,0.00036,0.08089,0.0000,,,,0.0063,,,,,,"[1.000, 0.000, 0.000, 0.000, 0.000, 0.000]",0x100000,4.9450,1,0,-0.000279,0.001743,0.003129,0.0000,NO
99,4.9950,4.9950,0.0500,0.050,APPROACHING,0,706.33,548.24,430.16,9.69,-7.78,9.08,0.70633,0.54824,0.43016,0.16915,-0.13571,0.15851,-0.15311,-0.15540,-0.18278,-0.04128,0.00068,-0.07903,0.00000,0.00000,0.00000,0.00000,0.00000,0.00000,0.00000,0.00000,0.00000,0.00000,0.00000,0.00000,0.70633,0.54824,0.43016,-0.16915,0.13571,-0.15851,0.15311,0.15540,0.18278,0.04128,-0.00068,0.07903,0.0000,,,,0.0063,,,,,,"[1.000, 0.000, 0.000, 0.000, 0.000, 0.000]",0x100000,4.9950,1,0,-0.000276,0.001740,0.003056,0.0000,NO
100,5.0450,5.0450,0.0500,0.050,APPROACHING,0,698.61,540.46,421.02,9.60,-7.73,8.86,0.69861,0.54046,0.42102,0.16760,-0.13500,0.15463,-0.15556,-0.15579,-0.18312,-0.04145,0.00171,-0.07721,0.00000,0.00000,0.00000,0.00000,0.00000,0.00000,0.00000,0.00000,0.00000,0.00000,0.00000,0.00000,0.69861,0.54046,0.42102,-0.16760,0.13500,-0.15463,0.15556,0.15579,0.18312,0.04145,-0.00171,0.07721,0.0000,,,,0.0063,,,,,,"[1.000, 0.000, 0.000, 0.000, 0.000, 0.000]",0x100000,5.0450,1,0,-0.000241,0.001700,0.002985,0.0000,NO
101,5.0950,5.0950,0.0500,0.050,APPROACHING,0,690.77,532.66,411.85,9.51,-7.69,8.64,0.69077,0.53266,0.41185,0.16604,-0.13425,0.15085,-0.15801,-0.15616,-0.18345,-0.04159,0.00273,-0.07544,0.00000,0.00000,0.00000,0.00000,0.00000,0.00000,0.00000,0.00000,0.00000,0.00000,0.00000,0.00000,0.69077,0.53266,0.41185,-0.16604,0.13425,-0.15085,0.15801,0.15616,0.18345,0.04159,-0.00273,0.07544,0.0000,,,,0.0040,,,,,,"[0.000, 0.000, 0.000, 0.000, 0.000, 0.000]",0x000000,5.0950,0,1,-0.000220,0.001676,0.002916,0.0000,NO
102,5.1450,5.1450,0.0500,0.050,APPROACHING,0,682.87,524.85,402.68,9.42,-7.65,8.43,0.68287,0.52485,0.40268,0.16444,-0.13348,0.14717,-0.15801,-0.15616,-0.18345,-0.04172,0.00372,-0.07371,0.00000,0.00000,0.00000,0.00000,0.00000,0.00000,0.00000,0.00000,0.00000,0.00000,0.00000,0.00000,0.68287,0.52485,0.40268,-0.16444,0.13348,-0.14717,0.15801,0.15616,0.18345,0.04172,-0.00372,0.07371,0.0000,,,,0.0058,,,,,,"[0.000, 0.000, 0.000, 0.000, 0.000, 0.000]",0x000000,5.1450,0,0,-0.000217,0.001662,0.002848,0.0000,NO
103,5.1950,5.1950,0.0500,0.050,APPROACHING,0,674.97,517.04,393.51,9.33,-7.60,8.23,0.67497,0.51704,0.39351,0.16283,-0.13268,0.14358,-0.15801,-0.15616,-0.18345,-0.04185,0.00471,-0.07201,0.00000,0.00000,0.00000,0.00000,0.00000,0.00000,0.00000,0.00000,0.00000,0.00000,0.00000,0.00000,0.67497,0.51704,0.39351,-0.16283,0.13268,-0.14358,0.15801,0.15616,0.18345,0.04185,-0.00471,0.07201,0.0000,,,,0.0040,,,,,,"[0.000, 0.000, 0.000, 0.000, 0.000, 0.000]",0x000000,5.1950,0,0,-0.000193,0.001619,0.002782,0.0000,NO
104,5.2450,5.2450,0.0500,0.050,APPROACHING,0,667.07,509.23,384.33,9.24,-7.55,8.03,0.66707,0.50923,0.38433,0.16120,-0.13185,0.14008,-0.15801,-0.15616,-0.18345,-0.04197,0.00567,-0.07036,0.00000,0.00000,0.00000,0.00000,0.00000,0.00000,0.00000,0.00000,0.00000,0.00000,0.00000,0.00000,0.66707,0.50923,0.38433,-0.16120,0.13185,-0.14008,0.15801,0.15616,0.18345,0.04197,-0.00567,0.07036,0.0000,,,,0.0040,,,,,,"[0.000, 0.000, 0.000, 0.000, 0.000, 0.000]",0x000000,5.2450,0,0,-0.000185,0.001599,0.002717,0.0000,NO
105,5.2950,5.2950,0.0500,0.050,APPROACHING,0,659.17,501.42,375.16,9.14,-7.51,7.83,0.65917,0.50142,0.37516,0.15954,-0.13099,0.13666,-0.15801,-0.15616,-0.18345,-0.04208,0.00662,-0.06874,0.00000,0.00000,0.00000,0.00000,0.00000,0.00000,0.00000,0.00000,0.00000,0.00000,0.00000,0.00000,0.65917,0.50142,0.37516,-0.15954,0.13099,-0.13666,0.15801,0.15616,0.18345,0.04208,-0.00662,0.06874,0.0000,,,,0.0041,,,,,,"[0.000, 0.000, 0.000, 0.000, 0.000, 0.000]",0x000000,5.2950,0,0,-0.000166,0.001562,0.002655,0.0000,NO
106,5.3450,5.3450,0.0500,0.050,APPROACHING,0,651.27,493.62,365.99,9.05,-7.45,7.64,0.65127,0.49362,0.36599,0.15787,-0.13010,0.13334,-0.15801,-0.15616,-0.18345,-0.04218,0.00755,-0.06716,0.00000,0.00000,0.00000,0.00000,0.00000,0.00000,0.00000,0.00000,0.00000,0.00000,0.00000,0.00000,0.65127,0.49362,0.36599,-0.15787,0.13010,-0.13334,0.15801,0.15616,0.18345,0.04218,-0.00755,0.06716,0.0000,,,,0.0040,,,,,,"[0.000, 0.000, 0.000, 0.000, 0.000, 0.000]",0x000000,5.3450,0,0,-0.000156,0.001539,0.002594,0.0000,NO
107,5.3950,5.3950,0.0500,0.050,APPROACHING,0,643.37,485.81,356.82,8.95,-7.40,7.45,0.64337,0.48581,0.35682,0.15618,-0.12919,0.13009,-0.15801,-0.15616,-0.18345,-0.04227,0.00847,-0.06562,0.00000,0.00000,0.00000,0.00000,0.00000,0.00000,0.00000,0.00000,0.00000,0.00000,0.00000,0.00000,0.64337,0.48581,0.35682,-0.15618,0.12919,-0.13009,0.15801,0.15616,0.18345,0.04227,-0.00847,0.06562,0.0000,,,,0.0041,,,,,,"[0.000, 0.000, 0.000, 0.000, 0.000, 0.000]",0x000000,5.3950,0,0,-0.000139,0.001506,0.002534,0.0000,NO
108,5.4450,5.4450,0.0500,0.050,APPROACHING,0,635.47,478.00,347.64,8.85,-7.35,7.27,0.63547,0.47800,0.34764,0.15447,-0.12825,0.12693,-0.15801,-0.15616,-0.18345,-0.04235,0.00936,-0.06412,0.00000,0.00000,0.00000,0.00000,0.00000,0.00000,0.00000,0.00000,0.00000,0.00000,0.00000,0.00000,0.63547,0.47800,0.34764,-0.15447,0.12825,-0.12693,0.15801,0.15616,0.18345,0.04235,-0.00936,0.06412,0.0000,,,,0.0041,,,,,,"[0.000, 0.000, 0.000, 0.000, 0.000, 0.000]",0x000000,5.4450,0,0,-0.000129,0.001482,0.002476,0.0000,NO
109,5.4950,5.4950,0.0500,0.050,APPROACHING,0,627.57,470.19,338.47,8.75,-7.29,7.10,0.62757,0.47019,0.33847,0.15274,-0.12728,0.12385,-0.15801,-0.15616,-0.18345,-0.04243,0.01024,-0.06264,0.00000,0.00000,0.00000,0.00000,0.00000,0.00000,0.00000,0.00000,0.00000,0.00000,0.00000,0.00000,0.62757,0.47019,0.33847,-0.15274,0.12728,-0.12385,0.15801,0.15616,0.18345,0.04243,-0.01024,0.06264,0.0000,,,,0.0040,,,,,,"[0.000, 0.000, 0.000, 0.000, 0.000, 0.000]",0x000000,5.4950,0,0,-0.000115,0.001452,0.002419,0.0000,NO
110,5.5450,5.5450,0.0500,0.050,APPROACHING,0,619.67,462.38,329.30,8.65,-7.24,6.92,0.61967,0.46238,0.32930,0.15100,-0.12628,0.12084,-0.15801,-0.15616,-0.18345,-0.04250,0.01110,-0.06121,0.00000,0.00000,0.00000,0.00000,0.00000,0.00000,0.00000,0.00000,0.00000,0.00000,0.00000,0.00000,0.61967,0.46238,0.32930,-0.15100,0.12628,-0.12084,0.15801,0.15616,0.18345,0.04250,-0.01110,0.06121,0.0000,,,,0.0041,,,,,,"[0.000, 0.000, 0.000, 0.000, 0.000, 0.000]",0x000000,5.5450,0,0,-0.000104,0.001428,0.002363,0.0000,NO
111,5.5950,5.5950,0.0500,0.050,APPROACHING,0,611.77,454.57,320.13,8.55,-7.18,6.76,0.61177,0.45457,0.32013,0.14924,-0.12526,0.11792,-0.15801,-0.15616,-0.18345,-0.04256,0.01195,-0.05980,0.00000,0.00000,0.00000,0.00000,0.00000,0.00000,0.00000,0.00000,0.00000,0.00000,0.00000,0.00000,0.61177,0.45457,0.32013,-0.14924,0.12526,-0.11792,0.15801,0.15616,0.18345,0.04256,-0.01195,0.05980,0.0000,,,,0.0041,,,,,,"[0.000, 0.000, 0.000, 0.000, 0.000, 0.000]",0x000000,5.5950,0,0,-0.000091,0.001400,0.002309,0.0000,NO
112,5.6450,5.6450,0.0500,0.050,APPROACHING,0,603.87,446.77,310.95,8.45,-7.12,6.59,0.60387,0.44677,0.31095,0.14747,-0.12421,0.11506,-0.15801,-0.15616,-0.18345,-0.04261,0.01279,-0.05843,0.00000,0.00000,0.00000,0.00000,0.00000,0.00000,0.00000,0.00000,0.00000,0.00000,0.00000,0.00000,0.60387,0.44677,0.31095,-0.14747,0.12421,-0.11506,0.15801,0.15616,0.18345,0.04261,-0.01279,0.05843,0.0000,,,,0.0041,,,,,,"[0.000, 0.000, 0.000, 0.000, 0.000, 0.000]",0x000000,5.6450,0,0,-0.000080,0.001376,0.002256,0.0000,NO
113,5.6950,5.6950,0.0500,0.050,APPROACHING,0,595.96,438.96,301.78,8.35,-7.06,6.43,0.59596,0.43896,0.30178,0.14568,-0.12314,0.11228,-0.15801,-0.15616,-0.18345,-0.04266,0.01360,-0.05709,0.00000,0.00000,0.00000,0.00000,0.00000,0.00000,0.00000,0.00000,0.00000,0.00000,0.00000,0.00000,0.59596,0.43896,0.30178,-0.14568,0.12314,-0.11228,0.15801,0.15616,0.18345,0.04266,-0.01360,0.05709,0.0000,,,,0.0041,,,,,,"[0.000, 0.000, 0.000, 0.000, 0.000, 0.000]",0x000000,5.6950,0,0,-0.000068,0.001350,0.002205,0.0000,NO
114,5.7450,5.7450,0.0500,0.050,APPROACHING,0,588.06,431.15,292.61,8.24,-6.99,6.28,0.58806,0.43115,0.29261,0.14387,-0.12204,0.10957,-0.15801,-0.15616,-0.18345,-0.04270,0.01441,-0.05577,0.00000,0.00000,0.00000,0.00000,0.00000,0.00000,0.00000,0.00000,0.00000,0.00000,0.00000,0.00000,0.58806,0.43115,0.29261,-0.14387,0.12204,-0.10957,0.15801,0.15616,0.18345,0.04270,-0.01441,0.05577,0.0000,,,,0.0042,,,,,,"[0.000, 0.000, 0.000, 0.000, 0.000, 0.000]",0x000000,5.7450,0,0,-0.000057,0.001327,0.002155,0.0000,NO
115,5.7950,5.7950,0.0500,0.050,APPROACHING,0,580.16,423.34,283.43,8.14,-6.93,6.13,0.58016,0.42334,0.28343,0.14206,-0.12091,0.10693,-0.15801,-0.15616,-0.18345,-0.04274,0.01519,-0.05449,0.00000,0.00000,0.00000,0.00000,0.00000,0.00000,0.00000,0.00000,0.00000,0.00000,0.00000,0.00000,0.58016,0.42334,0.28343,-0.14206,0.12091,-0.10693,0.15801,0.15616,0.18345,0.04274,-0.01519,0.05449,0.0000,,,,0.0041,,,,,,"[0.000, 0.000, 0.000, 0.000, 0.000, 0.000]",0x000000,5.7950,0,0,-0.000046,0.001303,0.002106,0.0000,NO
