Time,Current_X,Current_Y,Current_Z,Current_Roll,Current_Pitch,Current_Yaw,Current_VX,Current_VY,Current_VZ,Current_WX,Current_WY,Current_WZ,Target_X,Target_Y,Target_Z,Target_Roll,Target_Pitch,Target_Yaw,Error_X,Error_Y,Error_Z,Error_Roll,Error_Pitch,Error_Yaw,Command_Vector,Thruster_1_Cmd,Thruster_1_Val,Thruster_2_Cmd,Thruster_2_Val,Thruster_3_Cmd,Thruster_3_Val,Thruster_4_Cmd,Thruster_4_Val,Thruster_5_Cmd,Thruster_5_Val,Thruster_6_Cmd,Thruster_6_Val
0.0050,1.00000,1.00000,1.00000,0.00000,0.00000,1.57080,0.00000,0.00000,0.00000,0.00000,0.00000,0.00000,0.00000,0.00000,0.00000,0.00000,0.00000,1.57080,-1.00000,-1.00000,-1.00000,0.00000,0.00000,0.00000,"[0.000, 0.000, 0.000, 0.000, 0.000, 0.000]",0.000,0.000,0.000,0.000,0.000,0.000,0.000,0.000,0.000,0.000,0.000,0.000
0.0100,1.00000,1.00000,1.00000,0.00000,0.00000,1.57080,0.00000,0.00000,0.00000,0.00000,0.00000,0.00000,0.00000,0.00000,0.00000,0.00000,0.00000,1.57080,-1.00000,-1.00000,-1.00000,0.00000,0.00000,0.00000,"[0.000, 0.000, 0.000, 0.000, 0.000, 0.000]",0.000,0.000,0.000,0.000,0.000,0.000,0.000,0.000,0.000,0.000,0.000,0.000
0.0150,1.00000,1.00000,1.00000,0.00000,0.00000,1.57080,0.00000,0.00000,0.00000,0.00000,0.00000,0.00000,0.00000,0.00000,0.00000,0.00000,0.00000,1.57080,-1.00000,-1.00000,-1.00000,0.00000,0.00000,0.00000,"[0.000, 0.000, 0.000, 0.000, 0.000, 0.000]",0.000,0.000,0.000,0.000,0.000,0.000,0.000,0.000,0.000,0.000,0.000,0.000
0.0200,1.00000,1.00000,1.00000,0.00000,0.00000,1.57080,0.00000,0.00000,0.00000,0.00000,0.00000,0.00000,0.00000,0.00000,0.00000,0.00000,0.00000,1.57080,-1.00000,-1.00000,-1.00000,0.00000,0.00000,0.00000,"[0.000, 0.000, 0.000, 0.000, 0.000, 0.000]",0.000,0.000,0.000,0.000,0.000,0.000,0.000,0.000,0.000,0.000,0.000,0.000
0.0250,1.00000,1.00000,1.00000,0.00000,0.00000,1.57080,0.00000,0.00000,0.00000,0.00000,0.00000,0.00000,0.00000,0.00000,0.00000,0.00000,0.00000,1.57080,-1.00000,-1.00000,-1.00000,0.00000,0.00000,0.00000,"[0.000, 0.000, 0.000, 0.000, 0.000, 0.000]",0.000,0.000,0.000,0.000,0.000,0.000,0.000,0.000,0.000,0.000,0.000,0.000
0.0300,1.00000,1.00000,1.00000,0.00000,0.00000,1.57080,0.00000,0.00000,0.00000,0.00000,0.00000,0.00000,0.00000,0.00000,0.00000,0.00000,0.00000,1.57080,-1.00000,-1.00000,-1.00000,0.00000,0.00000,0.00000,"[0.000, 0.000, 0.000, 0.000, 0.000, 0.000]",0.000,0.000,0.000,0.000,0.000,0.000,0.000,0.000,0.000,0.000,0.000,0.000
0.0350,1.00000,1.00000,1.00000,0.00000,0.00000,1.57080,0.00000,0.00000,0.00000,0.00000,0.00000,0.00000,0.00000,0.00000,0.00000,0.00000,0.00000,1.57080,-1.00000,-1.00000,-1.00000,0.00000,0.00000,0.00000,"[0.000, 0.000, 0.000, 0.000, 0.000, 0.000]",0.000,0.000,0.000,0.000,0.000,0.000,0.000,0.000,0.000,0.000,0.000,0.000
0.0400,1.00000,1.00000,1.00000,0.00000,0.00000,1.57080,0.00000,0.00000,0.00000,0.00000,0.00000,0.00000,0.00000,0.00000,0.00000,0.00000,0.00000,1.57080,-1.00000,-1.00000,-1.00000,0.00000,0.00000,0.00000,"[0.000, 0.000, 0.000, 0.000, 0.000, 0.000]",0.000,0.000,0.000,0.000,0.000,0.000,0.000,0.000,0.000,0.000,0.000,0.000
0.0450,1.00000,1.00000,1.00000,0.00000,0.00000,1.57080,0.00000,0.00000,0.00000,0.00000,0.00000,0.00000,0.00000,0.00000,0.00000,0.00000,0.00000,1.57080,-1.00000,-1.00000,-1.00000,0.00000,0.00000,0.00000,"[0.000, 0.000, 0.000, 0.000, 0.000, 0.000]",0.000,0.000,0.000,0.000,0.000,0.000,0.000,0.000,0.000,0.000,0.000,0.000
0.0500,1.00000,1.00000,1.00000,0.00000,0.00000,1.57080,0.00000,0.00000,0.00000,0.00000,0.00000,0.00000,0.00000,0.00000,0.00000,0.00000,0.00000,0.00000,-1.00000,-1.00000,-1.00000,0.00000,0.00000,-1.57080,"[0.000, 0.000, 0.000, 0.000, 0.000, 0.000]",0.000,0.000,0.000,0.000,0.000,0.000,0.000,0.000,0.000,0.000,0.000,0.000
0.0550,1.00000,1.00000,1.00000,0.00000,0.00000,1.57080,0.00000,0.00000,0.00000,0.00000,0.00000,0.00000,0.00000,0.00000,0.00000,0.00000,0.00000,0.00000,-1.00000,-1.00000,-1.00000,0.00000,0.00000,-1.57080,"[0.000, 0.000, 0.000, 0.000, 0.000, 0.000]",0.000,0.000,0.000,0.000,0.000,0.000,0.000,0.000,0.000,0.000,0.000,0.000
0.0600,1.00000,1.00000,1.00000,0.00000,0.00000,1.57080,0.00000,0.00000,0.00000,0.00000,0.00000,0.00000,0.00000,0.00000,0.00000,0.00000,0.00000,0.00000,-1.00000,-1.00000,-1.00000,0.00000,0.00000,-1.57080,"[0.000, 0.000, 0.000, 0.000, 0.000, 0.000]",0.000,0.000,0.000,0.000,0.000,0.000,0.000,0.000,0.000,0.000,0.000,0.000
0.0650,1.00000,1.00000,1.00000,0.00000,0.00000,1.57080,0.00000,0.00000,0.00000,0.00000,0.00000,0.00000,0.00000,0.00000,0.00000,0.00000,0.00000,0.00000,-1.00000,-1.00000,-1.00000,0.00000,0.00000,-1.57080,"[0.000, 0.000, 0.000, 0.000, 0.000, 0.000]",0.000,0.000,0.000,0.000,0.000,0.000,0.000,0.000,0.000,0.000,0.000,0.000
0.0700,1.00000,1.00000,1.00000,0.00000,0.00000,1.57080,0.00000,0.00000,0.00000,0.00000,0.00000,0.00000,0.00000,0.00000,0.00000,0.00000,0.00000,0.00000,-1.00000,-1.00000,-1.00000,0.00000,0.00000,-1.57080,"[0.000, 0.000, 0.000, 0.000, 0.000, 0.000]",0.000,0.000,0.000,0.000,0.000,0.000,0.000,0.000,0.000,0.000,0.000,0.000
0.0750,1.00000,1.00000,1.00000,0.00000,0.00000,1.57080,0.00000,0.00000,0.00000,0.00000,0.00000,0.00000,0.00000,0.00000,0.00000,0.00000,0.00000,0.00000,-1.00000,-1.00000,-1.00000,0.00000,0.00000,-1.57080,"[0.000, 0.000, 0.000, 0.000, 0.000, 0.000]",0.000,0.000,0.000,0.000,0.000,0.000,0.000,0.000,0.000,0.000,0.000,0.000
0.0800,1.00000,1.00000,1.00000,0.00000,0.00000,1.57080,0.00000,0.00000,0.00000,0.00000,0.00000,0.00000,0.00000,0.00000,0.00000,0.00000,0.00000,0.00000,-1.00000,-1.00000,-1.00000,0.00000,0.00000,-1.57080,"[0.000, 0.000, 0.000, 0.000, 0.000, 0.000]",0.000,0.000,0.000,0.000,0.000,0.000,0.000,0.000,0.000,0.000,0.000,0.000
0.0850,1.00000,1.00000,1.00000,0.00000,0.00000,1.57080,0.00000,0.00000,0.00000,0.00000,0.00000,0.00000,0.00000,0.00000,0.00000,0.00000,0.00000,0.00000,-1.00000,-1.00000,-1.00000,0.00000,0.00000,-1.57080,"[0.000, 0.000, 0.000, 0.000, 0.000, 0.000]",0.000,0.000,0.000,0.000,0.000,0.000,0.000,0.000,0.000,0.000,0.000,0.000
0.0900,1.00000,1.00000,1.00000,0.00000,0.00000,1.57080,0.00000,0.00000,0.00000,0.00000,0.00000,0.00000,0.00000,0.00000,0.00000,0.00000,0.00000,0.00000,-1.00000,-1.00000,-1.00000,0.00000,0.00000,-1.57080,"[0.000, 0.000, 0.000, 0.000, 0.000, 0.000]",0.000,0.000,0.000,0.000,0.000,0.000,0.000,0.000,0.000,0.000,0.000,0.000
0.0950,1.00000,1.00000,1.00000,0.00000,0.00000,1.57080,0.00000,0.00000,0.00000,0.00000,0.00000,0.00000,0.00000,0.00000,0.00000,0.00000,0.00000,0.00000,-1.00000,-1.00000,-1.00000,0.00000,0.00000,-1.57080,"[0.000, 0.000, 0.000, 0.000, 0.000, 0.000]",0.000,0.000,0.000,0.000,0.000,0.000,0.000,0.000,0.000,0.000,0.000,0.000
0.1000,1.00000,1.00000,1.00000,0.00000,0.00000,1.57080,0.00000,0.00000,0.00000,0.00000,0.00000,0.00000,0.00000,0.00000,0.00000,0.00000,0.00000,0.00000,-1.00000,-1.00000,-1.00000,0.00000,0.00000,-1.57080,"[0.000, 0.000, 0.000, 0.000, 0.000, 0.000]",0.000,0.000,0.000,0.000,0.000,0.000,0.000,0.000,0.000,0.000,0.000,0.000
0.1050,1.00000,1.00000,1.00000,0.00000,0.00000,1.57080,0.00000,0.00000,0.00000,0.00000,0.00000,0.00000,0.00000,0.00000,0.00000,0.00000,0.00000,0.00000,-1.00000,-1.00000,-1.00000,0.00000,0.00000,-1.57080,"[0.000, 0.000, 0.000, 0.000, 0.000, 0.000]",0.000,0.000,0.000,0.000,0.000,0.000,0.000,0.000,0.000,0.000,0.000,0.000
0.1100,1.00000,1.00000,1.00000,0.00000,0.00000,1.57080,0.00000,0.00000,0.00000,0.00000,0.00000,0.00000,0.00000,0.00000,0.00000,0.00000,0.00000,0.00000,-1.00000,-1.00000,-1.00000,0.00000,0.00000,-1.57080,"[0.000, 0.000, 0.000, 0.000, 0.000, 0.000]",0.000,0.000,0.000,0.000,0.000,0.000,0.000,0.000,0.000,0.000,0.000,0.000
0.1150,1.00000,1.00000,1.00000,0.00000,0.00000,1.57080,0.00000,0.00000,0.00000,0.00000,0.00000,0.00000,0.00000,0.00000,0.00000,0.00000,0.00000,0.00000,-1.00000,-1.00000,-1.00000,0.00000,0.00000,-1.57080,"[0.000, 0.000, 0.000, 0.000, 0.000, 0.000]",0.000,0.000,0.000,0.000,0.000,0.000,0.000,0.000,0.000,0.000,0.000,0.000
0.1200,1.00000,1.00000,1.00000,0.00000,0.00000,1.57080,0.00000,0.00000,0.00000,0.00000,0.00000,0.00000,0.00000,0.00000,0.00000,0.00000,0.00000,0.00000,-1.00000,-1.00000,-1.00000,0.00000,0.00000,-1.57080,"[0.000, 0.000, 0.000, 0.000, 0.000, 0.000]",0.000,0.000,0.000,0.000,0.000,0.000,0.000,0.000,0.000,0.000,0.000,0.000
0.1250,1.00000,1.00000,1.00000,0.00000,0.00000,1.57080,0.00000,0.00000,0.00000,0.00000,0.00000,0.00000,0.00000,0.00000,0.00000,0.00000,0.00000,0.00000,-1.00000,-1.00000,-1.00000,0.00000,0.00000,-1.57080,"[0.000, 0.000, 0.000, 0.000, 0.000, 0.000]",0.000,0.000,0.000,0.000,0.000,0.000,0.000,0.000,0.000,0.000,0.000,0.000
0.1300,1.00000,1.00000,1.00000,0.00000,0.00000,1.57080,0.00000,0.00000,0.00000,0.00000,0.00000,0.00000,0.00000,0.00000,0.00000,0.00000,0.00000,0.00000,-1.00000,-1.00000,-1.00000,0.00000,0.00000,-1.57080,"[0.000, 0.000, 0.000, 0.000, 0.000, 0.000]",0.000,0.000,0.000,0.000,0.000,0.000,0.000,0.000,0.000,0.000,0.000,0.000
0.1350,1.00000,1.00000,1.00000,0.00000,0.00000,1.57080,0.00000,0.00000,0.00000,0.00000,0.00000,0.00000,0.00000,0.00000,0.00000,0.00000,0.00000,0.00000,-1.00000,-1.00000,-1.00000,0.00000,0.00000,-1.57080,"[0.000, 0.000, 0.000, 0.000, 0.000, 0.000]",0.000,0.000,0.000,0.000,0.000,0.000,0.000,0.000,0.000,0.000,0.000,0.000
0.1400,1.00000,1.00000,1.00000,0.00000,0.00000,1.57080,0.00000,0.00000,0.00000,0.00000,0.00000,0.00000,0.00000,0.00000,0.00000,0.00000,0.00000,0.00000,-1.00000,-1.00000,-1.00000,0.00000,0.00000,-1.57080,"[0.000, 0.000, 0.000, 0.000, 0.000, 0.000]",0.000,0.000,0.000,0.000,0.000,0.000,0.000,0.000,0.000,0.000,0.000,0.000
0.1450,1.00000,1.00000,1.00000,0.00000,0.00000,1.57080,0.00000,0.00000,0.00000,0.00000,0.00000,0.00000,0.00000,0.00000,0.00000,0.00000,0.00000,0.00000,-1.00000,-1.00000,-1.00000,0.00000,0.00000,-1.57080,"[0.000, 0.000, 0.000, 0.000, 0.000, 0.000]",0.000,0.000,0.000,0.000,0.000,0.000,0.000,0.000,0.000,0.000,0.000,0.000
0.1500,1.00000,1.00000,1.00000,0.00005,-0.00005,1.57072,-0.00000,-0.00025,-0.00025,0.02125,-0.02125,-0.02973,0.00000,0.00000,0.00000,0.00000,0.00000,0.00000,-1.00000,-1.00000,-1.00000,-0.00005,0.00005,-1.57072,"[1.000, 0.000, 0.000, 0.000, 1.000, 0.000]",1.000,1.000,0.000,0.000,0.000,0.000,0.000,0.000,1.000,1.000,0.000,0.000
0.1550,1.00000,1.00000,1.00000,0.00021,-0.00021,1.57050,-0.00000,-0.00050,-0.00050,0.04251,-0.04251,-0.05945,0.00000,0.00000,0.00000,0.00000,0.00000,0.00000,-1.00000,-1.00000,-1.00000,-0.00021,0.00021,-1.57050,"[1.000, 0.000, 0.000, 0.000, 1.000, 0.000]",1.000,1.000,0.000,0.000,0.000,0.000,0.000,0.000,1.000,1.000,0.000,0.000
0.1600,1.00000,0.99999,0.99999,0.00048,-0.00048,1.57013,-0.00000,-0.00075,-0.00075,0.06376,-0.06376,-0.08918,0.00000,0.00000,0.00000,0.00000,0.00000,0.00000,-1.00000,-0.99999,-0.99999,-0.00048,0.00048,-1.57013,"[1.000, 0.000, 0.000, 0.000, 1.000, 0.000]",1.000,1.000,0.000,0.000,0.000,0.000,0.000,0.000,1.000,1.000,0.000,0.000
0.1650,1.00000,0.99999,0.99999,0.00085,-0.00085,1.56961,-0.00000,-0.00100,-0.00100,0.08501,-0.08501,-0.11891,0.00000,0.00000,0.00000,0.00000,0.00000,0.00000,-1.00000,-0.99999,-0.99999,-0.00085,0.00085,-1.56961,"[1.000, 0.000, 0.000, 0.000, 1.000, 0.000]",1.000,1.000,0.000,0.000,0.000,0.000,0.000,0.000,1.000,1.000,0.000,0.000
0.1700,1.00000,0.99998,0.99998,0.00133,-0.00133,1.56894,-0.00000,-0.00125,-0.00125,0.10626,-0.10626,-0.14863,0.00000,0.00000,0.00000,0.00000,0.00000,0.00000,-1.00000,-0.99998,-0.99998,-0.00133,0.00133,-1.56894,"[1.000, 0.000, 0.000, 0.000, 1.000, 0.000]",1.000,1.000,0.000,0.000,0.000,0.000,0.000,0.000,1.000,1.000,0.000,0.000
0.1750,1.00000,0.99998,0.99998,0.00192,-0.00191,1.56812,-0.00000,-0.00150,-0.00150,0.12752,-0.12752,-0.17836,0.00000,0.00000,0.00000,0.00000,0.00000,0.00000,-1.00000,-0.99998,-0.99998,-0.00192,0.00191,-1.56812,"[1.000, 0.000, 0.000, 0.000, 1.000, 0.000]",1.000,1.000,0.000,0.000,0.000,0.000,0.000,0.000,1.000,1.000,0.000,0.000
0.1800,1.00000,0.99997,0.99997,0.00261,-0.00260,1.56715,-0.00000,-0.00175,-0.00175,0.14877,-0.14877,-0.20809,0.00000,0.00000,0.00000,0.00000,0.00000,0.00000,-1.00000,-0.99997,-0.99997,-0.00261,0.00260,-1.56715,"[1.000, 0.000, 0.000, 0.000, 1.000, 0.000]",1.000,1.000,0.000,0.000,0.000,0.000,0.000,0.000,1.000,1.000,0.000,0.000
0.1850,1.00000,0.99996,0.99996,0.00341,-0.00339,1.56603,-0.00000,-0.00200,-0.00200,0.17002,-0.17002,-0.23781,0.00000,0.00000,0.00000,0.00000,0.00000,0.00000,-1.00000,-0.99996,-0.99996,-0.00341,0.00339,-1.56603,"[1.000, 0.000, 0.000, 0.000, 1.000, 0.000]",1.000,1.000,0.000,0.000,0.000,0.000,0.000,0.000,1.000,1.000,0.000,0.000
0.1900,1.00000,0.99995,0.99995,0.00432,-0.00429,1.56477,-0.00001,-0.00225,-0.00225,0.19127,-0.19127,-0.26754,0.00000,0.00000,0.00000,0.00000,0.00000,0.00000,-1.00000,-0.99995,-0.99995,-0.00432,0.00429,-1.56477,"[1.000, 0.000, 0.000, 0.000, 1.000, 0.000]",1.000,1.000,0.000,0.000,0.000,0.000,0.000,0.000,1.000,1.000,0.000,0.000
0.1950,1.00000,0.99994,0.99994,0.00533,-0.00529,1.56335,-0.00001,-0.00250,-0.00250,0.21253,-0.21253,-0.29727,0.00000,0.00000,0.00000,0.00000,0.00000,0.00000,-1.00000,-0.99994,-0.99994,-0.00533,0.00529,-1.56335,"[1.000, 0.000, 0.000, 0.000, 1.000, 0.000]",1.000,1.000,0.000,0.000,0.000,0.000,0.000,0.000,1.000,1.000,0.000,0.000
0.2000,1.00000,0.99992,0.99992,0.00636,-0.00630,1.56178,-0.00001,-0.00274,-0.00276,0.19440,-0.19511,-0.32697,0.00000,0.00000,0.00000,0.00000,0.00000,0.00000,-1.00000,-0.99992,-0.99992,-0.00636,0.00630,-1.56178,"[0.998, 0.000, 0.000, 0.000, 0.998, 0.000]",0.998,0.998,0.000,0.000,0.000,0.000,0.000,0.000,0.998,0.998,0.000,0.000
0.2050,1.00000,0.99991,0.99991,0.00730,-0.00722,1.56007,-0.00002,-0.00299,-0.00301,0.17627,-0.17770,-0.35668,0.00000,0.00000,0.00000,0.00000,0.00000,0.00000,-1.00000,-0.99991,-0.99991,-0.00730,0.00722,-1.56007,"[0.998, 0.000, 0.000, 0.000, 0.998, 0.000]",0.998,0.998,0.000,0.000,0.000,0.000,0.000,0.000,0.998,0.998,0.000,0.000
0.2100,1.00000,0.99989,0.99989,0.00815,-0.00805,1.55820,-0.00002,-0.00324,-0.00326,0.15814,-0.16028,-0.38639,0.00000,0.00000,0.00000,0.00000,0.00000,0.00000,-1.00000,-0.99989,-0.99989,-0.00815,0.00805,-1.55820,"[0.998, 0.000, 0.000, 0.000, 0.998, 0.000]",0.998,0.998,0.000,0.000,0.000,0.000,0.000,0.000,0.998,0.998,0.000,0.000
0.2150,1.00000,0.99988,0.99988,0.00891,-0.00879,1.55619,-0.00003,-0.00349,-0.00351,0.14001,-0.14286,-0.41610,0.00000,0.00000,0.00000,0.00000,0.00000,0.00000,-1.00000,-0.99988,-0.99988,-0.00891,0.00879,-1.55619,"[0.998, 0.000, 0.000, 0.000, 0.998, 0.000]",0.998,0.998,0.000,0.000,0.000,0.000,0.000,0.000,0.998,0.998,0.000,0.000
0.2200,1.00000,0.99986,0.99986,0.00958,-0.00945,1.55403,-0.00003,-0.00374,-0.00376,0.12188,-0.12545,-0.44581,0.00000,0.00000,0.00000,0.00000,0.00000,0.00000,-1.00000,-0.99986,-0.99986,-0.00958,0.00945,-1.55403,"[0.998, 0.000, 0.000, 0.000, 0.998, 0.000]",0.998,0.998,0.000,0.000,0.000,0.000,0.000,0.000,0.998,0.998,0.000,0.000
0.2250,1.00000,0.99984,0.99984,0.01017,-0.01001,1.55172,-0.00004,-0.00398,-0.00401,0.10376,-0.10803,-0.47551,0.00000,0.00000,0.00000,0.00000,0.00000,0.00000,-1.00000,-0.99984,-0.99984,-0.01017,0.01001,-1.55172,"[0.998, 0.000, 0.000, 0.000, 0.998, 0.000]",0.998,0.998,0.000,0.000,0.000,0.000,0.000,0.000,0.998,0.998,0.000,0.000
0.2300,1.00000,0.99982,0.99982,0.01067,-0.01048,1.54926,-0.00005,-0.00423,-0.00427,0.08563,-0.09062,-0.50522,0.00000,0.00000,0.00000,0.00000,0.00000,0.00000,-1.00000,-0.99982,-0.99982,-0.01067,0.01048,-1.54926,"[0.998, 0.000, 0.000, 0.000, 0.998, 0.000]",0.998,0.998,0.000,0.000,0.000,0.000,0.000,0.000,0.998,0.998,0.000,0.000
0.2350,1.00000,0.99980,0.99980,0.01108,-0.01086,1.54666,-0.00005,-0.00448,-0.00452,0.06750,-0.07320,-0.53493,0.00000,0.00000,0.00000,0.00000,0.00000,0.00000,-1.00000,-0.99980,-0.99980,-0.01108,0.01086,-1.54666,"[0.998, 0.000, 0.000, 0.000, 0.998, 0.000]",0.998,0.998,0.000,0.000,0.000,0.000,0.000,0.000,0.998,0.998,0.000,0.000
0.2400,1.00000,0.99977,0.99977,0.01140,-0.01115,1.54391,-0.00006,-0.00473,-0.00477,0.04937,-0.05579,-0.56464,0.00000,0.00000,0.00000,0.00000,0.00000,0.00000,-1.00000,-0.99977,-0.99977,-0.01140,0.01115,-1.54391,"[0.998, 0.000, 0.000, 0.000, 0.998, 0.000]",0.998,0.998,0.000,0.000,0.000,0.000,0.000,0.000,0.998,0.998,0.000,0.000
0.2450,1.00000,0.99975,0.99975,0.01164,-0.01135,1.54101,-0.00007,-0.00497,-0.00503,0.03124,-0.03837,-0.59435,0.00000,0.00000,0.00000,0.00000,0.00000,0.00000,-1.00000,-0.99975,-0.99975,-0.01164,0.01135,-1.54101,"[0.998, 0.000, 0.000, 0.000, 0.998, 0.000]",0.998,0.998,0.000,0.000,0.000,0.000,0.000,0.000,0.998,0.998,0.000,0.000
0.2500,1.00000,0.99973,0.99972,0.01186,-0.01154,1.53801,-0.00008,-0.00522,-0.00528,0.04541,-0.05262,-0.60466,0.00000,0.00000,0.00000,0.00000,0.00000,0.00000,-1.00000,-0.99973,-0.99972,-0.01186,0.01154,-1.53801,"[0.998, 0.000, 0.000, 0.000, 0.998, 0.000]",0.998,0.998,0.000,0.000,0.000,0.000,0.000,0.000,0.998,0.998,0.000,0.000
0.2550,1.00000,0.99970,0.99970,0.01216,-0.01181,1.53495,-0.00009,-0.00547,-0.00553,0.05958,-0.06686,-0.61497,0.00000,0.00000,0.00000,0.00000,0.00000,0.00000,-1.00000,-0.99970,-0.99970,-0.01216,0.01181,-1.53495,"[0.998, 0.000, 0.000, 0.000, 0.998, 0.000]",0.998,0.998,0.000,0.000,0.000,0.000,0.000,0.000,0.998,0.998,0.000,0.000
0.2600,1.00000,0.99967,0.99967,0.01253,-0.01214,1.53185,-0.00010,-0.00571,-0.00578,0.07374,-0.08111,-0.62528,0.00000,0.00000,0.00000,0.00000,0.00000,0.00000,-1.00000,-0.99967,-0.99967,-0.01253,0.01214,-1.53185,"[0.998, 0.000, 0.000, 0.000, 0.998, 0.000]",0.998,0.998,0.000,0.000,0.000,0.000,0.000,0.000,0.998,0.998,0.000,0.000
0.2650,1.00000,0.99964,0.99964,0.01297,-0.01254,1.52869,-0.00012,-0.00596,-0.00604,0.08791,-0.09535,-0.63559,0.00000,0.00000,0.00000,0.00000,0.00000,0.00000,-1.00000,-0.99964,-0.99964,-0.01297,0.01254,-1.52869,"[0.998, 0.000, 0.000, 0.000, 0.998, 0.000]",0.998,0.998,0.000,0.000,0.000,0.000,0.000,0.000,0.998,0.998,0.000,0.000
0.2700,1.00000,0.99961,0.99961,0.01349,-0.01301,1.52548,-0.00013,-0.00621,-0.00629,0.10208,-0.10959,-0.64590,0.00000,0.00000,0.00000,0.00000,0.00000,0.00000,-1.00000,-0.99961,-0.99961,-0.01349,0.01301,-1.52548,"[0.998, 0.000, 0.000, 0.000, 0.998, 0.000]",0.998,0.998,0.000,0.000,0.000,0.000,0.000,0.000,0.998,0.998,0.000,0.000
0.2750,0.99999,0.99958,0.99958,0.01408,-0.01355,1.52222,-0.00015,-0.00645,-0.00654,0.11625,-0.12384,-0.65621,0.00000,0.00000,0.00000,0.00000,0.00000,0.00000,-0.99999,-0.99958,-0.99958,-0.01408,0.01355,-1.52222,"[0.998, 0.000, 0.000, 0.000, 0.998, 0.000]",0.998,0.998,0.000,0.000,0.000,0.000,0.000,0.000,0.998,0.998,0.000,0.000
0.2800,0.99999,0.99955,0.99954,0.01474,-0.01415,1.51890,-0.00016,-0.00670,-0.00680,0.13041,-0.13808,-0.66652,0.00000,0.00000,0.00000,0.00000,0.00000,0.00000,-0.99999,-0.99955,-0.99954,-0.01474,0.01415,-1.51890,"[0.998, 0.000, 0.000, 0.000, 0.998, 0.000]",0.998,0.998,0.000,0.000,0.000,0.000,0.000,0.000,0.998,0.998,0.000,0.000
0.2850,0.99999,0.99951,0.99951,0.01548,-0.01483,1.51553,-0.00018,-0.00695,-0.00705,0.14458,-0.15233,-0.67683,0.00000,0.00000,0.00000,0.00000,0.00000,0.00000,-0.99999,-0.99951,-0.99951,-0.01548,0.01483,-1.51553,"[0.998, 0.000, 0.000, 0.000, 0.998, 0.000]",0.998,0.998,0.000,0.000,0.000,0.000,0.000,0.000,0.998,0.998,0.000,0.000
0.2900,0.99999,0.99948,0.99947,0.01629,-0.01557,1.51211,-0.00020,-0.00719,-0.00730,0.15875,-0.16657,-0.68714,0.00000,0.00000,0.00000,0.00000,0.00000,0.00000,-0.99999,-0.99948,-0.99947,-0.01629,0.01557,-1.51211,"[0.998, 0.000, 0.000, 0.000, 0.998, 0.000]",0.998,0.998,0.000,0.000,0.000,0.000,0.000,0.000,0.998,0.998,0.000,0.000
0.2950,0.99999,0.99944,0.99943,0.01717,-0.01638,1.50863,-0.00021,-0.00744,-0.00756,0.17292,-0.18082,-0.69745,0.00000,0.00000,0.00000,0.00000,0.00000,0.00000,-0.99999,-0.99944,-0.99943,-0.01717,0.01638,-1.50863,"[0.998, 0.000, 0.000, 0.000, 0.998, 0.000]",0.998,0.998,0.000,0.000,0.000,0.000,0.000,0.000,0.998,0.998,0.000,0.000
0.3000,0.99999,0.99940,0.99940,0.01807,-0.01720,1.50516,-0.00023,-0.00768,-0.00781,0.16060,-0.16915,-0.68695,0.00000,0.00000,0.00000,0.00000,0.00000,0.00000,-0.99999,-0.99940,-0.99940,-0.01807,0.01720,-1.50516,"[0.998, 0.000, 0.000, 0.000, 0.998, 0.000]",0.998,0.998,0.000,0.000,0.000,0.000,0.000,0.000,0.998,0.998,0.000,0.000
0.3050,0.99999,0.99936,0.99936,0.01890,-0.01795,1.50173,-0.00025,-0.00793,-0.00807,0.14828,-0.15749,-0.67645,0.00000,0.00000,0.00000,0.00000,0.00000,0.00000,-0.99999,-0.99936,-0.99936,-0.01890,0.01795,-1.50173,"[0.998, 0.000, 0.000, 0.000, 0.998, 0.000]",0.998,0.998,0.000,0.000,0.000,0.000,0.000,0.000,0.998,0.998,0.000,0.000
0.3100,0.99999,0.99932,0.99932,0.01967,-0.01864,1.49836,-0.00028,-0.00817,-0.00832,0.13596,-0.14583,-0.66595,0.00000,0.00000,0.00000,0.00000,0.00000,0.00000,-0.99999,-0.99932,-0.99932,-0.01967,0.01864,-1.49836,"[0.998, 0.000, 0.000, 0.000, 0.998, 0.000]",0.998,0.998,0.000,0.000,0.000,0.000,0.000,0.000,0.998,0.998,0.000,0.000
0.3150,0.99999,0.99928,0.99927,0.02038,-0.01928,1.49505,-0.00030,-0.00842,-0.00857,0.12364,-0.13416,-0.65545,0.00000,0.00000,0.00000,0.00000,0.00000,0.00000,-0.99999,-0.99928,-0.99927,-0.02038,0.01928,-1.49505,"[0.998, 0.000, 0.000, 0.000, 0.998, 0.000]",0.998,0.998,0.000,0.000,0.000,0.000,0.000,0.000,0.998,0.998,0.000,0.000
0.3200,0.99998,0.99924,0.99923,0.02103,-0.01985,1.49178,-0.00032,-0.00866,-0.00883,0.11132,-0.12250,-0.64495,0.00000,0.00000,0.00000,0.00000,0.00000,0.00000,-0.99998,-0.99924,-0.99923,-0.02103,0.01985,-1.49178,"[0.998, 0.000, 0.000, 0.000, 0.998, 0.000]",0.998,0.998,0.000,0.000,0.000,0.000,0.000,0.000,0.998,0.998,0.000,0.000
0.3250,0.99998,0.99920,0.99919,0.02162,-0.02037,1.48857,-0.00035,-0.00890,-0.00908,0.09900,-0.11083,-0.63445,0.00000,0.00000,0.00000,0.00000,0.00000,0.00000,-0.99998,-0.99920,-0.99919,-0.02162,0.02037,-1.48857,"[0.998, 0.000, 0.000, 0.000, 0.998, 0.000]",0.998,0.998,0.000,0.000,0.000,0.000,0.000,0.000,0.998,0.998,0.000,0.000
0.3300,0.99998,0.99915,0.99914,0.02215,-0.02082,1.48541,-0.00037,-0.00915,-0.00934,0.08668,-0.09917,-0.62395,0.00000,0.00000,0.00000,0.00000,0.00000,0.00000,-0.99998,-0.99915,-0.99914,-0.02215,0.02082,-1.48541,"[0.998, 0.000, 0.000, 0.000, 0.998, 0.000]",0.998,0.998,0.000,0.000,0.000,0.000,0.000,0.000,0.998,0.998,0.000,0.000
0.3350,0.99998,0.99910,0.99909,0.02262,-0.02122,1.48231,-0.00040,-0.00939,-0.00959,0.07436,-0.08750,-0.61345,0.00000,0.00000,0.00000,0.00000,0.00000,0.00000,-0.99998,-0.99910,-0.99909,-0.02262,0.02122,-1.48231,"[0.998, 0.000, 0.000, 0.000, 0.998, 0.000]",0.998,0.998,0.000,0.000,0.000,0.000,0.000,0.000,0.998,0.998,0.000,0.000
0.3400,0.99998,0.99906,0.99904,0.02303,-0.02156,1.47926,-0.00043,-0.00963,-0.00985,0.06205,-0.07584,-0.60295,0.00000,0.00000,0.00000,0.00000,0.00000,0.00000,-0.99998,-0.99906,-0.99904,-0.02303,0.02156,-1.47926,"[0.998, 0.000, 0.000, 0.000, 0.998, 0.000]",0.998,0.998,0.000,0.000,0.000,0.000,0.000,0.000,0.998,0.998,0.000,0.000
0.3450,0.99998,0.99901,0.99899,0.02337,-0.02184,1.47626,-0.00045,-0.00988,-0.01010,0.04973,-0.06417,-0.59245,0.00000,0.00000,0.00000,0.00000,0.00000,0.00000,-0.99998,-0.99901,-0.99899,-0.02337,0.02184,-1.47626,"[0.998, 0.000, 0.000, 0.000, 0.998, 0.000]",0.998,0.998,0.000,0.000,0.000,0.000,0.000,0.000,0.998,0.998,0.000,0.000
0.3500,0.99997,0.99896,0.99894,0.02371,-0.02211,1.47328,-0.00048,-0.01012,-0.01036,0.05915,-0.07370,-0.59900,0.00000,0.00000,0.00000,0.00000,0.00000,0.00000,-0.99997,-0.99896,-0.99894,-0.02371,0.02211,-1.47328,"[0.998, 0.000, 0.000, 0.000, 0.998, 0.000]",0.998,0.998,0.000,0.000,0.000,0.000,0.000,0.000,0.998,0.998,0.000,0.000
0.3550,0.99997,0.99891,0.99889,0.02410,-0.02243,1.47026,-0.00051,-0.01036,-0.01062,0.06856,-0.08323,-0.60556,0.00000,0.00000,0.00000,0.00000,0.00000,0.00000,-0.99997,-0.99891,-0.99889,-0.02410,0.02243,-1.47026,"[0.998, 0.000, 0.000, 0.000, 0.998, 0.000]",0.998,0.998,0.000,0.000,0.000,0.000,0.000,0.000,0.998,0.998,0.000,0.000
0.3600,0.99997,0.99885,0.99884,0.02453,-0.02280,1.46720,-0.00054,-0.01060,-0.01087,0.07798,-0.09276,-0.61211,0.00000,0.00000,0.00000,0.00000,0.00000,0.00000,-0.99997,-0.99885,-0.99884,-0.02453,0.02280,-1.46720,"[0.998, 0.000, 0.000, 0.000, 0.998, 0.000]",0.998,0.998,0.000,0.000,0.000,0.000,0.000,0.000,0.998,0.998,0.000,0.000
0.3650,0.99996,0.99880,0.99878,0.02502,-0.02321,1.46411,-0.00057,-0.01085,-0.01113,0.08740,-0.10228,-0.61866,0.00000,0.00000,0.00000,0.00000,0.00000,0.00000,-0.99996,-0.99880,-0.99878,-0.02502,0.02321,-1.46411,"[0.998, 0.000, 0.000, 0.000, 0.998, 0.000]",0.998,0.998,0.000,0.000,0.000,0.000,0.000,0.000,0.998,0.998,0.000,0.000
0.3700,0.99996,0.99875,0.99872,0.02555,-0.02367,1.46099,-0.00061,-0.01109,-0.01138,0.09682,-0.11181,-0.62522,0.00000,0.00000,0.00000,0.00000,0.00000,0.00000,-0.99996,-0.99875,-0.99872,-0.02555,0.02367,-1.46099,"[0.998, 0.000, 0.000, 0.000, 0.998, 0.000]",0.998,0.998,0.000,0.000,0.000,0.000,0.000,0.000,0.998,0.998,0.000,0.000
0.3750,0.99996,0.99869,0.99867,0.02613,-0.02417,1.45783,-0.00064,-0.01133,-0.01164,0.10624,-0.12134,-0.63177,0.00000,0.00000,0.00000,0.00000,0.00000,0.00000,-0.99996,-0.99869,-0.99867,-0.02613,0.02417,-1.45783,"[0.998, 0.000, 0.000, 0.000, 0.998, 0.000]",0.998,0.998,0.000,0.000,0.000,0.000,0.000,0.000,0.998,0.998,0.000,0.000
0.3800,0.99996,0.99863,0.99861,0.02677,-0.02472,1.45464,-0.00067,-0.01157,-0.01189,0.11566,-0.13087,-0.63832,0.00000,0.00000,0.00000,0.00000,0.00000,0.00000,-0.99996,-0.99863,-0.99861,-0.02677,0.02472,-1.45464,"[0.998, 0.000, 0.000, 0.000, 0.998, 0.000]",0.998,0.998,0.000,0.000,0.000,0.000,0.000,0.000,0.998,0.998,0.000,0.000
0.3850,0.99995,0.99857,0.99855,0.02745,-0.02531,1.45141,-0.00071,-0.01181,-0.01215,0.12508,-0.14040,-0.64488,0.00000,0.00000,0.00000,0.00000,0.00000,0.00000,-0.99995,-0.99857,-0.99855,-0.02745,0.02531,-1.45141,"[0.998, 0.000, 0.000, 0.000, 0.998, 0.000]",0.998,0.998,0.000,0.000,0.000,0.000,0.000,0.000,0.998,0.998,0.000,0.000
0.3900,0.99995,0.99851,0.99849,0.02818,-0.02594,1.44815,-0.00074,-0.01205,-0.01241,0.13450,-0.14992,-0.65143,0.00000,0.00000,0.00000,0.00000,0.00000,0.00000,-0.99995,-0.99851,-0.99849,-0.02818,0.02594,-1.44815,"[0.998, 0.000, 0.000, 0.000, 0.998, 0.000]",0.998,0.998,0.000,0.000,0.000,0.000,0.000,0.000,0.998,0.998,0.000,0.000
0.3950,0.99994,0.99845,0.99842,0.02896,-0.02662,1.44486,-0.00078,-0.01230,-0.01266,0.14392,-0.15945,-0.65798,0.00000,0.00000,0.00000,0.00000,0.00000,0.00000,-0.99994,-0.99845,-0.99842,-0.02896,0.02662,-1.44486,"[0.998, 0.000, 0.000, 0.000, 0.998, 0.000]",0.998,0.998,0.000,0.000,0.000,0.000,0.000,0.000,0.998,0.998,0.000,0.000
0.4000,0.99994,0.99839,0.99836,0.02975,-0.02730,1.44156,-0.00082,-0.01254,-0.01292,0.13552,-0.15162,-0.65058,0.00000,0.00000,0.00000,0.00000,0.00000,0.00000,-0.99994,-0.99839,-0.99836,-0.02975,0.02730,-1.44156,"[1.000, 0.000, 0.000, 0.000, 1.000, 0.000]",1.000,1.000,0.000,0.000,0.000,0.000,0.000,0.000,1.000,1.000,0.000,0.000
0.4050,0.99994,0.99833,0.99829,0.03050,-0.02794,1.43831,-0.00086,-0.01278,-0.01318,0.12712,-0.14380,-0.64318,0.00000,0.00000,0.00000,0.00000,0.00000,0.00000,-0.99994,-0.99833,-0.99829,-0.03050,0.02794,-1.43831,"[1.000, 0.000, 0.000, 0.000, 1.000, 0.000]",1.000,1.000,0.000,0.000,0.000,0.000,0.000,0.000,1.000,1.000,0.000,0.000
0.4100,0.99993,0.99826,0.99823,0.03120,-0.02854,1.43509,-0.00090,-0.01302,-0.01343,0.11872,-0.13597,-0.63578,0.00000,0.00000,0.00000,0.00000,0.00000,0.00000,-0.99993,-0.99826,-0.99823,-0.03120,0.02854,-1.43509,"[1.000, 0.000, 0.000, 0.000, 1.000, 0.000]",1.000,1.000,0.000,0.000,0.000,0.000,0.000,0.000,1.000,1.000,0.000,0.000
0.4150,0.99993,0.99820,0.99816,0.03187,-0.02910,1.43191,-0.00094,-0.01326,-0.01369,0.11032,-0.12815,-0.62838,0.00000,0.00000,0.00000,0.00000,0.00000,0.00000,-0.99993,-0.99820,-0.99816,-0.03187,0.02910,-1.43191,"[1.000, 0.000, 0.000, 0.000, 1.000, 0.000]",1.000,1.000,0.000,0.000,0.000,0.000,0.000,0.000,1.000,1.000,0.000,0.000
0.4200,0.99992,0.99813,0.99809,0.03249,-0.02963,1.42876,-0.00098,-0.01349,-0.01395,0.10193,-0.12032,-0.62098,0.00000,0.00000,0.00000,0.00000,0.00000,0.00000,-0.99992,-0.99813,-0.99809,-0.03249,0.02963,-1.42876,"[1.000, 0.000, 0.000, 0.000, 1.000, 0.000]",1.000,1.000,0.000,0.000,0.000,0.000,0.000,0.000,1.000,1.000,0.000,0.000
0.4250,0.99992,0.99806,0.99802,0.03307,-0.03011,1.42566,-0.00102,-0.01373,-0.01420,0.09353,-0.11249,-0.61358,0.00000,0.00000,0.00000,0.00000,0.00000,0.00000,-0.99992,-0.99806,-0.99802,-0.03307,0.03011,-1.42566,"[1.000, 0.000, 0.000, 0.000, 1.000, 0.000]",1.000,1.000,0.000,0.000,0.000,0.000,0.000,0.000,1.000,1.000,0.000,0.000
0.4300,0.99991,0.99799,0.99795,0.03361,-0.03055,1.42259,-0.00106,-0.01397,-0.01446,0.08513,-0.10467,-0.60618,0.00000,0.00000,0.00000,0.00000,0.00000,0.00000,-0.99991,-0.99799,-0.99795,-0.03361,0.03055,-1.42259,"[1.000, 0.000, 0.000, 0.000, 1.000, 0.000]",1.000,1.000,0.000,0.000,0.000,0.000,0.000,0.000,1.000,1.000,0.000,0.000
0.4350,0.99991,0.99792,0.99788,0.03411,-0.03095,1.41956,-0.00111,-0.01421,-0.01472,0.07673,-0.09684,-0.59878,0.00000,0.00000,0.00000,0.00000,0.00000,0.00000,-0.99991,-0.99792,-0.99788,-0.03411,0.03095,-1.41956,"[1.000, 0.000, 0.000, 0.000, 1.000, 0.000]",1.000,1.000,0.000,0.000,0.000,0.000,0.000,0.000,1.000,1.000,0.000,0.000
0.4400,0.99990,0.99785,0.99780,0.03456,-0.03131,1.41657,-0.00115,-0.01445,-0.01498,0.06833,-0.08902,-0.59138,0.00000,0.00000,0.00000,0.00000,0.00000,0.00000,-0.99990,-0.99785,-0.99780,-0.03456,0.03131,-1.41657,"[1.000, 0.000, 0.000, 0.000, 1.000, 0.000]",1.000,1.000,0.000,0.000,0.000,0.000,0.000,0.000,1.000,1.000,0.000,0.000
0.4450,0.99990,0.99778,0.99773,0.03498,-0.03163,1.41362,-0.00120,-0.01469,-0.01523,0.05994,-0.08119,-0.58398,0.00000,0.00000,0.00000,0.00000,0.00000,0.00000,-0.99990,-0.99778,-0.99773,-0.03498,0.03163,-1.41362,"[1.000, 0.000, 0.000, 0.000, 1.000, 0.000]",1.000,1.000,0.000,0.000,0.000,0.000,0.000,0.000,1.000,1.000,0.000,0.000
0.4500,0.99989,0.99770,0.99765,0.03539,-0.03195,1.41067,-0.00125,-0.01492,-0.01549,0.06598,-0.08738,-0.58785,0.00000,0.00000,0.00000,0.00000,0.00000,0.00000,-0.99989,-0.99770,-0.99765,-0.03539,0.03195,-1.41067,"[1.000, 0.000, 0.000, 0.000, 1.000, 0.000]",1.000,1.000,0.000,0.000,0.000,0.000,0.000,0.000,1.000,1.000,0.000,0.000
0.4550,0.99988,0.99763,0.99757,0.03583,-0.03230,1.40771,-0.00129,-0.01516,-0.01575,0.07202,-0.09356,-0.59172,0.00000,0.00000,0.00000,0.00000,0.00000,0.00000,-0.99988,-0.99763,-0.99757,-0.03583,0.03230,-1.40771,"[1.000, 0.000, 0.000, 0.000, 1.000, 0.000]",1.000,1.000,0.000,0.000,0.000,0.000,0.000,0.000,1.000,1.000,0.000,0.000
0.4600,0.99988,0.99755,0.99749,0.03630,-0.03267,1.40472,-0.00134,-0.01540,-0.01601,0.07806,-0.09975,-0.59559,0.00000,0.00000,0.00000,0.00000,0.00000,0.00000,-0.99988,-0.99755,-0.99749,-0.03630,0.03267,-1.40472,"[1.000, 0.000, 0.000, 0.000, 1.000, 0.000]",1.000,1.000,0.000,0.000,0.000,0.000,0.000,0.000,1.000,1.000,0.000,0.000
0.4650,0.99987,0.99748,0.99741,0.03680,-0.03308,1.40172,-0.00139,-0.01564,-0.01626,0.08410,-0.10594,-0.59946,0.00000,0.00000,0.00000,0.00000,0.00000,0.00000,-0.99987,-0.99748,-0.99741,-0.03680,0.03308,-1.40172,"[1.000, 0.000, 0.000, 0.000, 1.000, 0.000]",1.000,1.000,0.000,0.000,0.000,0.000,0.000,0.000,1.000,1.000,0.000,0.000
0.4700,0.99986,0.99740,0.99733,0.03734,-0.03351,1.39869,-0.00144,-0.01587,-0.01652,0.09014,-0.11213,-0.60333,0.00000,0.00000,0.00000,0.00000,0.00000,0.00000,-0.99986,-0.99740,-0.99733,-0.03734,0.03351,-1.39869,"[1.000, 0.000, 0.000, 0.000, 1.000, 0.000]",1.000,1.000,0.000,0.000,0.000,0.000,0.000,0.000,1.000,1.000,0.000,0.000
0.4750,0.99986,0.99732,0.99725,0.03791,-0.03397,1.39564,-0.00149,-0.01611,-0.01678,0.09618,-0.11832,-0.60720,0.00000,0.00000,0.00000,0.00000,0.00000,0.00000,-0.99986,-0.99732,-0.99725,-0.03791,0.03397,-1.39564,"[1.000, 0.000, 0.000, 0.000, 1.000, 0.000]",1.000,1.000,0.000,0.000,0.000,0.000,0.000,0.000,1.000,1.000,0.000,0.000
0.4800,0.99985,0.99724,0.99716,0.03851,-0.03446,1.39257,-0.00154,-0.01634,-0.01704,0.10222,-0.12450,-0.61107,0.00000,0.00000,0.00000,0.00000,0.00000,0.00000,-0.99985,-0.99724,-0.99716,-0.03851,0.03446,-1.39257,"[1.000, 0.000, 0.000, 0.000, 1.000, 0.000]",1.000,1.000,0.000,0.000,0.000,0.000,0.000,0.000,1.000,1.000,0.000,0.000
0.4850,0.99984,0.99715,0.99708,0.03914,-0.03498,1.38949,-0.00159,-0.01658,-0.01730,0.10826,-0.13069,-0.61494,0.00000,0.00000,0.00000,0.00000,0.00000,0.00000,-0.99984,-0.99715,-0.99708,-0.03914,0.03498,-1.38949,"[1.000, 0.000, 0.000, 0.000, 1.000, 0.000]",1.000,1.000,0.000,0.000,0.000,0.000,0.000,0.000,1.000,1.000,0.000,0.000
0.4900,0.99983,0.99707,0.99699,0.03981,-0.03553,1.38638,-0.00165,-0.01682,-0.01755,0.11430,-0.13688,-0.61881,0.00000,0.00000,0.00000,0.00000,0.00000,0.00000,-0.99983,-0.99707,-0.99699,-0.03981,0.03553,-1.38638,"[1.000, 0.000, 0.000, 0.000, 1.000, 0.000]",1.000,1.000,0.000,0.000,0.000,0.000,0.000,0.000,1.000,1.000,0.000,0.000
0.4950,0.99982,0.99698,0.99690,0.04051,-0.03610,1.38324,-0.00170,-0.01705,-0.01781,0.12034,-0.14307,-0.62268,0.00000,0.00000,0.00000,0.00000,0.00000,0.00000,-0.99982,-0.99698,-0.99690,-0.04051,0.03610,-1.38324,"[1.000, 0.000, 0.000, 0.000, 1.000, 0.000]",1.000,1.000,0.000,0.000,0.000,0.000,0.000,0.000,1.000,1.000,0.000,0.000
0.5000,0.99981,0.99690,0.99681,0.04121,-0.03668,1.38011,-0.00176,-0.01729,-0.01807,0.11506,-0.13826,-0.61773,0.00000,0.00000,0.00000,0.00000,0.00000,0.00000,-0.99981,-0.99690,-0.99681,-0.04121,0.03668,-1.38011,"[1.000, 0.000, 0.000, 0.000, 1.000, 0.000]",1.000,1.000,0.000,0.000,0.000,0.000,0.000,0.000,1.000,1.000,0.000,0.000
0.5050,0.99981,0.99681,0.99672,0.04189,-0.03723,1.37701,-0.00181,-0.01752,-0.01833,0.10977,-0.13345,-0.61278,0.00000,0.00000,0.00000,0.00000,0.00000,0.00000,-0.99981,-0.99681,-0.99672,-0.04189,0.03723,-1.37701,"[1.000, 0.000, 0.000, 0.000, 1.000, 0.000]",1.000,1.000,0.000,0.000,0.000,0.000,0.000,0.000,1.000,1.000,0.000,0.000
0.5100,0.99980,0.99672,0.99663,0.04254,-0.03776,1.37393,-0.00187,-0.01775,-0.01859,0.10448,-0.12864,-0.60784,0.00000,0.00000,0.00000,0.00000,0.00000,0.00000,-0.99980,-0.99672,-0.99663,-0.04254,0.03776,-1.37393,"[1.000, 0.000, 0.000, 0.000, 1.000, 0.000]",1.000,1.000,0.000,0.000,0.000,0.000,0.000,0.000,1.000,1.000,0.000,0.000
0.5150,0.99979,0.99663,0.99653,0.04316,-0.03826,1.37088,-0.00193,-0.01799,-0.01885,0.09920,-0.12382,-0.60289,0.00000,0.00000,0.00000,0.00000,0.00000,0.00000,-0.99979,-0.99663,-0.99653,-0.04316,0.03826,-1.37088,"[1.000, 0.000, 0.000, 0.000, 1.000, 0.000]",1.000,1.000,0.000,0.000,0.000,0.000,0.000,0.000,1.000,1.000,0.000,0.000
0.5200,0.99978,0.99654,0.99644,0.04376,-0.03873,1.36785,-0.00198,-0.01822,-0.01911,0.09391,-0.11901,-0.59794,0.00000,0.00000,0.00000,0.00000,0.00000,0.00000,-0.99978,-0.99654,-0.99644,-0.04376,0.03873,-1.36785,"[1.000, 0.000, 0.000, 0.000, 1.000, 0.000]",1.000,1.000,0.000,0.000,0.000,0.000,0.000,0.000,1.000,1.000,0.000,0.000
0.5250,0.99977,0.99645,0.99634,0.04434,-0.03919,1.36485,-0.00204,-0.01845,-0.01937,0.08862,-0.11420,-0.59300,0.00000,0.00000,0.00000,0.00000,0.00000,0.00000,-0.99977,-0.99645,-0.99634,-0.04434,0.03919,-1.36485,"[1.000, 0.000, 0.000, 0.000, 1.000, 0.000]",1.000,1.000,0.000,0.000,0.000,0.000,0.000,0.000,1.000,1.000,0.000,0.000
0.5300,0.99976,0.99636,0.99625,0.04488,-0.03961,1.36187,-0.00210,-0.01869,-0.01963,0.08334,-0.10939,-0.58805,0.00000,0.00000,0.00000,0.00000,0.00000,0.00000,-0.99976,-0.99636,-0.99625,-0.04488,0.03961,-1.36187,"[1.000, 0.000, 0.000, 0.000, 1.000, 0.000]",1.000,1.000,0.000,0.000,0.000,0.000,0.000,0.000,1.000,1.000,0.000,0.000
0.5350,0.99975,0.99627,0.99615,0.04540,-0.04001,1.35892,-0.00216,-0.01892,-0.01989,0.07805,-0.10458,-0.58310,0.00000,0.00000,0.00000,0.00000,0.00000,0.00000,-0.99975,-0.99627,-0.99615,-0.04540,0.04001,-1.35892,"[1.000, 0.000, 0.000, 0.000, 1.000, 0.000]",1.000,1.000,0.000,0.000,0.000,0.000,0.000,0.000,1.000,1.000,0.000,0.000
0.5400,0.99974,0.99617,0.99605,0.04590,-0.04039,1.35599,-0.00223,-0.01915,-0.02015,0.07276,-0.09977,-0.57816,0.00000,0.00000,0.00000,0.00000,0.00000,0.00000,-0.99974,-0.99617,-0.99605,-0.04590,0.04039,-1.35599,"[1.000, 0.000, 0.000, 0.000, 1.000, 0.000]",1.000,1.000,0.000,0.000,0.000,0.000,0.000,0.000,1.000,1.000,0.000,0.000
0.5450,0.99972,0.99607,0.99595,0.04637,-0.04075,1.35309,-0.00229,-0.01938,-0.02041,0.06748,-0.09496,-0.57321,0.00000,0.00000,0.00000,0.00000,0.00000,0.00000,-0.99972,-0.99607,-0.99595,-0.04637,0.04075,-1.35309,"[1.000, 0.000, 0.000, 0.000, 1.000, 0.000]",1.000,1.000,0.000,0.000,0.000,0.000,0.000,0.000,1.000,1.000,0.000,0.000
0.5500,0.99971,0.99598,0.99584,0.04683,-0.04110,1.35020,-0.00235,-0.01961,-0.02067,0.07091,-0.09859,-0.57506,0.00000,0.00000,0.00000,0.00000,0.00000,0.00000,-0.99971,-0.99598,-0.99584,-0.04683,0.04110,-1.35020,"[1.000, 0.000, 0.000, 0.000, 1.000, 0.000]",1.000,1.000,0.000,0.000,0.000,0.000,0.000,0.000,1.000,1.000,0.000,0.000
0.5550,0.99970,0.99588,0.99574,0.04731,-0.04146,1.34730,-0.00241,-0.01984,-0.02092,0.07435,-0.10222,-0.57691,0.00000,0.00000,0.00000,0.00000,0.00000,0.00000,-0.99970,-0.99588,-0.99574,-0.04731,0.04146,-1.34730,"[1.000, 0.000, 0.000, 0.000, 1.000, 0.000]",1.000,1.000,0.000,0.000,0.000,0.000,0.000,0.000,1.000,1.000,0.000,0.000
0.5600,0.99969,0.99578,0.99563,0.04782,-0.04184,1.34439,-0.00248,-0.02008,-0.02118,0.07779,-0.10585,-0.57877,0.00000,0.00000,0.00000,0.00000,0.00000,0.00000,-0.99969,-0.99578,-0.99563,-0.04782,0.04184,-1.34439,"[1.000, 0.000, 0.000, 0.000, 1.000, 0.000]",1.000,1.000,0.000,0.000,0.000,0.000,0.000,0.000,1.000,1.000,0.000,0.000
0.5650,0.99968,0.99568,0.99553,0.04834,-0.04224,1.34146,-0.00254,-0.02031,-0.02144,0.08122,-0.10947,-0.58062,0.00000,0.00000,0.00000,0.00000,0.00000,0.00000,-0.99968,-0.99568,-0.99553,-0.04834,0.04224,-1.34146,"[1.000, 0.000, 0.000, 0.000, 1.000, 0.000]",1.000,1.000,0.000,0.000,0.000,0.000,0.000,0.000,1.000,1.000,0.000,0.000
0.5700,0.99966,0.99557,0.99542,0.04888,-0.04266,1.33853,-0.00261,-0.02054,-0.02170,0.08466,-0.11310,-0.58247,0.00000,0.00000,0.00000,0.00000,0.00000,0.00000,-0.99966,-0.99557,-0.99542,-0.04888,0.04266,-1.33853,"[1.000, 0.000, 0.000, 0.000, 1.000, 0.000]",1.000,1.000,0.000,0.000,0.000,0.000,0.000,0.000,1.000,1.000,0.000,0.000
0.5750,0.99965,0.99547,0.99531,0.04943,-0.04309,1.33558,-0.00268,-0.02077,-0.02196,0.08810,-0.11673,-0.58432,0.00000,0.00000,0.00000,0.00000,0.00000,0.00000,-0.99965,-0.99547,-0.99531,-0.04943,0.04309,-1.33558,"[1.000, 0.000, 0.000, 0.000, 1.000, 0.000]",1.000,1.000,0.000,0.000,0.000,0.000,0.000,0.000,1.000,1.000,0.000,0.000
0.5800,0.99964,0.99537,0.99520,0.05001,-0.04353,1.33263,-0.00275,-0.02100,-0.02223,0.09154,-0.12036,-0.58617,0.00000,0.00000,0.00000,0.00000,0.00000,0.00000,-0.99964,-0.99537,-0.99520,-0.05001,0.04353,-1.33263,"[1.000, 0.000, 0.000, 0.000, 1.000, 0.000]",1.000,1.000,0.000,0.000,0.000,0.000,0.000,0.000,1.000,1.000,0.000,0.000
0.5850,0.99962,0.99526,0.99509,0.05061,-0.04400,1.32966,-0.00281,-0.02123,-0.02249,0.09497,-0.12399,-0.58803,0.00000,0.00000,0.00000,0.00000,0.00000,0.00000,-0.99962,-0.99526,-0.99509,-0.05061,0.04400,-1.32966,"[1.000, 0.000, 0.000, 0.000, 1.000, 0.000]",1.000,1.000,0.000,0.000,0.000,0.000,0.000,0.000,1.000,1.000,0.000,0.000
0.5900,0.99961,0.99516,0.99497,0.05122,-0.04447,1.32669,-0.00288,-0.02145,-0.02275,0.09841,-0.12762,-0.58988,0.00000,0.00000,0.00000,0.00000,0.00000,0.00000,-0.99961,-0.99516,-0.99497,-0.05122,0.04447,-1.32669,"[1.000, 0.000, 0.000, 0.000, 1.000, 0.000]",1.000,1.000,0.000,0.000,0.000,0.000,0.000,0.000,1.000,1.000,0.000,0.000
0.5950,0.99959,0.99505,0.99486,0.05186,-0.04497,1.32370,-0.00295,-0.02168,-0.02301,0.10185,-0.13124,-0.59173,0.00000,0.00000,0.00000,0.00000,0.00000,0.00000,-0.99959,-0.99505,-0.99486,-0.05186,0.04497,-1.32370,"[1.000, 0.000, 0.000, 0.000, 1.000, 0.000]",1.000,1.000,0.000,0.000,0.000,0.000,0.000,0.000,1.000,1.000,0.000,0.000
0.6000,0.99958,0.99494,0.99474,0.05249,-0.04546,1.32072,-0.00302,-0.02191,-0.02327,0.09850,-0.12829,-0.58830,0.00000,0.00000,0.00000,0.00000,0.00000,0.00000,-0.99958,-0.99494,-0.99474,-0.05249,0.04546,-1.32072,"[1.000, 0.000, 0.000, 0.000, 1.000, 0.000]",1.000,1.000,0.000,0.000,0.000,0.000,0.000,0.000,1.000,1.000,0.000,0.000
0.6050,0.99956,0.99483,0.99463,0.05311,-0.04594,1.31775,-0.00310,-0.02214,-0.02353,0.09515,-0.12534,-0.58487,0.00000,0.00000,0.00000,0.00000,0.00000,0.00000,-0.99956,-0.99483,-0.99463,-0.05311,0.04594,-1.31775,"[1.000, 0.000, 0.000, 0.000, 1.000, 0.000]",1.000,1.000,0.000,0.000,0.000,0.000,0.000,0.000,1.000,1.000,0.000,0.000
0.6100,0.99955,0.99472,0.99451,0.05371,-0.04640,1.31481,-0.00317,-0.02237,-0.02379,0.09180,-0.12239,-0.58144,0.00000,0.00000,0.00000,0.00000,0.00000,0.00000,-0.99955,-0.99472,-0.99451,-0.05371,0.04640,-1.31481,"[1.000, 0.000, 0.000, 0.000, 1.000, 0.000]",1.000,1.000,0.000,0.000,0.000,0.000,0.000,0.000,1.000,1.000,0.000,0.000
0.6150,0.99953,0.99460,0.99439,0.05430,-0.04685,1.31187,-0.00324,-0.02259,-0.02405,0.08845,-0.11944,-0.57801,0.00000,0.00000,0.00000,0.00000,0.00000,0.00000,-0.99953,-0.99460,-0.99439,-0.05430,0.04685,-1.31187,"[1.000, 0.000, 0.000, 0.000, 1.000, 0.000]",1.000,1.000,0.000,0.000,0.000,0.000,0.000,0.000,1.000,1.000,0.000,0.000
0.6200,0.99951,0.99449,0.99427,0.05487,-0.04728,1.30896,-0.00332,-0.02282,-0.02431,0.08509,-0.11649,-0.57458,0.00000,0.00000,0.00000,0.00000,0.00000,0.00000,-0.99951,-0.99449,-0.99427,-0.05487,0.04728,-1.30896,"[1.000, 0.000, 0.000, 0.000, 1.000, 0.000]",1.000,1.000,0.000,0.000,0.000,0.000,0.000,0.000,1.000,1.000,0.000,0.000
0.6250,0.99950,0.99438,0.99415,0.05543,-0.04770,1.30607,-0.00339,-0.02305,-0.02457,0.08174,-0.11353,-0.57114,0.00000,0.00000,0.00000,0.00000,0.00000,0.00000,-0.99950,-0.99438,-0.99415,-0.05543,0.04770,-1.30607,"[1.000, 0.000, 0.000, 0.000, 1.000, 0.000]",1.000,1.000,0.000,0.000,0.000,0.000,0.000,0.000,1.000,1.000,0.000,0.000
0.6300,0.99948,0.99426,0.99402,0.05596,-0.04810,1.30319,-0.00347,-0.02327,-0.02483,0.07839,-0.11058,-0.56771,0.00000,0.00000,0.00000,0.00000,0.00000,0.00000,-0.99948,-0.99426,-0.99402,-0.05596,0.04810,-1.30319,"[1.000, 0.000, 0.000, 0.000, 1.000, 0.000]",1.000,1.000,0.000,0.000,0.000,0.000,0.000,0.000,1.000,1.000,0.000,0.000
0.6350,0.99946,0.99414,0.99390,0.05649,-0.04849,1.30033,-0.00354,-0.02350,-0.02509,0.07504,-0.10763,-0.56428,0.00000,0.00000,0.00000,0.00000,0.00000,0.00000,-0.99946,-0.99414,-0.99390,-0.05649,0.04849,-1.30033,"[1.000, 0.000, 0.000, 0.000, 1.000, 0.000]",1.000,1.000,0.000,0.000,0.000,0.000,0.000,0.000,1.000,1.000,0.000,0.000
0.6400,0.99945,0.99403,0.99377,0.05699,-0.04886,1.29749,-0.00362,-0.02372,-0.02536,0.07169,-0.10468,-0.56085,0.00000,0.00000,0.00000,0.00000,0.00000,0.00000,-0.99945,-0.99403,-0.99377,-0.05699,0.04886,-1.29749,"[1.000, 0.000, 0.000, 0.000, 1.000, 0.000]",1.000,1.000,0.000,0.000,0.000,0.000,0.000,0.000,1.000,1.000,0.000,0.000
0.6450,0.99943,0.99391,0.99364,0.05748,-0.04921,1.29467,-0.00370,-0.02395,-0.02562,0.06834,-0.10173,-0.55742,0.00000,0.00000,0.00000,0.00000,0.00000,0.00000,-0.99943,-0.99391,-0.99364,-0.05748,0.04921,-1.29467,"[1.000, 0.000, 0.000, 0.000, 1.000, 0.000]",1.000,1.000,0.000,0.000,0.000,0.000,0.000,0.000,1.000,1.000,0.000,0.000
0.6500,0.99941,0.99379,0.99352,0.05797,-0.04956,1.29185,-0.00378,-0.02417,-0.02588,0.07038,-0.10397,-0.55819,0.00000,0.00000,0.00000,0.00000,0.00000,0.00000,-0.99941,-0.99379,-0.99352,-0.05797,0.04956,-1.29185,"[1.000, 0.000, 0.000, 0.000, 1.000, 0.000]",1.000,1.000,0.000,0.000,0.000,0.000,0.000,0.000,1.000,1.000,0.000,0.000
0.6550,0.99939,0.99366,0.99339,0.05846,-0.04993,1.28903,-0.00386,-0.02440,-0.02614,0.07242,-0.10621,-0.55896,0.00000,0.00000,0.00000,0.00000,0.00000,0.00000,-0.99939,-0.99366,-0.99339,-0.05846,0.04993,-1.28903,"[1.000, 0.000, 0.000, 0.000, 1.000, 0.000]",1.000,1.000,0.000,0.000,0.000,0.000,0.000,0.000,1.000,1.000,0.000,0.000
0.6600,0.99937,0.99354,0.99325,0.05897,-0.05030,1.28620,-0.00394,-0.02462,-0.02640,0.07446,-0.10846,-0.55973,0.00000,0.00000,0.00000,0.00000,0.00000,0.00000,-0.99937,-0.99354,-0.99325,-0.05897,0.05030,-1.28620,"[1.000, 0.000, 0.000, 0.000, 1.000, 0.000]",1.000,1.000,0.000,0.000,0.000,0.000,0.000,0.000,1.000,1.000,0.000,0.000
0.6650,0.99935,0.99342,0.99312,0.05949,-0.05068,1.28337,-0.00402,-0.02484,-0.02666,0.07650,-0.11070,-0.56050,0.00000,0.00000,0.00000,0.00000,0.00000,0.00000,-0.99935,-0.99342,-0.99312,-0.05949,0.05068,-1.28337,"[1.000, 0.000, 0.000, 0.000, 1.000, 0.000]",1.000,1.000,0.000,0.000,0.000,0.000,0.000,0.000,1.000,1.000,0.000,0.000
0.6700,0.99933,0.99329,0.99299,0.06002,-0.05107,1.28053,-0.00410,-0.02507,-0.02693,0.07854,-0.11295,-0.56126,0.00000,0.00000,0.00000,0.00000,0.00000,0.00000,-0.99933,-0.99329,-0.99299,-0.06002,0.05107,-1.28053,"[1.000, 0.000, 0.000, 0.000, 1.000, 0.000]",1.000,1.000,0.000,0.000,0.000,0.000,0.000,0.000,1.000,1.000,0.000,0.000
0.6750,0.99931,0.99317,0.99285,0.06057,-0.05147,1.27769,-0.00418,-0.02529,-0.02719,0.08058,-0.11519,-0.56203,0.00000,0.00000,0.00000,0.00000,0.00000,0.00000,-0.99931,-0.99317,-0.99285,-0.06057,0.05147,-1.27769,"[1.000, 0.000, 0.000, 0.000, 1.000, 0.000]",1.000,1.000,0.000,0.000,0.000,0.000,0.000,0.000,1.000,1.000,0.000,0.000
0.6800,0.99929,0.99304,0.99272,0.06112,-0.05188,1.27484,-0.00426,-0.02551,-0.02745,0.08262,-0.11744,-0.56280,0.00000,0.00000,0.00000,0.00000,0.00000,0.00000,-0.99929,-0.99304,-0.99272,-0.06112,0.05188,-1.27484,"[1.000, 0.000, 0.000, 0.000, 1.000, 0.000]",1.000,1.000,0.000,0.000,0.000,0.000,0.000,0.000,1.000,1.000,0.000,0.000
0.6850,0.99927,0.99291,0.99258,0.06169,-0.05230,1.27199,-0.00435,-0.02573,-0.02771,0.08467,-0.11968,-0.56357,0.00000,0.00000,0.00000,0.00000,0.00000,0.00000,-0.99927,-0.99291,-0.99258,-0.06169,0.05230,-1.27199,"[1.000, 0.000, 0.000, 0.000, 1.000, 0.000]",1.000,1.000,0.000,0.000,0.000,0.000,0.000,0.000,1.000,1.000,0.000,0.000
0.6900,0.99924,0.99278,0.99244,0.06227,-0.05273,1.26914,-0.00443,-0.02595,-0.02797,0.08671,-0.12192,-0.56434,0.00000,0.00000,0.00000,0.00000,0.00000,0.00000,-0.99924,-0.99278,-0.99244,-0.06227,0.05273,-1.26914,"[1.000, 0.000, 0.000, 0.000, 1.000, 0.000]",1.000,1.000,0.000,0.000,0.000,0.000,0.000,0.000,1.000,1.000,0.000,0.000
0.6950,0.99922,0.99265,0.99230,0.06286,-0.05316,1.26628,-0.00452,-0.02618,-0.02824,0.08875,-0.12417,-0.56511,0.00000,0.00000,0.00000,0.00000,0.00000,0.00000,-0.99922,-0.99265,-0.99230,-0.06286,0.05316,-1.26628,"[1.000, 0.000, 0.000, 0.000, 1.000, 0.000]",1.000,1.000,0.000,0.000,0.000,0.000,0.000,0.000,1.000,1.000,0.000,0.000
0.7000,0.99920,0.99252,0.99216,0.06345,-0.05360,1.26342,-0.00460,-0.02640,-0.02850,0.08657,-0.12234,-0.56260,0.00000,0.00000,0.00000,0.00000,0.00000,0.00000,-0.99920,-0.99252,-0.99216,-0.06345,0.05360,-1.26342,"[1.000, 0.000, 0.000, 0.000, 1.000, 0.000]",1.000,1.000,0.000,0.000,0.000,0.000,0.000,0.000,1.000,1.000,0.000,0.000
0.7050,0.99918,0.99239,0.99201,0.06403,-0.05403,1.26058,-0.00469,-0.02662,-0.02876,0.08440,-0.12050,-0.56010,0.00000,0.00000,0.00000,0.00000,0.00000,0.00000,-0.99918,-0.99239,-0.99201,-0.06403,0.05403,-1.26058,"[1.000, 0.000, 0.000, 0.000, 1.000, 0.000]",1.000,1.000,0.000,0.000,0.000,0.000,0.000,0.000,1.000,1.000,0.000,0.000
0.7100,0.99915,0.99226,0.99187,0.06460,-0.05445,1.25774,-0.00478,-0.02684,-0.02902,0.08222,-0.11867,-0.55759,0.00000,0.00000,0.00000,0.00000,0.00000,0.00000,-0.99915,-0.99226,-0.99187,-0.06460,0.05445,-1.25774,"[1.000, 0.000, 0.000, 0.000, 1.000, 0.000]",1.000,1.000,0.000,0.000,0.000,0.000,0.000,0.000,1.000,1.000,0.000,0.000
0.7150,0.99913,0.99212,0.99172,0.06516,-0.05485,1.25493,-0.00486,-0.02706,-0.02929,0.08005,-0.11684,-0.55509,0.00000,0.00000,0.00000,0.00000,0.00000,0.00000,-0.99913,-0.99212,-0.99172,-0.06516,0.05485,-1.25493,"[1.000, 0.000, 0.000, 0.000, 1.000, 0.000]",1.000,1.000,0.000,0.000,0.000,0.000,0.000,0.000,1.000,1.000,0.000,0.000
0.7200,0.99910,0.99198,0.99158,0.06571,-0.05525,1.25212,-0.00495,-0.02728,-0.02955,0.07788,-0.11500,-0.55258,0.00000,0.00000,0.00000,0.00000,0.00000,0.00000,-0.99910,-0.99198,-0.99158,-0.06571,0.05525,-1.25212,"[1.000, 0.000, 0.000, 0.000, 1.000, 0.000]",1.000,1.000,0.000,0.000,0.000,0.000,0.000,0.000,1.000,1.000,0.000,0.000
0.7250,0.99908,0.99185,0.99143,0.06625,-0.05564,1.24933,-0.00504,-0.02749,-0.02981,0.07570,-0.11317,-0.55007,0.00000,0.00000,0.00000,0.00000,0.00000,0.00000,-0.99908,-0.99185,-0.99143,-0.06625,0.05564,-1.24933,"[1.000, 0.000, 0.000, 0.000, 1.000, 0.000]",1.000,1.000,0.000,0.000,0.000,0.000,0.000,0.000,1.000,1.000,0.000,0.000
0.7300,0.99905,0.99171,0.99128,0.06677,-0.05601,1.24655,-0.00513,-0.02771,-0.03008,0.07353,-0.11134,-0.54757,0.00000,0.00000,0.00000,0.00000,0.00000,0.00000,-0.99905,-0.99171,-0.99128,-0.06677,0.05601,-1.24655,"[1.000, 0.000, 0.000, 0.000, 1.000, 0.000]",1.000,1.000,0.000,0.000,0.000,0.000,0.000,0.000,1.000,1.000,0.000,0.000
0.7350,0.99903,0.99157,0.99113,0.06729,-0.05638,1.24378,-0.00522,-0.02793,-0.03034,0.07136,-0.10951,-0.54506,0.00000,0.00000,0.00000,0.00000,0.00000,0.00000,-0.99903,-0.99157,-0.99113,-0.06729,0.05638,-1.24378,"[1.000, 0.000, 0.000, 0.000, 1.000, 0.000]",1.000,1.000,0.000,0.000,0.000,0.000,0.000,0.000,1.000,1.000,0.000,0.000
0.7400,0.99900,0.99143,0.99097,0.06780,-0.05674,1.24103,-0.00531,-0.02815,-0.03060,0.06918,-0.10767,-0.54256,0.00000,0.00000,0.00000,0.00000,0.00000,0.00000,-0.99900,-0.99143,-0.99097,-0.06780,0.05674,-1.24103,"[1.000, 0.000, 0.000, 0.000, 1.000, 0.000]",1.000,1.000,0.000,0.000,0.000,0.000,0.000,0.000,1.000,1.000,0.000,0.000
0.7450,0.99897,0.99129,0.99082,0.06830,-0.05709,1.23829,-0.00541,-0.02837,-0.03087,0.06701,-0.10584,-0.54005,0.00000,0.00000,0.00000,0.00000,0.00000,0.00000,-0.99897,-0.99129,-0.99082,-0.06830,0.05709,-1.23829,"[1.000, 0.000, 0.000, 0.000, 1.000, 0.000]",1.000,1.000,0.000,0.000,0.000,0.000,0.000,0.000,1.000,1.000,0.000,0.000
0.7500,0.99895,0.99115,0.99067,0.06879,-0.05744,1.23555,-0.00550,-0.02858,-0.03113,0.06812,-0.10717,-0.54011,0.00000,0.00000,0.00000,0.00000,0.00000,0.00000,-0.99895,-0.99115,-0.99067,-0.06879,0.05744,-1.23555,"[1.000, 0.000, 0.000, 0.000, 1.000, 0.000]",1.000,1.000,0.000,0.000,0.000,0.000,0.000,0.000,1.000,1.000,0.000,0.000
0.7550,0.99892,0.99100,0.99051,0.06929,-0.05779,1.23282,-0.00559,-0.02880,-0.03139,0.06924,-0.10850,-0.54017,0.00000,0.00000,0.00000,0.00000,0.00000,0.00000,-0.99892,-0.99100,-0.99051,-0.06929,0.05779,-1.23282,"[1.000, 0.000, 0.000, 0.000, 1.000, 0.000]",1.000,1.000,0.000,0.000,0.000,0.000,0.000,0.000,1.000,1.000,0.000,0.000
0.7600,0.99889,0.99086,0.99035,0.06980,-0.05814,1.23008,-0.00569,-0.02902,-0.03166,0.07036,-0.10982,-0.54023,0.00000,0.00000,0.00000,0.00000,0.00000,0.00000,-0.99889,-0.99086,-0.99035,-0.06980,0.05814,-1.23008,"[1.000, 0.000, 0.000, 0.000, 1.000, 0.000]",1.000,1.000,0.000,0.000,0.000,0.000,0.000,0.000,1.000,1.000,0.000,0.000
0.7650,0.99886,0.99071,0.99019,0.07031,-0.05851,1.22734,-0.00578,-0.02923,-0.03192,0.07148,-0.11115,-0.54029,0.00000,0.00000,0.00000,0.00000,0.00000,0.00000,-0.99886,-0.99071,-0.99019,-0.07031,0.05851,-1.22734,"[1.000, 0.000, 0.000, 0.000, 1.000, 0.000]",1.000,1.000,0.000,0.000,0.000,0.000,0.000,0.000,1.000,1.000,0.000,0.000
0.7700,0.99883,0.99057,0.99003,0.07083,-0.05887,1.22460,-0.00588,-0.02945,-0.03218,0.07260,-0.11248,-0.54035,0.00000,0.00000,0.00000,0.00000,0.00000,0.00000,-0.99883,-0.99057,-0.99003,-0.07083,0.05887,-1.22460,"[1.000, 0.000, 0.000, 0.000, 1.000, 0.000]",1.000,1.000,0.000,0.000,0.000,0.000,0.000,0.000,1.000,1.000,0.000,0.000
0.7750,0.99880,0.99042,0.98987,0.07136,-0.05925,1.22186,-0.00597,-0.02966,-0.03245,0.07371,-0.11380,-0.54040,0.00000,0.00000,0.00000,0.00000,0.00000,0.00000,-0.99880,-0.99042,-0.98987,-0.07136,0.05925,-1.22186,"[1.000, 0.000, 0.000, 0.000, 1.000, 0.000]",1.000,1.000,0.000,0.000,0.000,0.000,0.000,0.000,1.000,1.000,0.000,0.000
0.7800,0.99877,0.99027,0.98971,0.07190,-0.05962,1.21912,-0.00607,-0.02988,-0.03271,0.07483,-0.11513,-0.54046,0.00000,0.00000,0.00000,0.00000,0.00000,0.00000,-0.99877,-0.99027,-0.98971,-0.07190,0.05962,-1.21912,"[1.000, 0.000, 0.000, 0.000, 1.000, 0.000]",1.000,1.000,0.000,0.000,0.000,0.000,0.000,0.000,1.000,1.000,0.000,0.000
0.7850,0.99874,0.99012,0.98954,0.07244,-0.06001,1.21638,-0.00617,-0.03009,-0.03297,0.07595,-0.11646,-0.54052,0.00000,0.00000,0.00000,0.00000,0.00000,0.00000,-0.99874,-0.99012,-0.98954,-0.07244,0.06001,-1.21638,"[1.000, 0.000, 0.000, 0.000, 1.000, 0.000]",1.000,1.000,0.000,0.000,0.000,0.000,0.000,0.000,1.000,1.000,0.000,0.000
0.7900,0.99871,0.98997,0.98938,0.07298,-0.06039,1.21364,-0.00627,-0.03030,-0.03324,0.07707,-0.11779,-0.54058,0.00000,0.00000,0.00000,0.00000,0.00000,0.00000,-0.99871,-0.98997,-0.98938,-0.07298,0.06039,-1.21364,"[1.000, 0.000, 0.000, 0.000, 1.000, 0.000]",1.000,1.000,0.000,0.000,0.000,0.000,0.000,0.000,1.000,1.000,0.000,0.000
0.7950,0.99868,0.98982,0.98921,0.07354,-0.06079,1.21089,-0.00637,-0.03052,-0.03350,0.07818,-0.11911,-0.54064,0.00000,0.00000,0.00000,0.00000,0.00000,0.00000,-0.99868,-0.98982,-0.98921,-0.07354,0.06079,-1.21089,"[1.000, 0.000, 0.000, 0.000, 1.000, 0.000]",1.000,1.000,0.000,0.000,0.000,0.000,0.000,0.000,1.000,1.000,0.000,0.000
0.8000,0.99865,0.98966,0.98904,0.07409,-0.06118,1.20815,-0.00647,-0.03073,-0.03377,0.07670,-0.11793,-0.53869,0.00000,0.00000,0.00000,0.00000,0.00000,0.00000,-0.99865,-0.98966,-0.98904,-0.07409,0.06118,-1.20815,"[1.000, 0.000, 0.001, 0.000, 1.000, 0.000]",1.000,1.000,0.000,0.000,0.001,0.001,0.000,0.000,1.000,1.000,0.000,0.000
0.8050,0.99862,0.98951,0.98887,0.07464,-0.06156,1.20542,-0.00657,-0.03094,-0.03403,0.07523,-0.11675,-0.53673,0.00000,0.00000,0.00000,0.00000,0.00000,0.00000,-0.99862,-0.98951,-0.98887,-0.07464,0.06156,-1.20542,"[1.000, 0.000, 0.001, 0.000, 1.000, 0.000]",1.000,1.000,0.000,0.000,0.001,0.001,0.000,0.000,1.000,1.000,0.000,0.000
0.8100,0.99858,0.98935,0.98870,0.07518,-0.06194,1.20270,-0.00667,-0.03116,-0.03429,0.07375,-0.11556,-0.53478,0.00000,0.00000,0.00000,0.00000,0.00000,0.00000,-0.99858,-0.98935,-0.98870,-0.07518,0.06194,-1.20270,"[1.000, 0.000, 0.001, 0.000, 1.000, 0.000]",1.000,1.000,0.000,0.000,0.001,0.001,0.000,0.000,1.000,1.000,0.000,0.000
0.8150,0.99855,0.98920,0.98853,0.07571,-0.06231,1.19999,-0.00677,-0.03137,-0.03456,0.07227,-0.11438,-0.53283,0.00000,0.00000,0.00000,0.00000,0.00000,0.00000,-0.99855,-0.98920,-0.98853,-0.07571,0.06231,-1.19999,"[1.000, 0.000, 0.001, 0.000, 1.000, 0.000]",1.000,1.000,0.000,0.000,0.001,0.001,0.000,0.000,1.000,1.000,0.000,0.000
0.8200,0.99852,0.98904,0.98836,0.07624,-0.06268,1.19729,-0.00687,-0.03158,-0.03482,0.07079,-0.11320,-0.53088,0.00000,0.00000,0.00000,0.00000,0.00000,0.00000,-0.99852,-0.98904,-0.98836,-0.07624,0.06268,-1.19729,"[1.000, 0.000, 0.001, 0.000, 1.000, 0.000]",1.000,1.000,0.000,0.000,0.001,0.001,0.000,0.000,1.000,1.000,0.000,0.000
0.8250,0.99848,0.98888,0.98818,0.07676,-0.06304,1.19460,-0.00698,-0.03179,-0.03509,0.06931,-0.11201,-0.52892,0.00000,0.00000,0.00000,0.00000,0.00000,0.00000,-0.99848,-0.98888,-0.98818,-0.07676,0.06304,-1.19460,"[1.000, 0.000, 0.001, 0.000, 1.000, 0.000]",1.000,1.000,0.000,0.000,0.001,0.001,0.000,0.000,1.000,1.000,0.000,0.000
0.8300,0.99845,0.98872,0.98801,0.07727,-0.06339,1.19192,-0.00708,-0.03200,-0.03535,0.06783,-0.11083,-0.52697,0.00000,0.00000,0.00000,0.00000,0.00000,0.00000,-0.99845,-0.98872,-0.98801,-0.07727,0.06339,-1.19192,"[1.000, 0.000, 0.001, 0.000, 1.000, 0.000]",1.000,1.000,0.000,0.000,0.001,0.001,0.000,0.000,1.000,1.000,0.000,0.000
0.8350,0.99841,0.98856,0.98783,0.07778,-0.06374,1.18925,-0.00718,-0.03221,-0.03562,0.06636,-0.10965,-0.52502,0.00000,0.00000,0.00000,0.00000,0.00000,0.00000,-0.99841,-0.98856,-0.98783,-0.07778,0.06374,-1.18925,"[1.000, 0.000, 0.001, 0.000, 1.000, 0.000]",1.000,1.000,0.000,0.000,0.001,0.001,0.000,0.000,1.000,1.000,0.000,0.000
0.8400,0.99837,0.98840,0.98765,0.07827,-0.06408,1.18659,-0.00729,-0.03242,-0.03588,0.06488,-0.10846,-0.52306,0.00000,0.00000,0.00000,0.00000,0.00000,0.00000,-0.99837,-0.98840,-0.98765,-0.07827,0.06408,-1.18659,"[1.000, 0.000, 0.001, 0.000, 1.000, 0.000]",1.000,1.000,0.000,0.000,0.001,0.001,0.000,0.000,1.000,1.000,0.000,0.000
0.8450,0.99834,0.98824,0.98747,0.07876,-0.06441,1.18394,-0.00739,-0.03263,-0.03615,0.06340,-0.10728,-0.52111,0.00000,0.00000,0.00000,0.00000,0.00000,0.00000,-0.99834,-0.98824,-0.98747,-0.07876,0.06441,-1.18394,"[1.000, 0.000, 0.001, 0.000, 1.000, 0.000]",1.000,1.000,0.000,0.000,0.001,0.001,0.000,0.000,1.000,1.000,0.000,0.000
0.8500,0.99830,0.98807,0.98729,0.07925,-0.06474,1.18130,-0.00750,-0.03284,-0.03641,0.06397,-0.10805,-0.52075,0.00000,0.00000,0.00000,0.00000,0.00000,0.00000,-0.99830,-0.98807,-0.98729,-0.07925,0.06474,-1.18130,"[1.000, 0.000, 0.000, 0.000, 1.000, 0.000]",1.000,1.000,0.000,0.000,0.000,0.000,0.000,0.000,1.000,1.000,0.000,0.000
0.8550,0.99826,0.98791,0.98711,0.07975,-0.06507,1.17865,-0.00761,-0.03305,-0.03668,0.06453,-0.10882,-0.52039,0.00000,0.00000,0.00000,0.00000,0.00000,0.00000,-0.99826,-0.98791,-0.98711,-0.07975,0.06507,-1.17865,"[1.000, 0.000, 0.000, 0.000, 1.000, 0.000]",1.000,1.000,0.000,0.000,0.000,0.000,0.000,0.000,1.000,1.000,0.000,0.000
0.8600,0.99822,0.98774,0.98692,0.08024,-0.06541,1.17601,-0.00771,-0.03325,-0.03694,0.06510,-0.10960,-0.52004,0.00000,0.00000,0.00000,0.00000,0.00000,0.00000,-0.99822,-0.98774,-0.98692,-0.08024,0.06541,-1.17601,"[1.000, 0.000, 0.000, 0.000, 1.000, 0.000]",1.000,1.000,0.000,0.000,0.000,0.000,0.000,0.000,1.000,1.000,0.000,0.000
0.8650,0.99818,0.98758,0.98674,0.08074,-0.06575,1.17337,-0.00782,-0.03346,-0.03720,0.06567,-0.11037,-0.51968,0.00000,0.00000,0.00000,0.00000,0.00000,0.00000,-0.99818,-0.98758,-0.98674,-0.08074,0.06575,-1.17337,"[1.000, 0.000, 0.000, 0.000, 1.000, 0.000]",1.000,1.000,0.000,0.000,0.000,0.000,0.000,0.000,1.000,1.000,0.000,0.000
0.8700,0.99815,0.98741,0.98655,0.08125,-0.06609,1.17073,-0.00793,-0.03367,-0.03747,0.06624,-0.11114,-0.51932,0.00000,0.00000,0.00000,0.00000,0.00000,0.00000,-0.99815,-0.98741,-0.98655,-0.08125,0.06609,-1.17073,"[1.000, 0.000, 0.000, 0.000, 1.000, 0.000]",1.000,1.000,0.000,0.000,0.000,0.000,0.000,0.000,1.000,1.000,0.000,0.000
0.8750,0.99811,0.98724,0.98636,0.08175,-0.06644,1.16809,-0.00804,-0.03387,-0.03774,0.06680,-0.11191,-0.51896,0.00000,0.00000,0.00000,0.00000,0.00000,0.00000,-0.99811,-0.98724,-0.98636,-0.08175,0.06644,-1.16809,"[1.000, 0.000, 0.000, 0.000, 1.000, 0.000]",1.000,1.000,0.000,0.000,0.000,0.000,0.000,0.000,1.000,1.000,0.000,0.000
0.8800,0.99806,0.98707,0.98617,0.08226,-0.06678,1.16546,-0.00815,-0.03408,-0.03800,0.06737,-0.11268,-0.51860,0.00000,0.00000,0.00000,0.00000,0.00000,0.00000,-0.99806,-0.98707,-0.98617,-0.08226,0.06678,-1.16546,"[1.000, 0.000, 0.000, 0.000, 1.000, 0.000]",1.000,1.000,0.000,0.000,0.000,0.000,0.000,0.000,1.000,1.000,0.000,0.000
0.8850,0.99802,0.98690,0.98598,0.08278,-0.06713,1.16282,-0.00826,-0.03429,-0.03827,0.06794,-0.11345,-0.51824,0.00000,0.00000,0.00000,0.00000,0.00000,0.00000,-0.99802,-0.98690,-0.98598,-0.08278,0.06713,-1.16282,"[1.000, 0.000, 0.000, 0.000, 1.000, 0.000]",1.000,1.000,0.000,0.000,0.000,0.000,0.000,0.000,1.000,1.000,0.000,0.000
0.8900,0.99798,0.98673,0.98579,0.08330,-0.06749,1.16019,-0.00837,-0.03449,-0.03853,0.06851,-0.11422,-0.51789,0.00000,0.00000,0.00000,0.00000,0.00000,0.00000,-0.99798,-0.98673,-0.98579,-0.08330,0.06749,-1.16019,"[1.000, 0.000, 0.000, 0.000, 1.000, 0.000]",1.000,1.000,0.000,0.000,0.000,0.000,0.000,0.000,1.000,1.000,0.000,0.000
0.8950,0.99794,0.98655,0.98560,0.08382,-0.06784,1.15755,-0.00849,-0.03470,-0.03880,0.06907,-0.11500,-0.51753,0.00000,0.00000,0.00000,0.00000,0.00000,0.00000,-0.99794,-0.98655,-0.98560,-0.08382,0.06784,-1.15755,"[1.000, 0.000, 0.000, 0.000, 1.000, 0.000]",1.000,1.000,0.000,0.000,0.000,0.000,0.000,0.000,1.000,1.000,0.000,0.000
0.9000,0.99790,0.98638,0.98540,0.08434,-0.06819,1.15492,-0.00860,-0.03490,-0.03906,0.06808,-0.11426,-0.51596,0.00000,0.00000,0.00000,0.00000,0.00000,0.00000,-0.99790,-0.98638,-0.98540,-0.08434,0.06819,-1.15492,"[1.000, 0.000, 0.000, 0.000, 1.000, 0.000]",1.000,1.000,0.000,0.000,0.000,0.000,0.000,0.000,1.000,1.000,0.000,0.000
0.9050,0.99785,0.98621,0.98521,0.08486,-0.06854,1.15230,-0.00871,-0.03511,-0.03933,0.06708,-0.11351,-0.51440,0.00000,0.00000,0.00000,0.00000,0.00000,0.00000,-0.99785,-0.98621,-0.98521,-0.08486,0.06854,-1.15230,"[1.000, 0.000, 0.000, 0.000, 1.000, 0.000]",1.000,1.000,0.000,0.000,0.000,0.000,0.000,0.000,1.000,1.000,0.000,0.000
0.9100,0.99781,0.98603,0.98501,0.08537,-0.06889,1.14969,-0.00882,-0.03531,-0.03959,0.06609,-0.11277,-0.51283,0.00000,0.00000,0.00000,0.00000,0.00000,0.00000,-0.99781,-0.98603,-0.98501,-0.08537,0.06889,-1.14969,"[1.000, 0.000, 0.000, 0.000, 1.000, 0.000]",1.000,1.000,0.000,0.000,0.000,0.000,0.000,0.000,1.000,1.000,0.000,0.000
