Step,MPC_Start_Time,Control_Time,Actual_Time_Interval,CONTROL_DT,Mission_Phase,Waypoint_Number,Telemetry_X_mm,Telemetry_Y_mm,Telemetry_Z_mm,Telemetry_Roll_deg,Telemetry_Pitch_deg,Telemetry_Yaw_deg,Current_X,Current_Y,Current_Z,Current_Roll,Current_Pitch,Current_Yaw,Current_VX,Current_VY,Current_VZ,Current_WX,Current_WY,Current_WZ,Target_X,Target_Y,Target_Z,Target_Roll,Target_Pitch,Target_Yaw,Target_VX,Target_VY,Target_VZ,Target_WX,Target_WY,Target_WZ,Error_X,Error_Y,Error_Z,Error_Roll,Error_Pitch,Error_Yaw,Error_VX,Error_VY,Error_VZ,Error_WX,Error_WY,Error_WZ,MPC_Computation_Time,MPC_Status,MPC_Solver,MPC_Solver_Time_Limit,MPC_Solve_Time,MPC_Time_Limit_Exceeded,MPC_Fallback_Used,MPC_Objective,MPC_Iterations,MPC_Optimality_Gap,Command_Vector,Command_Hex,Command_Sent_Time,Total_Active_Thrusters,Thruster_Switches,RW_Torque_X,RW_Torque_Y,RW_Torque_Z,Total_MPC_Loop_Time,Timing_Violation
0,0.0450,0.0450,0.0500,0.050,APPROACHING,0,1000.00,1000.00,1000.00,0.00,0.00,90.00,1.00000,1.00000,1.00000,0.00000,0.00000,1.57080,0.00000,0.00000,0.00000,0.00000,0.00000,0.00000,0.00000,0.00000,0.00000,0.00000,0.00000,0.00000,0.00000,0.00000,0.00000,0.00000,0.00000,0.00000,1.00000,1.00000,1.00000,0.00000,0.00000,-1.57080,0.00000,0.00000,0.00000,0.00000,0.00000,0.00000,0.0000,,,,0.0120,,,,,,"[1.000, 0.000, 0.000, 1.000, 1.000, 0.000]",0x100110,0.0450,3,0,-0.324920,0.324920,1.840389,0.0000,NO
1,0.0950,0.0950,0.0500,0.050,APPROACHING,0,999.94,999.94,999.94,-0.27,0.28,91.57,0.99994,0.99994,0.99994,-0.00476,0.00489,1.59814,-0.00248,-0.00252,-0.00250,-0.19317,0.19317,1.09417,0.00000,0.00000,0.00000,0.00000,0.00000,0.00000,0.00000,0.00000,0.00000,0.00000,0.00000,0.00000,0.99994,0.99994,0.99994,0.00476,-0.00489,-1.59814,0.00248,0.00252,0.00250,0.19317,-0.19317,-1.09417,0.0000,,,,0.0389,,,,,,"[1.000, 0.000, 0.000, 1.000, 1.000, 0.000]",0x100110,0.0950,3,0,-0.926359,0.917277,2.000000,0.0000,NO
2,0.1450,0.1450,0.0500,0.050,APPROACHING,0,999.76,999.75,999.75,-1.54,1.69,96.38,0.99976,0.99975,0.99975,-0.02681,0.02948,1.68220,-0.00479,-0.00520,-0.00500,-0.74300,0.73945,2.28323,0.00000,0.00000,0.00000,0.00000,0.00000,0.00000,0.00000,0.00000,0.00000,0.00000,0.00000,0.00000,0.99976,0.99975,0.99975,0.02681,-0.02948,-1.68220,0.00479,0.00520,0.00500,0.74300,-0.73945,-2.28323,0.0000,,,,0.0108,,,,,,"[1.000, 0.000, 0.000, 1.000, 1.000, 0.000]",0x100110,0.1450,3,0,-2.000000,2.000000,2.000000,0.0000,NO
3,0.1950,0.1950,0.0500,0.050,APPROACHING,0,999.47,999.41,999.44,-4.85,5.96,104.42,0.99947,0.99941,0.99944,-0.08473,0.10394,1.82241,-0.00668,-0.00820,-0.00747,-1.92746,1.93308,3.47230,0.00000,0.00000,0.00000,0.00000,0.00000,0.00000,0.00000,0.00000,0.00000,0.00000,0.00000,0.00000,0.99947,0.99941,0.99944,0.08473,-0.10394,-1.82241,0.00668,0.00820,0.00747,1.92746,-1.93308,-3.47230,0.0000,,,,0.0082,,,,,,"[1.000, 0.000, 0.000, 1.000, 1.000, 0.000]",0x100110,0.1950,3,0,-1.999346,1.999180,2.000000,0.0000,NO
4,0.2450,0.2450,0.0500,0.050,APPROACHING,0,999.10,998.92,999.01,-10.19,14.66,115.18,0.99910,0.99892,0.99901,-0.17789,0.25593,2.01023,-0.00776,-0.01167,-0.00981,-3.11154,3.12622,4.66137,0.00000,0.00000,0.00000,0.00000,0.00000,0.00000,0.00000,0.00000,0.00000,0.00000,0.00000,0.00000,0.99910,0.99892,0.99901,0.17789,-0.25593,-2.01023,0.00776,0.01167,0.00981,3.11154,-3.12622,-4.66137,0.0000,,,,0.0082,,,,,,"[1.000, 0.000, 0.000, 1.000, 1.000, 0.000]",0x100110,0.2450,3,0,-1.997868,1.999563,1.997081,0.0000,NO
5,0.2950,0.2950,0.0500,0.050,APPROACHING,0,998.71,998.24,998.46,-16.04,28.49,128.30,0.99871,0.99824,0.99846,-0.27989,0.49725,2.23926,-0.00764,-0.01552,-0.01173,-4.29472,4.31959,5.84871,0.00000,0.00000,0.00000,0.00000,0.00000,0.00000,0.00000,0.00000,0.00000,0.00000,0.00000,0.00000,0.99871,0.99824,0.99846,0.27989,-0.49725,-2.23926,0.00764,0.01552,0.01173,4.29472,-4.31959,-5.84871,0.0000,,,,0.0072,,,,,,"[0.000, 1.000, 0.000, 1.000, 1.000, 0.000]",0x010110,0.2950,3,2,-1.993339,1.993439,2.000000,0.0000,NO
6,0.3450,0.3450,0.0500,0.050,APPROACHING,0,998.29,997.44,997.78,-19.74,47.65,145.03,0.99829,0.99744,0.99778,-0.34449,0.83170,2.53129,-0.00882,-0.01654,-0.01573,-5.47529,5.50927,7.03776,0.00000,0.00000,0.00000,0.00000,0.00000,0.00000,0.00000,0.00000,0.00000,0.00000,0.00000,0.00000,0.99829,0.99744,0.99778,0.34449,-0.83170,-2.53129,0.00882,0.01654,0.01573,5.47529,-5.50927,-7.03776,0.0000,,,,0.0125,,,,,,"[0.000, 1.000, 0.000, 1.000, 0.000, 1.000]",0x010101,0.3450,3,2,-1.986807,1.988675,2.000000,0.0000,NO
7,0.3950,0.3950,0.0500,0.050,APPROACHING,0,997.75,996.58,996.96,-8.23,70.68,178.20,0.99775,0.99658,0.99696,-0.14364,1.23363,3.11019,-0.01250,-0.01834,-0.01699,-6.65203,6.69605,8.22681,0.00000,0.00000,0.00000,0.00000,0.00000,0.00000,0.00000,0.00000,0.00000,0.00000,0.00000,0.00000,0.99775,0.99658,0.99696,0.14364,-1.23363,-3.11019,0.01250,0.01834,0.01699,6.65203,-6.69605,-8.22681,0.0000,,,,0.0413,,,,,,"[0.000, 0.000, 0.000, 0.000, 0.000, 0.000]",0x000000,0.3950,0,3,0.000000,0.000000,0.000000,0.0000,NO
8,0.4450,0.4450,0.0500,0.050,APPROACHING,0,997.13,995.66,996.11,82.04,72.78,-69.26,0.99713,0.99566,0.99611,1.43186,1.27032,-1.20886,-0.01250,-0.01834,-0.01699,-6.65203,6.69605,8.22681,0.00000,0.00000,0.00000,0.00000,0.00000,0.00000,0.00000,0.00000,0.00000,0.00000,0.00000,0.00000,0.99713,0.99566,0.99611,-1.43186,-1.27032,1.20886,0.01250,0.01834,0.01699,6.65203,-6.69605,-8.22681,0.0000,,,,0.0114,,,,,,"[0.000, 1.000, 0.000, 1.000, 0.000, 1.000]",0x010101,0.4450,3,3,-2.000000,1.998511,1.984870,0.0000,NO
9,0.4950,0.4950,0.0500,0.050,APPROACHING,0,996.50,994.64,995.23,97.60,46.13,-27.93,0.99650,0.99464,0.99523,1.70348,0.80514,-0.48754,-0.01221,-0.02244,-0.01808,-7.83635,7.88900,9.40683,0.00000,0.00000,0.00000,0.00000,0.00000,0.00000,0.00000,0.00000,0.00000,0.00000,0.00000,0.00000,0.99650,0.99464,0.99523,-1.70348,-0.80514,0.48754,0.01221,0.02244,0.01808,7.83635,-7.88900,-9.40683,0.0000,,,,0.0415,,,,,,"[0.000, 0.000, 0.000, 0.000, 0.000, 0.000]",0x000000,0.4950,0,3,0.000000,0.000000,0.000000,0.0000,NO
10,0.5450,0.5450,0.0500,0.050,APPROACHING,0,995.89,993.52,994.33,88.05,17.78,-3.25,0.99589,0.99352,0.99433,1.53670,0.31032,-0.05678,-0.01221,-0.02244,-0.01808,-7.83635,7.88900,9.40683,0.00000,0.00000,0.00000,0.00000,0.00000,0.00000,0.00000,0.00000,0.00000,0.00000,0.00000,0.00000,0.99589,0.99352,0.99433,-1.53670,-0.31032,0.05678,0.01221,0.02244,0.01808,7.83635,-7.88900,-9.40683,0.0000,,,,0.0269,,,,,,"[1.000, 0.000, 1.000, 0.000, 0.000, 1.000]",0x101001,0.5450,3,3,-1.999407,2.000000,1.990038,0.0000,NO
11,0.5950,0.5950,0.0500,0.050,APPROACHING,0,995.22,992.32,993.38,66.41,-5.13,26.53,0.99522,0.99232,0.99338,1.15900,-0.08960,0.46295,-0.01439,-0.02567,-0.01975,-9.02035,9.08276,10.58994,0.00000,0.00000,0.00000,0.00000,0.00000,0.00000,0.00000,0.00000,0.00000,0.00000,0.00000,0.00000,0.99522,0.99232,0.99338,-1.15900,0.08960,-0.46295,0.01439,0.02567,0.01975,9.02035,-9.08276,-10.58994,0.0000,,,,0.0415,,,,,,"[0.000, 0.000, 0.000, 0.000, 0.000, 0.000]",0x000000,0.5950,0,3,0.000000,0.000000,0.000000,0.0000,NO
12,0.6450,0.6450,0.0500,0.050,APPROACHING,0,994.50,991.04,992.40,33.41,-11.80,66.05,0.99450,0.99104,0.99240,0.58312,-0.20590,1.15272,-0.01439,-0.02567,-0.01975,-9.02035,9.08276,10.58994,0.00000,0.00000,0.00000,0.00000,0.00000,0.00000,0.00000,0.00000,0.00000,0.00000,0.00000,0.00000,0.99450,0.99104,0.99240,-0.58312,0.20590,-1.15272,0.01439,0.02567,0.01975,9.02035,-9.08276,-10.58994,0.0000,,,,0.0319,,,,,,"[1.000, 0.000, 0.000, 1.000, 1.000, 0.000]",0x100110,0.6450,3,3,-1.995088,2.000000,1.991735,0.0000,NO
13,0.6950,0.6950,0.0500,0.050,APPROACHING,0,993.69,989.72,991.37,2.24,5.26,104.55,0.99369,0.98972,0.99137,0.03902,0.09177,1.82481,-0.01767,-0.02759,-0.02155,-10.20182,10.27644,11.77410,0.00000,0.00000,0.00000,0.00000,0.00000,0.00000,0.00000,0.00000,0.00000,0.00000,0.00000,0.00000,0.99369,0.98972,0.99137,-0.03902,-0.09177,-1.82481,0.01767,0.02759,0.02155,10.20182,-10.27644,-11.77410,0.0000,,,,0.0415,,,,,,"[0.000, 0.000, 0.000, 0.000, 0.000, 0.000]",0x000000,0.6950,0,3,0.000000,0.000000,0.000000,0.0000,NO
14,0.7450,0.7450,0.0500,0.050,APPROACHING,0,992.80,988.34,990.29,-15.81,39.03,136.20,0.99280,0.98834,0.99029,-0.27596,0.68127,2.37708,-0.01767,-0.02759,-0.02155,-10.20182,10.27644,11.77410,0.00000,0.00000,0.00000,0.00000,0.00000,0.00000,0.00000,0.00000,0.00000,0.00000,0.00000,0.00000,0.99280,0.98834,0.99029,0.27596,-0.68127,-2.37708,0.01767,0.02759,0.02155,10.20182,-10.27644,-11.77410,0.0000,,,,0.0159,,,,,,"[0.000, 1.000, 0.000, 1.000, 1.000, 0.000]",0x010110,0.7450,3,3,-1.975445,2.000000,2.000000,0.0000,NO
15,0.7950,0.7950,0.0500,0.050,APPROACHING,0,991.91,986.92,989.12,10.94,76.86,-158.71,0.99191,0.98692,0.98912,0.19090,1.34138,-2.77009,-0.01731,-0.02951,-0.02525,-11.37175,11.46966,12.96346,0.00000,0.00000,0.00000,0.00000,0.00000,0.00000,0.00000,0.00000,0.00000,0.00000,0.00000,0.00000,0.99191,0.98692,0.98912,-0.19090,-1.34138,2.77009,0.01731,0.02951,0.02525,11.37175,-11.46966,-12.96346,0.0000,,,,0.0415,,,,,,"[0.000, 0.000, 0.000, 0.000, 0.000, 0.000]",0x000000,0.7950,0,3,0.000000,0.000000,0.000000,0.0000,NO
16,0.8450,0.8450,0.0500,0.050,APPROACHING,0,991.05,985.44,987.85,100.38,50.15,-30.67,0.99105,0.98544,0.98785,1.75194,0.87525,-0.53533,-0.01731,-0.02951,-0.02525,-11.37175,11.46966,12.96346,0.00000,0.00000,0.00000,0.00000,0.00000,0.00000,0.00000,0.00000,0.00000,0.00000,0.00000,0.00000,0.99105,0.98544,0.98785,-1.75194,-0.87525,0.53533,0.01731,0.02951,0.02525,11.37175,-11.46966,-12.96346,0.0000,,,,0.0417,,,,,,"[0.000, 0.000, 0.000, 0.000, 0.000, 0.000]",0x000000,0.8450,0,0,0.000000,0.000000,0.000000,0.0000,NO
17,0.8950,0.8950,0.0500,0.050,APPROACHING,0,990.18,983.96,986.59,84.91,10.67,4.35,0.99018,0.98396,0.98659,1.48188,0.18618,0.07599,-0.01731,-0.02951,-0.02525,-11.37175,11.46966,12.96346,0.00000,0.00000,0.00000,0.00000,0.00000,0.00000,0.00000,0.00000,0.00000,0.00000,0.00000,0.00000,0.99018,0.98396,0.98659,-1.48188,-0.18618,-0.07599,0.01731,0.02951,0.02525,11.37175,-11.46966,-12.96346,0.0000,,,,0.0416,,,,,,"[0.000, 0.000, 0.000, 0.000, 0.000, 0.000]",0x000000,0.8950,0,0,0.000000,0.000000,0.000000,0.0000,NO
18,0.9450,0.9450,0.0500,0.050,APPROACHING,0,989.32,982.49,985.33,49.74,-11.72,48.08,0.98932,0.98249,0.98533,0.86812,-0.20457,0.83911,-0.01731,-0.02951,-0.02525,-11.37175,11.46966,12.96346,0.00000,0.00000,0.00000,0.00000,0.00000,0.00000,0.00000,0.00000,0.00000,0.00000,0.00000,0.00000,0.98932,0.98249,0.98533,-0.86812,0.20457,-0.83911,0.01731,0.02951,0.02525,11.37175,-11.46966,-12.96346,0.0000,,,,0.0415,,,,,,"[0.000, 0.000, 0.000, 0.000, 0.000, 0.000]",0x000000,0.9450,0,0,0.000000,0.000000,0.000000,0.0000,NO
19,0.9950,0.9950,0.0500,0.050,APPROACHING,0,988.45,981.01,984.07,9.35,-0.95,96.13,0.98845,0.98101,0.98407,0.16314,-0.01662,1.67780,-0.01731,-0.02951,-0.02525,-11.37175,11.46966,12.96346,0.00000,0.00000,0.00000,0.00000,0.00000,0.00000,0.00000,0.00000,0.00000,0.00000,0.00000,0.00000,0.98845,0.98101,0.98407,-0.16314,0.01662,-1.67780,0.01731,0.02951,0.02525,11.37175,-11.46966,-12.96346,0.0000,,,,0.0416,,,,,,"[0.000, 0.000, 0.000, 0.000, 0.000, 0.000]",0x000000,0.9950,0,0,0.000000,0.000000,0.000000,0.0000,NO
20,1.0450,1.0450,0.0500,0.050,APPROACHING,0,987.59,979.54,982.81,-14.18,34.19,132.37,0.98759,0.97954,0.98281,-0.24742,0.59670,2.31021,-0.01731,-0.02951,-0.02525,-11.37175,11.46966,12.96346,0.00000,0.00000,0.00000,0.00000,0.00000,0.00000,0.00000,0.00000,0.00000,0.00000,0.00000,0.00000,0.98759,0.97954,0.98281,0.24742,-0.59670,-2.31021,0.01731,0.02951,0.02525,11.37175,-11.46966,-12.96346,0.0000,,,,0.0415,,,,,,"[0.000, 0.000, 0.000, 0.000, 0.000, 0.000]",0x000000,1.0450,0,0,0.000000,0.000000,0.000000,0.0000,NO
21,1.0950,1.0950,0.0500,0.050,APPROACHING,0,986.72,978.06,981.54,2.18,74.92,-170.01,0.98672,0.97806,0.98154,0.03809,1.30768,-2.96727,-0.01731,-0.02951,-0.02525,-11.37175,11.46966,12.96346,0.00000,0.00000,0.00000,0.00000,0.00000,0.00000,0.00000,0.00000,0.00000,0.00000,0.00000,0.00000,0.98672,0.97806,0.98154,-0.03809,-1.30768,2.96727,0.01731,0.02951,0.02525,11.37175,-11.46966,-12.96346,0.0000,,,,0.0330,,,,,,"[0.000, 1.000, 0.000, 1.000, 0.000, 1.000]",0x010101,1.0950,3,3,-2.000000,1.997077,1.998852,0.0000,NO
22,1.1450,1.1450,0.0500,0.050,APPROACHING,0,985.81,976.50,980.24,100.54,51.02,-31.18,0.98581,0.97650,0.98024,1.75481,0.89045,-0.54427,-0.01832,-0.03324,-0.02677,-12.55631,12.66164,14.15167,0.00000,0.00000,0.00000,0.00000,0.00000,0.00000,0.00000,0.00000,0.00000,0.00000,0.00000,0.00000,0.98581,0.97650,0.98024,-1.75481,-0.89045,0.54427,0.01832,0.03324,0.02677,12.55631,-12.66164,-14.15167,0.0000,,,,0.0416,,,,,,"[0.000, 0.000, 0.000, 0.000, 0.000, 0.000]",0x000000,1.1450,0,3,0.000000,0.000000,0.000000,0.0000,NO
23,1.1950,1.1950,0.0500,0.050,APPROACHING,0,984.90,974.84,978.90,82.91,8.24,7.72,0.98490,0.97484,0.97890,1.44713,0.14381,0.13476,-0.01832,-0.03324,-0.02677,-12.55631,12.66164,14.15167,0.00000,0.00000,0.00000,0.00000,0.00000,0.00000,0.00000,0.00000,0.00000,0.00000,0.00000,0.00000,0.98490,0.97484,0.97890,-1.44713,-0.14381,-0.13476,0.01832,0.03324,0.02677,12.55631,-12.66164,-14.15167,0.0000,,,,0.0415,,,,,,"[0.000, 0.000, 0.000, 0.000, 0.000, 0.000]",0x000000,1.1950,0,0,0.000000,0.000000,0.000000,0.0000,NO
24,1.2450,1.2450,0.0500,0.050,APPROACHING,0,983.98,973.17,977.56,42.27,-12.00,57.46,0.98398,0.97317,0.97756,0.73779,-0.20948,1.00278,-0.01832,-0.03324,-0.02677,-12.55631,12.66164,14.15167,0.00000,0.00000,0.00000,0.00000,0.00000,0.00000,0.00000,0.00000,0.00000,0.00000,0.00000,0.00000,0.98398,0.97317,0.97756,-0.73779,0.20948,-1.00278,0.01832,0.03324,0.02677,12.55631,-12.66164,-14.15167,0.0000,,,,0.0415,,,,,,"[0.000, 0.000, 0.000, 0.000, 0.000, 0.000]",0x000000,1.2450,0,0,0.000000,0.000000,0.000000,0.0000,NO
25,1.2950,1.2950,0.0500,0.050,APPROACHING,0,983.07,971.51,976.22,1.30,7.56,107.46,0.98307,0.97151,0.97622,0.02270,0.13198,1.87548,-0.01832,-0.03324,-0.02677,-12.55631,12.66164,14.15167,0.00000,0.00000,0.00000,0.00000,0.00000,0.00000,0.00000,0.00000,0.00000,0.00000,0.00000,0.00000,0.98307,0.97151,0.97622,-0.02270,-0.13198,-1.87548,0.01832,0.03324,0.02677,12.55631,-12.66164,-14.15167,0.0000,,,,0.0415,,,,,,"[0.000, 0.000, 0.000, 0.000, 0.000, 0.000]",0x000000,1.2950,0,0,0.000000,0.000000,0.000000,0.0000,NO
26,1.3450,1.3450,0.0500,0.050,APPROACHING,0,982.15,969.85,974.88,-16.87,50.13,146.31,0.98215,0.96985,0.97488,-0.29451,0.87498,2.55353,-0.01832,-0.03324,-0.02677,-12.55631,12.66164,14.15167,0.00000,0.00000,0.00000,0.00000,0.00000,0.00000,0.00000,0.00000,0.00000,0.00000,0.00000,0.00000,0.98215,0.96985,0.97488,0.29451,-0.87498,-2.55353,0.01832,0.03324,0.02677,12.55631,-12.66164,-14.15167,0.0000,,,,0.0414,,,,,,"[0.000, 0.000, 0.000, 0.000, 0.000, 0.000]",0x000000,1.3450,0,0,0.000000,0.000000,0.000000,0.0000,NO
27,1.3950,1.3950,0.0500,0.050,APPROACHING,0,981.23,968.19,973.55,83.86,73.97,-70.44,0.98123,0.96819,0.97355,1.46359,1.29105,-1.22944,-0.01832,-0.03324,-0.02677,-12.55631,12.66164,14.15167,0.00000,0.00000,0.00000,0.00000,0.00000,0.00000,0.00000,0.00000,0.00000,0.00000,0.00000,0.00000,0.98123,0.96819,0.97355,-1.46359,-1.29105,1.22944,0.01832,0.03324,0.02677,12.55631,-12.66164,-14.15167,0.0000,,,,0.0243,,,,,,"[0.000, 1.000, 0.000, 1.000, 0.000, 1.000]",0x010101,1.3950,3,3,-1.970886,2.000000,2.000000,0.0000,NO
28,1.4450,1.4450,0.0500,0.050,APPROACHING,0,980.32,966.43,972.18,94.63,27.31,-10.53,0.98032,0.96643,0.97218,1.65163,0.47664,-0.18385,-0.01746,-0.03720,-0.02749,-13.72354,13.85472,15.34114,0.00000,0.00000,0.00000,0.00000,0.00000,0.00000,0.00000,0.00000,0.00000,0.00000,0.00000,0.00000,0.98032,0.96643,0.97218,-1.65163,-0.47664,0.18385,0.01746,0.03720,0.02749,13.72354,-13.85472,-15.34114,0.0000,,,,0.0415,,,,,,"[0.000, 0.000, 0.000, 0.000, 0.000, 0.000]",0x000000,1.4450,0,3,0.000000,0.000000,0.000000,0.0000,NO
29,1.4950,1.4950,0.0500,0.050,APPROACHING,0,979.45,964.57,970.80,60.19,-8.28,36.70,0.97945,0.96457,0.97080,1.05056,-0.14455,0.64053,-0.01746,-0.03720,-0.02749,-13.72354,13.85472,15.34114,0.00000,0.00000,0.00000,0.00000,0.00000,0.00000,0.00000,0.00000,0.00000,0.00000,0.00000,0.00000,0.97945,0.96457,0.97080,-1.05056,0.14455,-0.64053,0.01746,0.03720,0.02749,13.72354,-13.85472,-15.34114,0.0000,,,,0.0415,,,,,,"[0.000, 0.000, 0.000, 0.000, 0.000, 0.000]",0x000000,1.4950,0,0,0.000000,0.000000,0.000000,0.0000,NO
30,1.5450,1.5450,0.0500,0.050,APPROACHING,0,978.58,962.71,969.43,11.68,-1.49,94.49,0.97858,0.96271,0.96943,0.20387,-0.02599,1.64924,-0.01746,-0.03720,-0.02749,-13.72354,13.85472,15.34114,0.00000,0.00000,0.00000,0.00000,0.00000,0.00000,0.00000,0.00000,0.00000,0.00000,0.00000,0.00000,0.97858,0.96271,0.96943,-0.20387,0.02599,-1.64924,0.01746,0.03720,0.02749,13.72354,-13.85472,-15.34114,0.0000,,,,0.0415,,,,,,"[0.000, 0.000, 0.000, 0.000, 0.000, 0.000]",0x000000,1.5450,0,0,0.000000,0.000000,0.000000,0.0000,NO
31,1.5950,1.5950,0.0500,0.050,APPROACHING,0,977.71,960.85,968.06,-15.02,40.80,138.10,0.97771,0.96085,0.96806,-0.26213,0.71208,2.41036,-0.01746,-0.03720,-0.02749,-13.72354,13.85472,15.34114,0.00000,0.00000,0.00000,0.00000,0.00000,0.00000,0.00000,0.00000,0.00000,0.00000,0.00000,0.00000,0.97771,0.96085,0.96806,0.26213,-0.71208,-2.41036,0.01746,0.03720,0.02749,13.72354,-13.85472,-15.34114,0.0000,,,,0.0415,,,,,,"[0.000, 0.000, 0.000, 0.000, 0.000, 0.000]",0x000000,1.5950,0,0,0.000000,0.000000,0.000000,0.0000,NO
32,1.6450,1.6450,0.0500,0.050,APPROACHING,0,976.83,958.99,966.68,67.53,77.40,-91.66,0.97683,0.95899,0.96668,1.17865,1.35082,-1.59972,-0.01746,-0.03720,-0.02749,-13.72354,13.85472,15.34114,0.00000,0.00000,0.00000,0.00000,0.00000,0.00000,0.00000,0.00000,0.00000,0.00000,0.00000,0.00000,0.97683,0.95899,0.96668,-1.17865,-1.35082,1.59972,0.01746,0.03720,0.02749,13.72354,-13.85472,-15.34114,0.0000,,,,0.0416,,,,,,"[0.000, 0.000, 0.000, 0.000, 0.000, 0.000]",0x000000,1.6450,0,0,0.000000,0.000000,0.000000,0.0000,NO
33,1.6950,1.6950,0.0500,0.050,APPROACHING,0,975.96,957.13,965.31,95.91,30.37,-13.15,0.97596,0.95713,0.96531,1.67394,0.53011,-0.22953,-0.01746,-0.03720,-0.02749,-13.72354,13.85472,15.34114,0.00000,0.00000,0.00000,0.00000,0.00000,0.00000,0.00000,0.00000,0.00000,0.00000,0.00000,0.00000,0.97596,0.95713,0.96531,-1.67394,-0.53011,0.22953,0.01746,0.03720,0.02749,13.72354,-13.85472,-15.34114,0.0000,,,,0.0416,,,,,,"[0.000, 0.000, 0.000, 0.000, 0.000, 0.000]",0x000000,1.6950,0,0,0.000000,0.000000,0.000000,0.0000,NO
34,1.7450,1.7450,0.0500,0.050,APPROACHING,0,975.09,955.27,963.93,63.22,-7.00,33.06,0.97509,0.95527,0.96393,1.10336,-0.12212,0.57706,-0.01746,-0.03720,-0.02749,-13.72354,13.85472,15.34114,0.00000,0.00000,0.00000,0.00000,0.00000,0.00000,0.00000,0.00000,0.00000,0.00000,0.00000,0.00000,0.97509,0.95527,0.96393,-1.10336,0.12212,-0.57706,0.01746,0.03720,0.02749,13.72354,-13.85472,-15.34114,0.0000,,,,0.0416,,,,,,"[0.000, 0.000, 0.000, 0.000, 0.000, 0.000]",0x000000,1.7450,0,0,0.000000,0.000000,0.000000,0.0000,NO
35,1.7950,1.7950,0.0500,0.050,APPROACHING,0,974.21,953.41,962.56,14.36,-3.35,91.15,0.97421,0.95341,0.96256,0.25070,-0.05844,1.59082,-0.01746,-0.03720,-0.02749,-13.72354,13.85472,15.34114,0.00000,0.00000,0.00000,0.00000,0.00000,0.00000,0.00000,0.00000,0.00000,0.00000,0.00000,0.00000,0.97421,0.95341,0.96256,-0.25070,0.05844,-1.59082,0.01746,0.03720,0.02749,13.72354,-13.85472,-15.34114,0.0000,,,,0.0416,,,,,,"[0.000, 0.000, 0.000, 0.000, 0.000, 0.000]",0x000000,1.7950,0,0,0.000000,0.000000,0.000000,0.0000,NO
36,1.8450,1.8450,0.0500,0.050,APPROACHING,0,973.34,951.54,961.18,-14.19,37.60,135.39,0.97334,0.95154,0.96118,-0.24769,0.65626,2.36304,-0.01746,-0.03720,-0.02749,-13.72354,13.85472,15.34114,0.00000,0.00000,0.00000,0.00000,0.00000,0.00000,0.00000,0.00000,0.00000,0.00000,0.00000,0.00000,0.97334,0.95154,0.96118,0.24769,-0.65626,-2.36304,0.01746,0.03720,0.02749,13.72354,-13.85472,-15.34114,0.0000,,,,0.0418,,,,,,"[0.000, 0.000, 0.000, 0.000, 0.000, 0.000]",0x000000,1.8450,0,0,0.000000,0.000000,0.000000,0.0000,NO
37,1.8950,1.8950,0.0500,0.050,APPROACHING,0,972.47,949.68,959.81,52.90,78.60,-109.21,0.97247,0.94968,0.95981,0.92323,1.37184,-1.90607,-0.01746,-0.03720,-0.02749,-13.72354,13.85472,15.34114,0.00000,0.00000,0.00000,0.00000,0.00000,0.00000,0.00000,0.00000,0.00000,0.00000,0.00000,0.00000,0.97247,0.94968,0.95981,-0.92323,-1.37184,1.90607,0.01746,0.03720,0.02749,13.72354,-13.85472,-15.34114,0.0000,,,,0.0416,,,,,,"[0.000, 0.000, 0.000, 0.000, 0.000, 0.000]",0x000000,1.8950,0,0,0.000000,0.000000,0.000000,0.0000,NO
38,1.9450,1.9450,0.0500,0.050,APPROACHING,0,971.60,947.82,958.43,97.06,33.48,-15.77,0.97160,0.94782,0.95843,1.69406,0.58442,-0.27532,-0.01746,-0.03720,-0.02749,-13.72354,13.85472,15.34114,0.00000,0.00000,0.00000,0.00000,0.00000,0.00000,0.00000,0.00000,0.00000,0.00000,0.00000,0.00000,0.97160,0.94782,0.95843,-1.69406,-0.58442,0.27532,0.01746,0.03720,0.02749,13.72354,-13.85472,-15.34114,0.0000,,,,0.0414,,,,,,"[0.000, 0.000, 0.000, 0.000, 0.000, 0.000]",0x000000,1.9450,0,0,0.000000,0.000000,0.000000,0.0000,NO
39,1.9950,1.9950,0.0500,0.050,APPROACHING,0,970.72,945.96,957.06,66.15,-5.53,29.51,0.97072,0.94596,0.95706,1.15448,-0.09645,0.51504,-0.01746,-0.03720,-0.02749,-13.72354,13.85472,15.34114,0.00000,0.00000,0.00000,0.00000,0.00000,0.00000,0.00000,0.00000,0.00000,0.00000,0.00000,0.00000,0.97072,0.94596,0.95706,-1.15448,0.09645,-0.51504,0.01746,0.03720,0.02749,13.72354,-13.85472,-15.34114,0.0000,,,,0.0415,,,,,,"[0.000, 0.000, 0.000, 0.000, 0.000, 0.000]",0x000000,1.9950,0,0,0.000000,0.000000,0.000000,0.0000,NO
40,2.0450,2.0450,0.0500,0.050,APPROACHING,0,969.85,944.10,955.68,17.16,-5.05,87.71,0.96985,0.94410,0.95568,0.29945,-0.08806,1.53080,-0.01746,-0.03720,-0.02749,-13.72354,13.85472,15.34114,0.00000,0.00000,0.00000,0.00000,0.00000,0.00000,0.00000,0.00000,0.00000,0.00000,0.00000,0.00000,0.96985,0.94410,0.95568,-0.29945,0.08806,-1.53080,0.01746,0.03720,0.02749,13.72354,-13.85472,-15.34114,0.0000,,,,0.0416,,,,,,"[0.000, 0.000, 0.000, 0.000, 0.000, 0.000]",0x000000,2.0450,0,0,0.000000,0.000000,0.000000,0.0000,NO
41,2.0950,2.0950,0.0500,0.050,APPROACHING,0,968.98,942.24,954.31,-13.22,34.44,132.73,0.96898,0.94224,0.95431,-0.23065,0.60102,2.31662,-0.01746,-0.03720,-0.02749,-13.72354,13.85472,15.34114,0.00000,0.00000,0.00000,0.00000,0.00000,0.00000,0.00000,0.00000,0.00000,0.00000,0.00000,0.00000,0.96898,0.94224,0.95431,0.23065,-0.60102,-2.31662,0.01746,0.03720,0.02749,13.72354,-13.85472,-15.34114,0.0000,,,,0.0416,,,,,,"[0.000, 0.000, 0.000, 0.000, 0.000, 0.000]",0x000000,2.0950,0,0,0.000000,0.000000,0.000000,0.0000,NO
42,2.1450,2.1450,0.0500,0.050,APPROACHING,0,968.10,940.38,952.93,36.24,78.77,-128.78,0.96810,0.94038,0.95293,0.63247,1.37478,-2.24771,-0.01746,-0.03720,-0.02749,-13.72354,13.85472,15.34114,0.00000,0.00000,0.00000,0.00000,0.00000,0.00000,0.00000,0.00000,0.00000,0.00000,0.00000,0.00000,0.96810,0.94038,0.95293,-0.63247,-1.37478,2.24771,0.01746,0.03720,0.02749,13.72354,-13.85472,-15.34114,0.0000,,,,0.0415,,,,,,"[0.000, 0.000, 0.000, 0.000, 0.000, 0.000]",0x000000,2.1450,0,0,0.000000,0.000000,0.000000,0.0000,NO
43,2.1950,2.1950,0.0500,0.050,APPROACHING,0,967.23,938.52,951.56,98.08,36.64,-18.42,0.96723,0.93852,0.95156,1.71185,0.63946,-0.32155,-0.01746,-0.03720,-0.02749,-13.72354,13.85472,15.34114,0.00000,0.00000,0.00000,0.00000,0.00000,0.00000,0.00000,0.00000,0.00000,0.00000,0.00000,0.00000,0.96723,0.93852,0.95156,-1.71185,-0.63946,0.32155,0.01746,0.03720,0.02749,13.72354,-13.85472,-15.34114,0.0000,,,,0.0415,,,,,,"[0.000, 0.000, 0.000, 0.000, 0.000, 0.000]",0x000000,2.1950,0,0,0.000000,0.000000,0.000000,0.0000,NO
44,2.2450,2.2450,0.0500,0.050,APPROACHING,0,966.36,936.66,950.18,68.97,-3.88,26.04,0.96636,0.93666,0.95018,1.20380,-0.06772,0.45455,-0.01746,-0.03720,-0.02749,-13.72354,13.85472,15.34114,0.00000,0.00000,0.00000,0.00000,0.00000,0.00000,0.00000,0.00000,0.00000,0.00000,0.00000,0.00000,0.96636,0.93666,0.95018,-1.20380,0.06772,-0.45455,0.01746,0.03720,0.02749,13.72354,-13.85472,-15.34114,0.0000,,,,0.0415,,,,,,"[0.000, 0.000, 0.000, 0.000, 0.000, 0.000]",0x000000,2.2450,0,0,0.000000,0.000000,0.000000,0.0000,NO
45,2.2950,2.2950,0.0500,0.050,APPROACHING,0,965.49,934.80,948.81,20.06,-6.57,84.18,0.96549,0.93480,0.94881,0.35003,-0.11468,1.46924,-0.01746,-0.03720,-0.02749,-13.72354,13.85472,15.34114,0.00000,0.00000,0.00000,0.00000,0.00000,0.00000,0.00000,0.00000,0.00000,0.00000,0.00000,0.00000,0.96549,0.93480,0.94881,-0.35003,0.11468,-1.46924,0.01746,0.03720,0.02749,13.72354,-13.85472,-15.34114,0.0000,,,,0.0415,,,,,,"[0.000, 0.000, 0.000, 0.000, 0.000, 0.000]",0x000000,2.2950,0,0,0.000000,0.000000,0.000000,0.0000,NO
46,2.3450,2.3450,0.0500,0.050,APPROACHING,0,964.61,932.94,947.43,-12.10,31.31,130.10,0.96461,0.93294,0.94743,-0.21121,0.54648,2.27073,-0.01746,-0.03720,-0.02749,-13.72354,13.85472,15.34114,0.00000,0.00000,0.00000,0.00000,0.00000,0.00000,0.00000,0.00000,0.00000,0.00000,0.00000,0.00000,0.96461,0.93294,0.94743,0.21121,-0.54648,-2.27073,0.01746,0.03720,0.02749,13.72354,-13.85472,-15.34114,0.0000,,,,0.0415,,,,,,"[0.000, 0.000, 0.000, 0.000, 0.000, 0.000]",0x000000,2.3450,0,0,0.000000,0.000000,0.000000,0.0000,NO
47,2.3950,2.3950,0.0500,0.050,APPROACHING,0,963.74,931.08,946.06,20.72,77.86,-147.22,0.96374,0.93108,0.94606,0.36162,1.35886,-2.56946,-0.01746,-0.03720,-0.02749,-13.72354,13.85472,15.34114,0.00000,0.00000,0.00000,0.00000,0.00000,0.00000,0.00000,0.00000,0.00000,0.00000,0.00000,0.00000,0.96374,0.93108,0.94606,-0.36162,-1.35886,2.56946,0.01746,0.03720,0.02749,13.72354,-13.85472,-15.34114,0.0000,,,,0.0415,,,,,,"[0.000, 0.000, 0.000, 0.000, 0.000, 0.000]",0x000000,2.3950,0,0,0.000000,0.000000,0.000000,0.0000,NO
48,2.4450,2.4450,0.0500,0.050,APPROACHING,0,962.87,929.22,944.69,98.96,39.83,-21.12,0.96287,0.92922,0.94469,1.72711,0.69512,-0.36855,-0.01746,-0.03720,-0.02749,-13.72354,13.85472,15.34114,0.00000,0.00000,0.00000,0.00000,0.00000,0.00000,0.00000,0.00000,0.00000,0.00000,0.00000,0.00000,0.96287,0.92922,0.94469,-1.72711,-0.69512,0.36855,0.01746,0.03720,0.02749,13.72354,-13.85472,-15.34114,0.0000,,,,0.0416,,,,,,"[0.000, 0.000, 0.000, 0.000, 0.000, 0.000]",0x000000,2.4450,0,0,0.000000,0.000000,0.000000,0.0000,NO
49,2.4950,2.4950,0.0500,0.050,APPROACHING,0,962.00,927.36,943.31,71.69,-2.07,22.67,0.96200,0.92736,0.94331,1.25121,-0.03610,0.39564,-0.01746,-0.03720,-0.02749,-13.72354,13.85472,15.34114,0.00000,0.00000,0.00000,0.00000,0.00000,0.00000,0.00000,0.00000,0.00000,0.00000,0.00000,0.00000,0.96200,0.92736,0.94331,-1.25121,0.03610,-0.39564,0.01746,0.03720,0.02749,13.72354,-13.85472,-15.34114,0.0000,,,,0.0416,,,,,,"[0.000, 0.000, 0.000, 0.000, 0.000, 0.000]",0x000000,2.4950,0,0,0.000000,0.000000,0.000000,0.0000,NO
50,2.5450,2.5450,0.0500,0.050,APPROACHING,0,961.12,925.50,941.94,23.05,-7.91,80.57,0.96112,0.92550,0.94194,0.40234,-0.13811,1.40620,-0.01746,-0.03720,-0.02749,-13.72354,13.85472,15.34114,0.00000,0.00000,0.00000,0.00000,0.00000,0.00000,0.00000,0.00000,0.00000,0.00000,0.00000,0.00000,0.96112,0.92550,0.94194,-0.40234,0.13811,-1.40620,0.01746,0.03720,0.02749,13.72354,-13.85472,-15.34114,0.0000,,,,0.0415,,,,,,"[0.000, 0.000, 0.000, 0.000, 0.000, 0.000]",0x000000,2.5450,0,0,0.000000,0.000000,0.000000,0.0000,NO
51,2.5950,2.5950,0.0500,0.050,APPROACHING,0,960.25,923.64,940.56,-10.86,28.23,127.49,0.96025,0.92364,0.94056,-0.18955,0.49274,2.22504,-0.01746,-0.03720,-0.02749,-13.72354,13.85472,15.34114,0.00000,0.00000,0.00000,0.00000,0.00000,0.00000,0.00000,0.00000,0.00000,0.00000,0.00000,0.00000,0.96025,0.92364,0.94056,0.18955,-0.49274,-2.22504,0.01746,0.03720,0.02749,13.72354,-13.85472,-15.34114,0.0000,,,,0.0415,,,,,,"[0.000, 0.000, 0.000, 0.000, 0.000, 0.000]",0x000000,2.5950,0,0,0.000000,0.000000,0.000000,0.0000,NO
52,2.6450,2.6450,0.0500,0.050,APPROACHING,0,959.38,921.78,939.19,8.55,76.08,-162.32,0.95938,0.92178,0.93919,0.14915,1.32781,-2.83296,-0.01746,-0.03720,-0.02749,-13.72354,13.85472,15.34114,0.00000,0.00000,0.00000,0.00000,0.00000,0.00000,0.00000,0.00000,0.00000,0.00000,0.00000,0.00000,0.95938,0.92178,0.93919,-0.14915,-1.32781,2.83296,0.01746,0.03720,0.02749,13.72354,-13.85472,-15.34114,0.0000,,,,0.0415,,,,,,"[0.000, 0.000, 0.000, 0.000, 0.000, 0.000]",0x000000,2.6450,0,0,0.000000,0.000000,0.000000,0.0000,NO
53,2.6950,2.6950,0.0500,0.050,APPROACHING,0,958.50,919.92,937.81,99.67,43.05,-23.88,0.95850,0.91992,0.93781,1.73954,0.75128,-0.41676,-0.01746,-0.03720,-0.02749,-13.72354,13.85472,15.34114,0.00000,0.00000,0.00000,0.00000,0.00000,0.00000,0.00000,0.00000,0.00000,0.00000,0.00000,0.00000,0.95850,0.91992,0.93781,-1.73954,-0.75128,0.41676,0.01746,0.03720,0.02749,13.72354,-13.85472,-15.34114,0.0000,,,,0.0415,,,,,,"[0.000, 0.000, 0.000, 0.000, 0.000, 0.000]",0x000000,2.6950,0,0,0.000000,0.000000,0.000000,0.0000,NO
54,2.7450,2.7450,0.0500,0.050,APPROACHING,0,957.63,918.06,936.44,74.29,-0.10,19.39,0.95763,0.91806,0.93644,1.29665,-0.00179,0.33834,-0.01746,-0.03720,-0.02749,-13.72354,13.85472,15.34114,0.00000,0.00000,0.00000,0.00000,0.00000,0.00000,0.00000,0.00000,0.00000,0.00000,0.00000,0.00000,0.95763,0.91806,0.93644,-1.29665,0.00179,-0.33834,0.01746,0.03720,0.02749,13.72354,-13.85472,-15.34114,0.0000,,,,0.0415,,,,,,"[0.000, 0.000, 0.000, 0.000, 0.000, 0.000]",0x000000,2.7450,0,0,0.000000,0.000000,0.000000,0.0000,NO
55,2.7950,2.7950,0.0500,0.050,APPROACHING,0,956.76,916.20,935.06,26.14,-9.06,76.88,0.95676,0.91620,0.93506,0.45620,-0.15818,1.34180,-0.01746,-0.03720,-0.02749,-13.72354,13.85472,15.34114,0.00000,0.00000,0.00000,0.00000,0.00000,0.00000,0.00000,0.00000,0.00000,0.00000,0.00000,0.00000,0.95676,0.91620,0.93506,-0.45620,0.15818,-1.34180,0.01746,0.03720,0.02749,13.72354,-13.85472,-15.34114,0.0000,,,,0.0416,,,,,,"[0.000, 0.000, 0.000, 0.000, 0.000, 0.000]",0x000000,2.7950,0,0,0.000000,0.000000,0.000000,0.0000,NO
56,2.8450,2.8450,0.0500,0.050,APPROACHING,0,955.89,914.34,933.69,-9.50,25.21,124.86,0.95589,0.91434,0.93369,-0.16578,0.43991,2.17929,-0.01746,-0.03720,-0.02749,-13.72354,13.85472,15.34114,0.00000,0.00000,0.00000,0.00000,0.00000,0.00000,0.00000,0.00000,0.00000,0.00000,0.00000,0.00000,0.95589,0.91434,0.93369,0.16578,-0.43991,-2.17929,0.01746,0.03720,0.02749,13.72354,-13.85472,-15.34114,0.0000,,,,0.0416,,,,,,"[0.000, 0.000, 0.000, 0.000, 0.000, 0.000]",0x000000,2.8450,0,0,0.000000,0.000000,0.000000,0.0000,NO
57,2.8950,2.8950,0.0500,0.050,APPROACHING,0,955.01,912.48,932.31,-0.13,73.72,-173.93,0.95501,0.91248,0.93231,-0.00220,1.28660,-3.03559,-0.01746,-0.03720,-0.02749,-13.72354,13.85472,15.34114,0.00000,0.00000,0.00000,0.00000,0.00000,0.00000,0.00000,0.00000,0.00000,0.00000,0.00000,0.00000,0.95501,0.91248,0.93231,0.00220,-1.28660,3.03559,0.01746,0.03720,0.02749,13.72354,-13.85472,-15.34114,0.0000,,,,0.0415,,,,,,"[0.000, 0.000, 0.000, 0.000, 0.000, 0.000]",0x000000,2.8950,0,0,0.000000,0.000000,0.000000,0.0000,NO
58,2.9450,2.9450,0.0500,0.050,APPROACHING,0,954.14,910.62,930.94,100.20,46.29,-26.74,0.95414,0.91062,0.93094,1.74875,0.80783,-0.46673,-0.01746,-0.03720,-0.02749,-13.72354,13.85472,15.34114,0.00000,0.00000,0.00000,0.00000,0.00000,0.00000,0.00000,0.00000,0.00000,0.00000,0.00000,0.00000,0.95414,0.91062,0.93094,-1.74875,-0.80783,0.46673,0.01746,0.03720,0.02749,13.72354,-13.85472,-15.34114,0.0000,,,,0.0415,,,,,,"[0.000, 0.000, 0.000, 0.000, 0.000, 0.000]",0x000000,2.9450,0,0,0.000000,0.000000,0.000000,0.0000,NO
59,2.9950,2.9950,0.0500,0.050,APPROACHING,0,953.27,908.76,929.56,76.78,2.01,16.19,0.95327,0.90876,0.92956,1.34008,0.03503,0.28261,-0.01746,-0.03720,-0.02749,-13.72354,13.85472,15.34114,0.00000,0.00000,0.00000,0.00000,0.00000,0.00000,0.00000,0.00000,0.00000,0.00000,0.00000,0.00000,0.95327,0.90876,0.92956,-1.34008,-0.03503,-0.28261,0.01746,0.03720,0.02749,13.72354,-13.85472,-15.34114,0.0000,,,,0.0416,,,,,,"[0.000, 0.000, 0.000, 0.000, 0.000, 0.000]",0x000000,2.9950,0,0,0.000000,0.000000,0.000000,0.0000,NO
60,3.0450,3.0450,0.0500,0.050,APPROACHING,0,952.40,906.90,928.19,29.30,-10.01,73.12,0.95240,0.90690,0.92819,0.51143,-0.17476,1.27620,-0.01746,-0.03720,-0.02749,-13.72354,13.85472,15.34114,0.00000,0.00000,0.00000,0.00000,0.00000,0.00000,0.00000,0.00000,0.00000,0.00000,0.00000,0.00000,0.95240,0.90690,0.92819,-0.51143,0.17476,-1.27620,0.01746,0.03720,0.02749,13.72354,-13.85472,-15.34114,0.0000,,,,0.0416,,,,,,"[0.000, 0.000, 0.000, 0.000, 0.000, 0.000]",0x000000,3.0450,0,0,0.000000,0.000000,0.000000,0.0000,NO
61,3.0950,3.0950,0.0500,0.050,APPROACHING,0,951.52,905.04,926.81,-8.02,22.24,122.23,0.95152,0.90504,0.92681,-0.13996,0.38812,2.13323,-0.01746,-0.03720,-0.02749,-13.72354,13.85472,15.34114,0.00000,0.00000,0.00000,0.00000,0.00000,0.00000,0.00000,0.00000,0.00000,0.00000,0.00000,0.00000,0.95152,0.90504,0.92681,0.13996,-0.38812,-2.13323,0.01746,0.03720,0.02749,13.72354,-13.85472,-15.34114,0.0000,,,,0.0415,,,,,,"[0.000, 0.000, 0.000, 0.000, 0.000, 0.000]",0x000000,3.0950,0,0,0.000000,0.000000,0.000000,0.0000,NO
62,3.1450,3.1450,0.0500,0.050,APPROACHING,0,950.65,903.18,925.44,-6.07,70.99,177.17,0.95065,0.90318,0.92544,-0.10602,1.23909,3.09218,-0.01746,-0.03720,-0.02749,-13.72354,13.85472,15.34114,0.00000,0.00000,0.00000,0.00000,0.00000,0.00000,0.00000,0.00000,0.00000,0.00000,0.00000,0.00000,0.95065,0.90318,0.92544,0.10602,-1.23909,-3.09218,0.01746,0.03720,0.02749,13.72354,-13.85472,-15.34114,0.0000,,,,0.0416,,,,,,"[0.000, 0.000, 0.000, 0.000, 0.000, 0.000]",0x000000,3.1450,0,0,0.000000,0.000000,0.000000,0.0000,NO
63,3.1950,3.1950,0.0500,0.050,APPROACHING,0,949.78,901.32,924.07,100.51,49.54,-29.74,0.94978,0.90132,0.92407,1.75420,0.86465,-0.51913,-0.01746,-0.03720,-0.02749,-13.72354,13.85472,15.34114,0.00000,0.00000,0.00000,0.00000,0.00000,0.00000,0.00000,0.00000,0.00000,0.00000,0.00000,0.00000,0.94978,0.90132,0.92407,-1.75420,-0.86465,0.51913,0.01746,0.03720,0.02749,13.72354,-13.85472,-15.34114,0.0000,,,,0.0259,,,,,,"[0.000, 1.000, 1.000, 0.000, 0.000, 1.000]",0x011001,3.1950,3,3,-2.000000,1.993780,1.975915,0.0000,NO
64,3.2450,3.2450,0.0500,0.050,APPROACHING,0,948.90,899.41,922.60,77.64,2.94,15.14,0.94890,0.89941,0.92260,1.35505,0.05128,0.26423,-0.01687,-0.03943,-0.03084,-14.90769,15.04527,16.51559,0.00000,0.00000,0.00000,0.00000,0.00000,0.00000,0.00000,0.00000,0.00000,0.00000,0.00000,0.00000,0.94890,0.89941,0.92260,-1.35505,-0.05128,-0.26423,0.01687,0.03943,0.03084,14.90769,-15.04527,-16.51559,0.0000,,,,0.0416,,,,,,"[0.000, 0.000, 0.000, 0.000, 0.000, 0.000]",0x000000,3.2450,0,3,0.000000,0.000000,0.000000,0.0000,NO
65,3.2950,3.2950,0.0500,0.050,APPROACHING,0,948.06,897.44,921.06,26.55,-8.78,76.56,0.94806,0.89744,0.92106,0.46344,-0.15321,1.33614,-0.01687,-0.03943,-0.03084,-14.90769,15.04527,16.51559,0.00000,0.00000,0.00000,0.00000,0.00000,0.00000,0.00000,0.00000,0.00000,0.00000,0.00000,0.00000,0.94806,0.89744,0.92106,-0.46344,0.15321,-1.33614,0.01687,0.03943,0.03084,14.90769,-15.04527,-16.51559,0.0000,,,,0.0415,,,,,,"[0.000, 0.000, 0.000, 0.000, 0.000, 0.000]",0x000000,3.2950,0,0,0.000000,0.000000,0.000000,0.0000,NO
66,3.3450,3.3450,0.0500,0.050,APPROACHING,0,947.21,895.47,919.52,-10.78,29.13,127.95,0.94721,0.89547,0.91952,-0.18806,0.50842,2.23309,-0.01687,-0.03943,-0.03084,-14.90769,15.04527,16.51559,0.00000,0.00000,0.00000,0.00000,0.00000,0.00000,0.00000,0.00000,0.00000,0.00000,0.00000,0.00000,0.94721,0.89547,0.91952,0.18806,-0.50842,-2.23309,0.01687,0.03943,0.03084,14.90769,-15.04527,-16.51559,0.0000,,,,0.0416,,,,,,"[0.000, 0.000, 0.000, 0.000, 0.000, 0.000]",0x000000,3.3450,0,0,0.000000,0.000000,0.000000,0.0000,NO
67,3.3950,3.3950,0.0500,0.050,APPROACHING,0,946.37,893.50,917.97,28.84,78.40,-137.99,0.94637,0.89350,0.91797,0.50343,1.36830,-2.40838,-0.01687,-0.03943,-0.03084,-14.90769,15.04527,16.51559,0.00000,0.00000,0.00000,0.00000,0.00000,0.00000,0.00000,0.00000,0.00000,0.00000,0.00000,0.00000,0.94637,0.89350,0.91797,-0.50343,-1.36830,2.40838,0.01687,0.03943,0.03084,14.90769,-15.04527,-16.51559,0.0000,,,,0.0416,,,,,,"[0.000, 0.000, 0.000, 0.000, 0.000, 0.000]",0x000000,3.3950,0,0,0.000000,0.000000,0.000000,0.0000,NO
68,3.4450,3.4450,0.0500,0.050,APPROACHING,0,945.53,891.52,916.43,97.37,34.25,-16.47,0.94553,0.89152,0.91643,1.69945,0.59779,-0.28739,-0.01687,-0.03943,-0.03084,-14.90769,15.04527,16.51559,0.00000,0.00000,0.00000,0.00000,0.00000,0.00000,0.00000,0.00000,0.00000,0.00000,0.00000,0.00000,0.94553,0.89152,0.91643,-1.69945,-0.59779,0.28739,0.01687,0.03943,0.03084,14.90769,-15.04527,-16.51559,0.0000,,,,0.0416,,,,,,"[0.000, 0.000, 0.000, 0.000, 0.000, 0.000]",0x000000,3.4450,0,0,0.000000,0.000000,0.000000,0.0000,NO
69,3.4950,3.4950,0.0500,0.050,APPROACHING,0,944.68,889.55,914.89,63.16,-6.79,33.23,0.94468,0.88955,0.91489,1.10228,-0.11854,0.57990,-0.01687,-0.03943,-0.03084,-14.90769,15.04527,16.51559,0.00000,0.00000,0.00000,0.00000,0.00000,0.00000,0.00000,0.00000,0.00000,0.00000,0.00000,0.00000,0.94468,0.88955,0.91489,-1.10228,0.11854,-0.57990,0.01687,0.03943,0.03084,14.90769,-15.04527,-16.51559,0.0000,,,,0.0416,,,,,,"[0.000, 0.000, 0.000, 0.000, 0.000, 0.000]",0x000000,3.4950,0,0,0.000000,0.000000,0.000000,0.0000,NO
70,3.5450,3.5450,0.0500,0.050,APPROACHING,0,943.84,887.58,913.35,11.14,-0.53,95.41,0.94384,0.88758,0.91335,0.19440,-0.00925,1.66525,-0.01687,-0.03943,-0.03084,-14.90769,15.04527,16.51559,0.00000,0.00000,0.00000,0.00000,0.00000,0.00000,0.00000,0.00000,0.00000,0.00000,0.00000,0.00000,0.94384,0.88758,0.91335,-0.19440,0.00925,-1.66525,0.01687,0.03943,0.03084,14.90769,-15.04527,-16.51559,0.0000,,,,0.0416,,,,,,"[0.000, 0.000, 0.000, 0.000, 0.000, 0.000]",0x000000,3.5450,0,0,0.000000,0.000000,0.000000,0.0000,NO
71,3.5950,3.5950,0.0500,0.050,APPROACHING,0,942.99,885.61,911.81,-15.58,46.14,142.57,0.94299,0.88561,0.91181,-0.27193,0.80538,2.48838,-0.01687,-0.03943,-0.03084,-14.90769,15.04527,16.51559,0.00000,0.00000,0.00000,0.00000,0.00000,0.00000,0.00000,0.00000,0.00000,0.00000,0.00000,0.00000,0.94299,0.88561,0.91181,0.27193,-0.80538,-2.48838,0.01687,0.03943,0.03084,14.90769,-15.04527,-16.51559,0.0000,,,,0.0416,,,,,,"[0.000, 0.000, 0.000, 0.000, 0.000, 0.000]",0x000000,3.5950,0,0,0.000000,0.000000,0.000000,0.0000,NO
72,3.6450,3.6450,0.0500,0.050,APPROACHING,0,942.15,883.64,910.26,91.21,70.40,-59.79,0.94215,0.88364,0.91026,1.59197,1.22873,-1.04358,-0.01687,-0.03943,-0.03084,-14.90769,15.04527,16.51559,0.00000,0.00000,0.00000,0.00000,0.00000,0.00000,0.00000,0.00000,0.00000,0.00000,0.00000,0.00000,0.94215,0.88364,0.91026,-1.59197,-1.22873,1.04358,0.01687,0.03943,0.03084,14.90769,-15.04527,-16.51559,0.0000,,,,0.0416,,,,,,"[0.000, 0.000, 0.000, 0.000, 0.000, 0.000]",0x000000,3.6450,0,0,0.000000,0.000000,0.000000,0.0000,NO
73,3.6950,3.6950,0.0500,0.050,APPROACHING,0,941.31,881.67,908.72,89.89,18.15,-2.21,0.94131,0.88167,0.90872,1.56882,0.31685,-0.03862,-0.01687,-0.03943,-0.03084,-14.90769,15.04527,16.51559,0.00000,0.00000,0.00000,0.00000,0.00000,0.00000,0.00000,0.00000,0.00000,0.00000,0.00000,0.00000,0.94131,0.88167,0.90872,-1.56882,-0.31685,0.03862,0.01687,0.03943,0.03084,14.90769,-15.04527,-16.51559,0.0000,,,,0.0415,,,,,,"[0.000, 0.000, 0.000, 0.000, 0.000, 0.000]",0x000000,3.6950,0,0,0.000000,0.000000,0.000000,0.0000,NO
74,3.7450,3.7450,0.0500,0.050,APPROACHING,0,940.46,879.70,907.18,46.08,-11.20,53.51,0.94046,0.87970,0.90718,0.80426,-0.19553,0.93397,-0.01687,-0.03943,-0.03084,-14.90769,15.04527,16.51559,0.00000,0.00000,0.00000,0.00000,0.00000,0.00000,0.00000,0.00000,0.00000,0.00000,0.00000,0.00000,0.94046,0.87970,0.90718,-0.80426,0.19553,-0.93397,0.01687,0.03943,0.03084,14.90769,-15.04527,-16.51559,0.0000,,,,0.0416,,,,,,"[0.000, 0.000, 0.000, 0.000, 0.000, 0.000]",0x000000,3.7450,0,0,0.000000,0.000000,0.000000,0.0000,NO
75,3.7950,3.7950,0.0500,0.050,APPROACHING,0,939.62,877.72,905.64,-1.07,11.98,111.78,0.93962,0.87772,0.90564,-0.01876,0.20917,1.95087,-0.01687,-0.03943,-0.03084,-14.90769,15.04527,16.51559,0.00000,0.00000,0.00000,0.00000,0.00000,0.00000,0.00000,0.00000,0.00000,0.00000,0.00000,0.00000,0.93962,0.87772,0.90564,0.01876,-0.20917,-1.95087,0.01687,0.03943,0.03084,14.90769,-15.04527,-16.51559,0.0000,,,,0.0415,,,,,,"[0.000, 0.000, 0.000, 0.000, 0.000, 0.000]",0x000000,3.7950,0,0,0.000000,0.000000,0.000000,0.0000,NO
76,3.8450,3.8450,0.0500,0.050,APPROACHING,0,938.78,875.75,904.09,-13.26,63.52,162.09,0.93878,0.87575,0.90409,-0.23147,1.10868,2.82893,-0.01687,-0.03943,-0.03084,-14.90769,15.04527,16.51559,0.00000,0.00000,0.00000,0.00000,0.00000,0.00000,0.00000,0.00000,0.00000,0.00000,0.00000,0.00000,0.93878,0.87575,0.90409,0.23147,-1.10868,-2.82893,0.01687,0.03943,0.03084,14.90769,-15.04527,-16.51559,0.0000,,,,0.0416,,,,,,"[0.000, 0.000, 0.000, 0.000, 0.000, 0.000]",0x000000,3.8450,0,0,0.000000,0.000000,0.000000,0.0000,NO
77,3.8950,3.8950,0.0500,0.050,APPROACHING,0,937.93,873.78,902.55,100.60,53.49,-33.81,0.93793,0.87378,0.90255,1.75588,0.93365,-0.59018,-0.01687,-0.03943,-0.03084,-14.90769,15.04527,16.51559,0.00000,0.00000,0.00000,0.00000,0.00000,0.00000,0.00000,0.00000,0.00000,0.00000,0.00000,0.00000,0.93793,0.87378,0.90255,-1.75588,-0.93365,0.59018,0.01687,0.03943,0.03084,14.90769,-15.04527,-16.51559,0.0000,,,,0.0304,,,,,,"[0.000, 1.000, 1.000, 0.000, 0.000, 1.000]",0x011001,3.8950,3,3,-1.965467,2.000000,2.000000,0.0000,NO
78,3.9450,3.9450,0.0500,0.050,APPROACHING,0,937.08,871.76,900.92,77.58,2.97,15.30,0.93708,0.87176,0.90092,1.35401,0.05179,0.26709,-0.01648,-0.04157,-0.03422,-16.07176,16.23813,17.70522,0.00000,0.00000,0.00000,0.00000,0.00000,0.00000,0.00000,0.00000,0.00000,0.00000,0.00000,0.00000,0.93708,0.87176,0.90092,-1.35401,-0.05179,-0.26709,0.01648,0.04157,0.03422,16.07176,-16.23813,-17.70522,0.0000,,,,0.0416,,,,,,"[0.000, 0.000, 0.000, 0.000, 0.000, 0.000]",0x000000,3.9450,0,3,0.000000,0.000000,0.000000,0.0000,NO
79,3.9950,3.9950,0.0500,0.050,APPROACHING,0,936.26,869.68,899.21,22.71,-7.01,81.37,0.93626,0.86968,0.89921,0.39636,-0.12230,1.42026,-0.01648,-0.04157,-0.03422,-16.07176,16.23813,17.70522,0.00000,0.00000,0.00000,0.00000,0.00000,0.00000,0.00000,0.00000,0.00000,0.00000,0.00000,0.00000,0.93626,0.86968,0.89921,-0.39636,0.12230,-1.42026,0.01648,0.04157,0.03422,16.07176,-16.23813,-17.70522,0.0000,,,,0.0416,,,,,,"[0.000, 0.000, 0.000, 0.000, 0.000, 0.000]",0x000000,3.9950,0,0,0.000000,0.000000,0.000000,0.0000,NO
80,4.0450,4.0450,0.0500,0.050,APPROACHING,0,935.43,867.60,897.50,-13.32,37.35,134.84,0.93543,0.86760,0.89750,-0.23250,0.65185,2.35340,-0.01648,-0.04157,-0.03422,-16.07176,16.23813,17.70522,0.00000,0.00000,0.00000,0.00000,0.00000,0.00000,0.00000,0.00000,0.00000,0.00000,0.00000,0.00000,0.93543,0.86760,0.89750,0.23250,-0.65185,-2.35340,0.01648,0.04157,0.03422,16.07176,-16.23813,-17.70522,0.0000,,,,0.0415,,,,,,"[0.000, 0.000, 0.000, 0.000, 0.000, 0.000]",0x000000,4.0450,0,0,0.000000,0.000000,0.000000,0.0000,NO
81,4.0950,4.0950,0.0500,0.050,APPROACHING,0,934.61,865.53,895.79,82.06,74.36,-73.60,0.93461,0.86553,0.89579,1.43230,1.29778,-1.28453,-0.01648,-0.04157,-0.03422,-16.07176,16.23813,17.70522,0.00000,0.00000,0.00000,0.00000,0.00000,0.00000,0.00000,0.00000,0.00000,0.00000,0.00000,0.00000,0.93461,0.86553,0.89579,-1.43230,-1.29778,1.28453,0.01648,0.04157,0.03422,16.07176,-16.23813,-17.70522,0.0000,,,,0.0416,,,,,,"[0.000, 0.000, 0.000, 0.000, 0.000, 0.000]",0x000000,4.0950,0,0,0.000000,0.000000,0.000000,0.0000,NO
82,4.1450,4.1450,0.0500,0.050,APPROACHING,0,933.78,863.45,894.07,90.32,18.88,-2.85,0.93378,0.86345,0.89407,1.57632,0.32950,-0.04975,-0.01648,-0.04157,-0.03422,-16.07176,16.23813,17.70522,0.00000,0.00000,0.00000,0.00000,0.00000,0.00000,0.00000,0.00000,0.00000,0.00000,0.00000,0.00000,0.93378,0.86345,0.89407,-1.57632,-0.32950,0.04975,0.01648,0.04157,0.03422,16.07176,-16.23813,-17.70522,0.0000,,,,0.0171,,,,,,"[1.000, 0.000, 1.000, 0.000, 0.000, 1.000]",0x101001,4.1450,3,3,-2.000000,1.997776,1.962985,0.0000,NO
83,4.1950,4.1950,0.0500,0.050,APPROACHING,0,932.91,861.29,892.32,40.64,-10.94,60.05,0.93291,0.86129,0.89232,0.70937,-0.19101,1.04810,-0.01755,-0.04514,-0.03566,-17.25545,17.43146,18.87202,0.00000,0.00000,0.00000,0.00000,0.00000,0.00000,0.00000,0.00000,0.00000,0.00000,0.00000,0.00000,0.93291,0.86129,0.89232,-0.70937,0.19101,-1.04810,0.01755,0.04514,0.03566,17.25545,-17.43146,-18.87202,0.0000,,,,0.0415,,,,,,"[0.000, 0.000, 0.000, 0.000, 0.000, 0.000]",0x000000,4.1950,0,3,0.000000,0.000000,0.000000,0.0000,NO
84,4.2450,4.2450,0.0500,0.050,APPROACHING,0,932.03,859.03,890.54,-7.96,24.27,123.14,0.93203,0.85903,0.89054,-0.13892,0.42361,2.14926,-0.01755,-0.04514,-0.03566,-17.25545,17.43146,18.87202,0.00000,0.00000,0.00000,0.00000,0.00000,0.00000,0.00000,0.00000,0.00000,0.00000,0.00000,0.00000,0.93203,0.85903,0.89054,0.13892,-0.42361,-2.14926,0.01755,0.04514,0.03566,17.25545,-17.43146,-18.87202,0.0000,,,,0.0415,,,,,,"[0.000, 0.000, 0.000, 0.000, 0.000, 0.000]",0x000000,4.2450,0,0,0.000000,0.000000,0.000000,0.0000,NO
85,4.2950,4.2950,0.0500,0.050,APPROACHING,0,931.16,856.77,888.76,43.52,78.76,-121.47,0.93116,0.85677,0.88876,0.75949,1.37466,-2.12011,-0.01755,-0.04514,-0.03566,-17.25545,17.43146,18.87202,0.00000,0.00000,0.00000,0.00000,0.00000,0.00000,0.00000,0.00000,0.00000,0.00000,0.00000,0.00000,0.93116,0.85677,0.88876,-0.75949,-1.37466,2.12011,0.01755,0.04514,0.03566,17.25545,-17.43146,-18.87202,0.0000,,,,0.0416,,,,,,"[0.000, 0.000, 0.000, 0.000, 0.000, 0.000]",0x000000,4.2950,0,0,0.000000,0.000000,0.000000,0.0000,NO
86,4.3450,4.3450,0.0500,0.050,APPROACHING,0,930.28,854.52,886.97,93.27,23.99,-7.69,0.93028,0.85452,0.88697,1.62795,0.41873,-0.13428,-0.01755,-0.04514,-0.03566,-17.25545,17.43146,18.87202,0.00000,0.00000,0.00000,0.00000,0.00000,0.00000,0.00000,0.00000,0.00000,0.00000,0.00000,0.00000,0.93028,0.85452,0.88697,-1.62795,-0.41873,0.13428,0.01755,0.04514,0.03566,17.25545,-17.43146,-18.87202,0.0000,,,,0.0415,,,,,,"[0.000, 0.000, 0.000, 0.000, 0.000, 0.000]",0x000000,4.3450,0,0,0.000000,0.000000,0.000000,0.0000,NO
87,4.3950,4.3950,0.0500,0.050,APPROACHING,0,929.40,852.26,885.19,44.50,-10.96,55.52,0.92940,0.85226,0.88519,0.77665,-0.19122,0.96892,-0.01755,-0.04514,-0.03566,-17.25545,17.43146,18.87202,0.00000,0.00000,0.00000,0.00000,0.00000,0.00000,0.00000,0.00000,0.00000,0.00000,0.00000,0.00000,0.92940,0.85226,0.88519,-0.77665,0.19122,-0.96892,0.01755,0.04514,0.03566,17.25545,-17.43146,-18.87202,0.0000,,,,0.0415,,,,,,"[0.000, 0.000, 0.000, 0.000, 0.000, 0.000]",0x000000,4.3950,0,0,0.000000,0.000000,0.000000,0.0000,NO
88,4.4450,4.4450,0.0500,0.050,APPROACHING,0,928.52,850.00,883.41,-6.16,20.87,120.03,0.92852,0.85000,0.88341,-0.10754,0.36423,2.09492,-0.01755,-0.04514,-0.03566,-17.25545,17.43146,18.87202,0.00000,0.00000,0.00000,0.00000,0.00000,0.00000,0.00000,0.00000,0.00000,0.00000,0.00000,0.00000,0.92852,0.85000,0.88341,0.10754,-0.36423,-2.09492,0.01755,0.04514,0.03566,17.25545,-17.43146,-18.87202,0.0000,,,,0.0415,,,,,,"[0.000, 0.000, 0.000, 0.000, 0.000, 0.000]",0x000000,4.4450,0,0,0.000000,0.000000,0.000000,0.0000,NO
89,4.4950,4.4950,0.0500,0.050,APPROACHING,0,927.65,847.75,881.62,24.86,78.09,-143.56,0.92765,0.84775,0.88162,0.43397,1.36291,-2.50552,-0.01755,-0.04514,-0.03566,-17.25545,17.43146,18.87202,0.00000,0.00000,0.00000,0.00000,0.00000,0.00000,0.00000,0.00000,0.00000,0.00000,0.00000,0.00000,0.92765,0.84775,0.88162,-0.43397,-1.36291,2.50552,0.01755,0.04514,0.03566,17.25545,-17.43146,-18.87202,0.0000,,,,0.0415,,,,,,"[0.000, 0.000, 0.000, 0.000, 0.000, 0.000]",0x000000,4.4950,0,0,0.000000,0.000000,0.000000,0.0000,NO
90,4.5450,4.5450,0.0500,0.050,APPROACHING,0,926.77,845.49,879.84,94.93,27.47,-10.78,0.92677,0.84549,0.87984,1.65679,0.47947,-0.18814,-0.01755,-0.04514,-0.03566,-17.25545,17.43146,18.87202,0.00000,0.00000,0.00000,0.00000,0.00000,0.00000,0.00000,0.00000,0.00000,0.00000,0.00000,0.00000,0.92677,0.84549,0.87984,-1.65679,-0.47947,0.18814,0.01755,0.04514,0.03566,17.25545,-17.43146,-18.87202,0.0000,,,,0.0260,,,,,,"[1.000, 0.000, 1.000, 0.000, 0.000, 1.000]",0x101001,4.5450,3,3,-2.000000,1.992544,1.977356,0.0000,NO
91,4.5950,4.5950,0.0500,0.050,APPROACHING,0,925.83,843.16,878.02,46.24,-10.74,53.46,0.92583,0.84316,0.87802,0.80701,-0.18745,0.93312,-0.01925,-0.04838,-0.03715,-18.43967,18.62134,20.04719,0.00000,0.00000,0.00000,0.00000,0.00000,0.00000,0.00000,0.00000,0.00000,0.00000,0.00000,0.00000,0.92583,0.84316,0.87802,-0.80701,0.18745,-0.93312,0.01925,0.04838,0.03715,18.43967,-18.62134,-20.04719,0.0000,,,,0.0416,,,,,,"[0.000, 0.000, 0.000, 0.000, 0.000, 0.000]",0x000000,4.5950,0,3,0.000000,0.000000,0.000000,0.0000,NO
92,4.6450,4.6450,0.0500,0.050,APPROACHING,0,924.86,840.74,876.16,-7.23,23.26,121.91,0.92486,0.84074,0.87616,-0.12617,0.40589,2.12766,-0.01925,-0.04838,-0.03715,-18.43967,18.62134,20.04719,0.00000,0.00000,0.00000,0.00000,0.00000,0.00000,0.00000,0.00000,0.00000,0.00000,0.00000,0.00000,0.92486,0.84074,0.87616,0.12617,-0.40589,-2.12766,0.01925,0.04838,0.03715,18.43967,-18.62134,-20.04719,0.0000,,,,0.0415,,,,,,"[0.000, 0.000, 0.000, 0.000, 0.000, 0.000]",0x000000,4.6450,0,0,0.000000,0.000000,0.000000,0.0000,NO
93,4.6950,4.6950,0.0500,0.050,APPROACHING,0,923.90,838.32,874.30,58.29,78.32,-104.39,0.92390,0.83832,0.87430,1.01737,1.36687,-1.82194,-0.01925,-0.04838,-0.03715,-18.43967,18.62134,20.04719,0.00000,0.00000,0.00000,0.00000,0.00000,0.00000,0.00000,0.00000,0.00000,0.00000,0.00000,0.00000,0.92390,0.83832,0.87430,-1.01737,-1.36687,1.82194,0.01925,0.04838,0.03715,18.43967,-18.62134,-20.04719,0.0000,,,,0.0416,,,,,,"[0.000, 0.000, 0.000, 0.000, 0.000, 0.000]",0x000000,4.6950,0,0,0.000000,0.000000,0.000000,0.0000,NO
94,4.7450,4.7450,0.0500,0.050,APPROACHING,0,922.94,835.91,872.45,89.91,17.81,-1.97,0.92294,0.83591,0.87245,1.56920,0.31088,-0.03439,-0.01925,-0.04838,-0.03715,-18.43967,18.62134,20.04719,0.00000,0.00000,0.00000,0.00000,0.00000,0.00000,0.00000,0.00000,0.00000,0.00000,0.00000,0.00000,0.92294,0.83591,0.87245,-1.56920,-0.31088,0.03439,0.01925,0.04838,0.03715,18.43967,-18.62134,-20.04719,0.0000,,,,0.0416,,,,,,"[0.000, 0.000, 0.000, 0.000, 0.000, 0.000]",0x000000,4.7450,0,0,0.000000,0.000000,0.000000,0.0000,NO
95,4.7950,4.7950,0.0500,0.050,APPROACHING,0,921.98,833.49,870.59,33.32,-9.92,68.68,0.92198,0.83349,0.87059,0.58162,-0.17319,1.19861,-0.01925,-0.04838,-0.03715,-18.43967,18.62134,20.04719,0.00000,0.00000,0.00000,0.00000,0.00000,0.00000,0.00000,0.00000,0.00000,0.00000,0.00000,0.00000,0.92198,0.83349,0.87059,-0.58162,0.17319,-1.19861,0.01925,0.04838,0.03715,18.43967,-18.62134,-20.04719,0.0000,,,,0.0415,,,,,,"[0.000, 0.000, 0.000, 0.000, 0.000, 0.000]",0x000000,4.7950,0,0,0.000000,0.000000,0.000000,0.0000,NO
96,4.8450,4.8450,0.0500,0.050,APPROACHING,0,921.02,831.07,868.73,-12.28,35.20,132.31,0.92102,0.83107,0.86873,-0.21433,0.61442,2.30925,-0.01925,-0.04838,-0.03715,-18.43967,18.62134,20.04719,0.00000,0.00000,0.00000,0.00000,0.00000,0.00000,0.00000,0.00000,0.00000,0.00000,0.00000,0.00000,0.92102,0.83107,0.86873,0.21433,-0.61442,-2.30925,0.01925,0.04838,0.03715,18.43967,-18.62134,-20.04719,0.0000,,,,0.0415,,,,,,"[0.000, 0.000, 0.000, 0.000, 0.000, 0.000]",0x000000,4.8450,0,0,0.000000,0.000000,0.000000,0.0000,NO
97,4.8950,4.8950,0.0500,0.050,APPROACHING,0,920.05,828.65,866.87,93.15,69.49,-57.84,0.92005,0.82865,0.86687,1.62577,1.21279,-1.00950,-0.01925,-0.04838,-0.03715,-18.43967,18.62134,20.04719,0.00000,0.00000,0.00000,0.00000,0.00000,0.00000,0.00000,0.00000,0.00000,0.00000,0.00000,0.00000,0.92005,0.82865,0.86687,-1.62577,-1.21279,1.00950,0.01925,0.04838,0.03715,18.43967,-18.62134,-20.04719,0.0000,,,,0.0415,,,,,,"[0.000, 0.000, 0.000, 0.000, 0.000, 0.000]",0x000000,4.8950,0,0,0.000000,0.000000,0.000000,0.0000,NO
98,4.9450,4.9450,0.0500,0.050,APPROACHING,0,919.09,826.23,865.02,82.21,7.53,9.22,0.91909,0.82623,0.86502,1.43483,0.13136,0.16087,-0.01925,-0.04838,-0.03715,-18.43967,18.62134,20.04719,0.00000,0.00000,0.00000,0.00000,0.00000,0.00000,0.00000,0.00000,0.00000,0.00000,0.00000,0.00000,0.91909,0.82623,0.86502,-1.43483,-0.13136,-0.16087,0.01925,0.04838,0.03715,18.43967,-18.62134,-20.04719,0.0000,,,,0.0415,,,,,,"[0.000, 0.000, 0.000, 0.000, 0.000, 0.000]",0x000000,4.9450,0,0,0.000000,0.000000,0.000000,0.0000,NO
99,4.9950,4.9950,0.0500,0.050,APPROACHING,0,918.13,823.81,863.16,21.14,-5.86,83.24,0.91813,0.82381,0.86316,0.36902,-0.10223,1.45281,-0.01925,-0.04838,-0.03715,-18.43967,18.62134,20.04719,0.00000,0.00000,0.00000,0.00000,0.00000,0.00000,0.00000,0.00000,0.00000,0.00000,0.00000,0.00000,0.91813,0.82381,0.86316,-0.36902,0.10223,-1.45281,0.01925,0.04838,0.03715,18.43967,-18.62134,-20.04719,0.0000,,,,0.0415,,,,,,"[0.000, 0.000, 0.000, 0.000, 0.000, 0.000]",0x000000,4.9950,0,0,0.000000,0.000000,0.000000,0.0000,NO
100,5.0450,5.0450,0.0500,0.050,APPROACHING,0,917.17,821.39,861.30,-15.11,47.76,143.31,0.91717,0.82139,0.86130,-0.26367,0.83354,2.50126,-0.01925,-0.04838,-0.03715,-18.43967,18.62134,20.04719,0.00000,0.00000,0.00000,0.00000,0.00000,0.00000,0.00000,0.00000,0.00000,0.00000,0.00000,0.00000,0.91717,0.82139,0.86130,0.26367,-0.83354,-2.50126,0.01925,0.04838,0.03715,18.43967,-18.62134,-20.04719,0.0000,,,,0.0415,,,,,,"[0.000, 0.000, 0.000, 0.000, 0.000, 0.000]",0x000000,5.0450,0,0,0.000000,0.000000,0.000000,0.0000,NO
101,5.0950,5.0950,0.0500,0.050,APPROACHING,0,916.20,818.97,859.44,100.68,57.19,-38.18,0.91620,0.81897,0.85944,1.75723,0.99817,-0.66642,-0.01925,-0.04838,-0.03715,-18.43967,18.62134,20.04719,0.00000,0.00000,0.00000,0.00000,0.00000,0.00000,0.00000,0.00000,0.00000,0.00000,0.00000,0.00000,0.91620,0.81897,0.85944,-1.75723,-0.99817,0.66642,0.01925,0.04838,0.03715,18.43967,-18.62134,-20.04719,0.0000,,,,0.0416,,,,,,"[0.000, 0.000, 0.000, 0.000, 0.000, 0.000]",0x000000,5.0950,0,0,0.000000,0.000000,0.000000,0.0000,NO
102,5.1450,5.1450,0.0500,0.050,APPROACHING,0,915.24,816.56,857.59,72.75,-1.01,21.56,0.91524,0.81656,0.85759,1.26964,-0.01769,0.37633,-0.01925,-0.04838,-0.03715,-18.43967,18.62134,20.04719,0.00000,0.00000,0.00000,0.00000,0.00000,0.00000,0.00000,0.00000,0.00000,0.00000,0.00000,0.00000,0.91524,0.81656,0.85759,-1.26964,0.01769,-0.37633,0.01925,0.04838,0.03715,18.43967,-18.62134,-20.04719,0.0000,,,,0.0416,,,,,,"[0.000, 0.000, 0.000, 0.000, 0.000, 0.000]",0x000000,5.1450,0,0,0.000000,0.000000,0.000000,0.0000,NO
103,5.1950,5.1950,0.0500,0.050,APPROACHING,0,914.28,814.14,855.73,10.40,1.00,96.58,0.91428,0.81414,0.85573,0.18159,0.01751,1.68568,-0.01925,-0.04838,-0.03715,-18.43967,18.62134,20.04719,0.00000,0.00000,0.00000,0.00000,0.00000,0.00000,0.00000,0.00000,0.00000,0.00000,0.00000,0.00000,0.91428,0.81414,0.85573,-0.18159,-0.01751,-1.68568,0.01925,0.04838,0.03715,18.43967,-18.62134,-20.04719,0.0000,,,,0.0416,,,,,,"[0.000, 0.000, 0.000, 0.000, 0.000, 0.000]",0x000000,5.1950,0,0,0.000000,0.000000,0.000000,0.0000,NO
104,5.2450,5.2450,0.0500,0.050,APPROACHING,0,913.32,811.72,853.87,-14.06,60.47,157.05,0.91332,0.81172,0.85387,-0.24534,1.05547,2.74109,-0.01925,-0.04838,-0.03715,-18.43967,18.62134,20.04719,0.00000,0.00000,0.00000,0.00000,0.00000,0.00000,0.00000,0.00000,0.00000,0.00000,0.00000,0.00000,0.91332,0.81172,0.85387,0.24534,-1.05547,-2.74109,0.01925,0.04838,0.03715,18.43967,-18.62134,-20.04719,0.0000,,,,0.0415,,,,,,"[0.000, 0.000, 0.000, 0.000, 0.000, 0.000]",0x000000,5.2450,0,0,0.000000,0.000000,0.000000,0.0000,NO
105,5.2950,5.2950,0.0500,0.050,APPROACHING,0,912.35,809.30,852.01,100.42,44.46,-25.50,0.91235,0.80930,0.85201,1.75263,0.77601,-0.44512,-0.01925,-0.04838,-0.03715,-18.43967,18.62134,20.04719,0.00000,0.00000,0.00000,0.00000,0.00000,0.00000,0.00000,0.00000,0.00000,0.00000,0.00000,0.00000,0.91235,0.80930,0.85201,-1.75263,-0.77601,0.44512,0.01925,0.04838,0.03715,18.43967,-18.62134,-20.04719,0.0000,,,,0.0415,,,,,,"[0.000, 0.000, 0.000, 0.000, 0.000, 0.000]",0x000000,5.2950,0,0,0.000000,0.000000,0.000000,0.0000,NO
106,5.3450,5.3450,0.0500,0.050,APPROACHING,0,911.39,806.88,850.16,61.59,-7.20,35.25,0.91139,0.80688,0.85016,1.07491,-0.12575,0.61524,-0.01925,-0.04838,-0.03715,-18.43967,18.62134,20.04719,0.00000,0.00000,0.00000,0.00000,0.00000,0.00000,0.00000,0.00000,0.00000,0.00000,0.00000,0.00000,0.91139,0.80688,0.85016,-1.07491,0.12575,-0.61524,0.01925,0.04838,0.03715,18.43967,-18.62134,-20.04719,0.0000,,,,0.0416,,,,,,"[0.000, 0.000, 0.000, 0.000, 0.000, 0.000]",0x000000,5.3450,0,0,0.000000,0.000000,0.000000,0.0000,NO
107,5.3950,5.3950,0.0500,0.050,APPROACHING,0,910.43,804.46,848.30,1.40,10.05,108.60,0.91043,0.80446,0.84830,0.02442,0.17544,1.89535,-0.01925,-0.04838,-0.03715,-18.43967,18.62134,20.04719,0.00000,0.00000,0.00000,0.00000,0.00000,0.00000,0.00000,0.00000,0.00000,0.00000,0.00000,0.00000,0.91043,0.80446,0.84830,-0.02442,-0.17544,-1.89535,0.01925,0.04838,0.03715,18.43967,-18.62134,-20.04719,0.0000,,,,0.0416,,,,,,"[0.000, 0.000, 0.000, 0.000, 0.000, 0.000]",0x000000,5.3950,0,0,0.000000,0.000000,0.000000,0.0000,NO
108,5.4450,5.4450,0.0500,0.050,APPROACHING,0,909.47,802.04,846.44,-2.42,72.38,-179.33,0.90947,0.80204,0.84644,-0.04220,1.26327,-3.12990,-0.01925,-0.04838,-0.03715,-18.43967,18.62134,20.04719,0.00000,0.00000,0.00000,0.00000,0.00000,0.00000,0.00000,0.00000,0.00000,0.00000,0.00000,0.00000,0.90947,0.80204,0.84644,0.04220,-1.26327,3.12990,0.01925,0.04838,0.03715,18.43967,-18.62134,-20.04719,0.0000,,,,0.0415,,,,,,"[0.000, 0.000, 0.000, 0.000, 0.000, 0.000]",0x000000,5.4450,0,0,0.000000,0.000000,0.000000,0.0000,NO
109,5.4950,5.4950,0.0500,0.050,APPROACHING,0,908.50,799.62,844.58,96.93,32.03,-14.79,0.90850,0.79962,0.84458,1.69176,0.55898,-0.25813,-0.01925,-0.04838,-0.03715,-18.43967,18.62134,20.04719,0.00000,0.00000,0.00000,0.00000,0.00000,0.00000,0.00000,0.00000,0.00000,0.00000,0.00000,0.00000,0.90850,0.79962,0.84458,-1.69176,-0.55898,0.25813,0.01925,0.04838,0.03715,18.43967,-18.62134,-20.04719,0.0000,,,,0.0415,,,,,,"[0.000, 0.000, 0.000, 0.000, 0.000, 0.000]",0x000000,5.4950,0,0,0.000000,0.000000,0.000000,0.0000,NO
110,5.5450,5.5450,0.0500,0.050,APPROACHING,0,907.54,797.20,842.72,49.13,-10.46,50.06,0.90754,0.79720,0.84272,0.85750,-0.18255,0.87366,-0.01925,-0.04838,-0.03715,-18.43967,18.62134,20.04719,0.00000,0.00000,0.00000,0.00000,0.00000,0.00000,0.00000,0.00000,0.00000,0.00000,0.00000,0.00000,0.90754,0.79720,0.84272,-0.85750,0.18255,-0.87366,0.01925,0.04838,0.03715,18.43967,-18.62134,-20.04719,0.0000,,,,0.0416,,,,,,"[0.000, 0.000, 0.000, 0.000, 0.000, 0.000]",0x000000,5.5450,0,0,0.000000,0.000000,0.000000,0.0000,NO
111,5.5950,5.5950,0.0500,0.050,APPROACHING,0,906.58,794.79,840.87,-5.85,20.70,119.55,0.90658,0.79479,0.84087,-0.10203,0.36133,2.08652,-0.01925,-0.04838,-0.03715,-18.43967,18.62134,20.04719,0.00000,0.00000,0.00000,0.00000,0.00000,0.00000,0.00000,0.00000,0.00000,0.00000,0.00000,0.00000,0.90658,0.79479,0.84087,0.10203,-0.36133,-2.08652,0.01925,0.04838,0.03715,18.43967,-18.62134,-20.04719,0.0000,,,,0.0415,,,,,,"[0.000, 0.000, 0.000, 0.000, 0.000, 0.000]",0x000000,5.5950,0,0,0.000000,0.000000,0.000000,0.0000,NO
112,5.6450,5.6450,0.0500,0.050,APPROACHING,0,905.62,792.37,839.01,44.06,78.81,-121.22,0.90562,0.79237,0.83901,0.76899,1.37541,-2.11562,-0.01925,-0.04838,-0.03715,-18.43967,18.62134,20.04719,0.00000,0.00000,0.00000,0.00000,0.00000,0.00000,0.00000,0.00000,0.00000,0.00000,0.00000,0.00000,0.90562,0.79237,0.83901,-0.76899,-1.37541,2.11562,0.01925,0.04838,0.03715,18.43967,-18.62134,-20.04719,0.0000,,,,0.0416,,,,,,"[0.000, 0.000, 0.000, 0.000, 0.000, 0.000]",0x000000,5.6450,0,0,0.000000,0.000000,0.000000,0.0000,NO
113,5.6950,5.6950,0.0500,0.050,APPROACHING,0,904.66,789.95,837.15,91.39,20.30,-4.36,0.90466,0.78995,0.83715,1.59512,0.35432,-0.07610,-0.01925,-0.04838,-0.03715,-18.43967,18.62134,20.04719,0.00000,0.00000,0.00000,0.00000,0.00000,0.00000,0.00000,0.00000,0.00000,0.00000,0.00000,0.00000,0.90466,0.78995,0.83715,-1.59512,-0.35432,0.07610,0.01925,0.04838,0.03715,18.43967,-18.62134,-20.04719,0.0000,,,,0.0216,,,,,,"[1.000, 0.000, 1.000, 0.000, 0.000, 1.000]",0x101001,5.6950,3,3,-2.000000,1.990312,1.969692,0.0000,NO
114,5.7450,5.7450,0.0500,0.050,APPROACHING,0,903.65,787.45,835.26,34.12,-9.96,67.72,0.90365,0.78745,0.83526,0.59545,-0.17375,1.18192,-0.02015,-0.05193,-0.03848,-19.62375,19.81010,21.21774,0.00000,0.00000,0.00000,0.00000,0.00000,0.00000,0.00000,0.00000,0.00000,0.00000,0.00000,0.00000,0.90365,0.78745,0.83526,-0.59545,0.17375,-1.18192,0.02015,0.05193,0.03848,19.62375,-19.81010,-21.21774,0.0000,,,,0.0416,,,,,,"[0.000, 0.000, 0.000, 0.000, 0.000, 0.000]",0x000000,5.7450,0,3,0.000000,0.000000,0.000000,0.0000,NO
