Time,Current_X,Current_Y,Current_Z,Current_Roll,Current_Pitch,Current_Yaw,Current_VX,Current_VY,Current_VZ,Current_WX,Current_WY,Current_WZ,Target_X,Target_Y,Target_Z,Target_Roll,Target_Pitch,Target_Yaw,Error_X,Error_Y,Error_Z,Error_Roll,Error_Pitch,Error_Yaw,Command_Vector,Thruster_1_Cmd,Thruster_1_Val,Thruster_2_Cmd,Thruster_2_Val,Thruster_3_Cmd,Thruster_3_Val,Thruster_4_Cmd,Thruster_4_Val,Thruster_5_Cmd,Thruster_5_Val,Thruster_6_Cmd,Thruster_6_Val
0.0050,1.00000,1.00000,1.00000,0.00000,0.00000,1.57080,0.00000,0.00000,0.00000,0.00000,0.00000,0.00000,0.00000,0.00000,0.00000,0.00000,0.00000,1.57080,-1.00000,-1.00000,-1.00000,0.00000,0.00000,0.00000,"[0.000, 0.000, 0.000, 0.000, 0.000, 0.000]",0.000,0.000,0.000,0.000,0.000,0.000,0.000,0.000,0.000,0.000,0.000,0.000
0.0100,1.00000,1.00000,1.00000,0.00000,0.00000,1.57080,0.00000,0.00000,0.00000,0.00000,0.00000,0.00000,0.00000,0.00000,0.00000,0.00000,0.00000,1.57080,-1.00000,-1.00000,-1.00000,0.00000,0.00000,0.00000,"[0.000, 0.000, 0.000, 0.000, 0.000, 0.000]",0.000,0.000,0.000,0.000,0.000,0.000,0.000,0.000,0.000,0.000,0.000,0.000
0.0150,1.00000,1.00000,1.00000,0.00000,0.00000,1.57080,0.00000,0.00000,0.00000,0.00000,0.00000,0.00000,0.00000,0.00000,0.00000,0.00000,0.00000,1.57080,-1.00000,-1.00000,-1.00000,0.00000,0.00000,0.00000,"[0.000, 0.000, 0.000, 0.000, 0.000, 0.000]",0.000,0.000,0.000,0.000,0.000,0.000,0.000,0.000,0.000,0.000,0.000,0.000
0.0200,1.00000,1.00000,1.00000,0.00000,0.00000,1.57080,0.00000,0.00000,0.00000,0.00000,0.00000,0.00000,0.00000,0.00000,0.00000,0.00000,0.00000,1.57080,-1.00000,-1.00000,-1.00000,0.00000,0.00000,0.00000,"[0.000, 0.000, 0.000, 0.000, 0.000, 0.000]",0.000,0.000,0.000,0.000,0.000,0.000,0.000,0.000,0.000,0.000,0.000,0.000
0.0250,1.00000,1.00000,1.00000,0.00000,0.00000,1.57080,0.00000,0.00000,0.00000,0.00000,0.00000,0.00000,0.00000,0.00000,0.00000,0.00000,0.00000,1.57080,-1.00000,-1.00000,-1.00000,0.00000,0.00000,0.00000,"[0.000, 0.000, 0.000, 0.000, 0.000, 0.000]",0.000,0.000,0.000,0.000,0.000,0.000,0.000,0.000,0.000,0.000,0.000,0.000
0.0300,1.00000,1.00000,1.00000,0.00000,0.00000,1.57080,0.00000,0.00000,0.00000,0.00000,0.00000,0.00000,0.00000,0.00000,0.00000,0.00000,0.00000,1.57080,-1.00000,-1.00000,-1.00000,0.00000,0.00000,0.00000,"[0.000, 0.000, 0.000, 0.000, 0.000, 0.000]",0.000,0.000,0.000,0.000,0.000,0.000,0.000,0.000,0.000,0.000,0.000,0.000
0.0350,1.00000,1.00000,1.00000,0.00000,0.00000,1.57080,0.00000,0.00000,0.00000,0.00000,0.00000,0.00000,0.00000,0.00000,0.00000,0.00000,0.00000,1.57080,-1.00000,-1.00000,-1.00000,0.00000,0.00000,0.00000,"[0.000, 0.000, 0.000, 0.000, 0.000, 0.000]",0.000,0.000,0.000,0.000,0.000,0.000,0.000,0.000,0.000,0.000,0.000,0.000
0.0400,1.00000,1.00000,1.00000,0.00000,0.00000,1.57080,0.00000,0.00000,0.00000,0.00000,0.00000,0.00000,0.00000,0.00000,0.00000,0.00000,0.00000,1.57080,-1.00000,-1.00000,-1.00000,0.00000,0.00000,0.00000,"[0.000, 0.000, 0.000, 0.000, 0.000, 0.000]",0.000,0.000,0.000,0.000,0.000,0.000,0.000,0.000,0.000,0.000,0.000,0.000
0.0450,1.00000,1.00000,1.00000,0.00000,0.00000,1.57080,0.00000,0.00000,0.00000,0.00000,0.00000,0.00000,0.00000,0.00000,0.00000,0.00000,0.00000,1.57080,-1.00000,-1.00000,-1.00000,0.00000,0.00000,0.00000,"[0.000, 0.000, 0.000, 0.000, 0.000, 0.000]",0.000,0.000,0.000,0.000,0.000,0.000,0.000,0.000,0.000,0.000,0.000,0.000
0.0500,1.00000,1.00000,1.00000,-0.00005,0.00005,1.57107,-0.00025,-0.00025,-0.00025,-0.01932,0.01932,0.10942,0.00000,0.00000,0.00000,0.00000,0.00000,0.00000,-1.00000,-1.00000,-1.00000,0.00005,-0.00005,-1.57107,"[1.000, 0.000, 0.000, 1.000, 1.000, 0.000]",1.000,1.000,0.000,0.000,0.000,0.000,1.000,1.000,1.000,1.000,0.000,0.000
0.0550,1.00000,1.00000,1.00000,-0.00019,0.00019,1.57189,-0.00050,-0.00050,-0.00050,-0.03863,0.03863,0.21883,0.00000,0.00000,0.00000,0.00000,0.00000,0.00000,-1.00000,-1.00000,-1.00000,0.00019,-0.00019,-1.57189,"[1.000, 0.000, 0.000, 1.000, 1.000, 0.000]",1.000,1.000,0.000,0.000,0.000,0.000,1.000,1.000,1.000,1.000,0.000,0.000
0.0600,0.99999,0.99999,0.99999,-0.00043,0.00044,1.57326,-0.00075,-0.00075,-0.00075,-0.05795,0.05795,0.32825,0.00000,0.00000,0.00000,0.00000,0.00000,0.00000,-0.99999,-0.99999,-0.99999,0.00043,-0.00044,-1.57326,"[1.000, 0.000, 0.000, 1.000, 1.000, 0.000]",1.000,1.000,0.000,0.000,0.000,0.000,1.000,1.000,1.000,1.000,0.000,0.000
0.0650,0.99999,0.99999,0.99999,-0.00077,0.00077,1.57517,-0.00100,-0.00100,-0.00100,-0.07727,0.07727,0.43767,0.00000,0.00000,0.00000,0.00000,0.00000,0.00000,-0.99999,-0.99999,-0.99999,0.00077,-0.00077,-1.57517,"[1.000, 0.000, 0.000, 1.000, 1.000, 0.000]",1.000,1.000,0.000,0.000,0.000,0.000,1.000,1.000,1.000,1.000,0.000,0.000
0.0700,0.99998,0.99998,0.99998,-0.00120,0.00121,1.57763,-0.00125,-0.00125,-0.00125,-0.09659,0.09659,0.54708,0.00000,0.00000,0.00000,0.00000,0.00000,0.00000,-0.99998,-0.99998,-0.99998,0.00120,-0.00121,-1.57763,"[1.000, 0.000, 0.000, 1.000, 1.000, 0.000]",1.000,1.000,0.000,0.000,0.000,0.000,1.000,1.000,1.000,1.000,0.000,0.000
0.0750,0.99998,0.99998,0.99998,-0.00173,0.00175,1.58064,-0.00150,-0.00150,-0.00150,-0.11590,0.11590,0.65650,0.00000,0.00000,0.00000,0.00000,0.00000,0.00000,-0.99998,-0.99998,-0.99998,0.00173,-0.00175,-1.58064,"[1.000, 0.000, 0.000, 1.000, 1.000, 0.000]",1.000,1.000,0.000,0.000,0.000,0.000,1.000,1.000,1.000,1.000,0.000,0.000
0.0800,0.99997,0.99997,0.99997,-0.00235,0.00238,1.58420,-0.00174,-0.00176,-0.00175,-0.13522,0.13522,0.76592,0.00000,0.00000,0.00000,0.00000,0.00000,0.00000,-0.99997,-0.99997,-0.99997,0.00235,-0.00238,-1.58420,"[1.000, 0.000, 0.000, 1.000, 1.000, 0.000]",1.000,1.000,0.000,0.000,0.000,0.000,1.000,1.000,1.000,1.000,0.000,0.000
0.0850,0.99996,0.99996,0.99996,-0.00306,0.00312,1.58830,-0.00199,-0.00201,-0.00200,-0.15454,0.15454,0.87533,0.00000,0.00000,0.00000,0.00000,0.00000,0.00000,-0.99996,-0.99996,-0.99996,0.00306,-0.00312,-1.58830,"[1.000, 0.000, 0.000, 1.000, 1.000, 0.000]",1.000,1.000,0.000,0.000,0.000,0.000,1.000,1.000,1.000,1.000,0.000,0.000
0.0900,0.99995,0.99995,0.99995,-0.00387,0.00395,1.59295,-0.00223,-0.00227,-0.00225,-0.17386,0.17386,0.98475,0.00000,0.00000,0.00000,0.00000,0.00000,0.00000,-0.99995,-0.99995,-0.99995,0.00387,-0.00395,-1.59295,"[1.000, 0.000, 0.000, 1.000, 1.000, 0.000]",1.000,1.000,0.000,0.000,0.000,0.000,1.000,1.000,1.000,1.000,0.000,0.000
0.0950,0.99994,0.99994,0.99994,-0.00476,0.00489,1.59814,-0.00248,-0.00252,-0.00250,-0.19317,0.19317,1.09417,0.00000,0.00000,0.00000,0.00000,0.00000,0.00000,-0.99994,-0.99994,-0.99994,0.00476,-0.00489,-1.59814,"[1.000, 0.000, 0.000, 1.000, 1.000, 0.000]",1.000,1.000,0.000,0.000,0.000,0.000,1.000,1.000,1.000,1.000,0.000,0.000
0.1000,0.99992,0.99992,0.99992,-0.00583,0.00603,1.60390,-0.00272,-0.00278,-0.00275,-0.24816,0.24780,1.21307,0.00000,0.00000,0.00000,0.00000,0.00000,0.00000,-0.99992,-0.99992,-0.99992,0.00583,-0.00603,-1.60390,"[1.000, 0.000, 0.000, 1.000, 1.000, 0.000]",1.000,1.000,0.000,0.000,0.000,0.000,1.000,1.000,1.000,1.000,0.000,0.000
0.1050,0.99991,0.99991,0.99991,-0.00717,0.00744,1.61025,-0.00296,-0.00304,-0.00300,-0.30314,0.30243,1.33198,0.00000,0.00000,0.00000,0.00000,0.00000,0.00000,-0.99991,-0.99991,-0.99991,0.00717,-0.00744,-1.61025,"[1.000, 0.000, 0.000, 1.000, 1.000, 0.000]",1.000,1.000,0.000,0.000,0.000,0.000,1.000,1.000,1.000,1.000,0.000,0.000
0.1100,0.99990,0.99989,0.99989,-0.00877,0.00915,1.61720,-0.00320,-0.00330,-0.00325,-0.35812,0.35706,1.45088,0.00000,0.00000,0.00000,0.00000,0.00000,0.00000,-0.99990,-0.99989,-0.99989,0.00877,-0.00915,-1.61720,"[1.000, 0.000, 0.000, 1.000, 1.000, 0.000]",1.000,1.000,0.000,0.000,0.000,0.000,1.000,1.000,1.000,1.000,0.000,0.000
0.1150,0.99988,0.99988,0.99988,-0.01062,0.01114,1.62473,-0.00343,-0.00357,-0.00350,-0.41311,0.41169,1.56979,0.00000,0.00000,0.00000,0.00000,0.00000,0.00000,-0.99988,-0.99988,-0.99988,0.01062,-0.01114,-1.62473,"[1.000, 0.000, 0.000, 1.000, 1.000, 0.000]",1.000,1.000,0.000,0.000,0.000,0.000,1.000,1.000,1.000,1.000,0.000,0.000
0.1200,0.99986,0.99986,0.99986,-0.01272,0.01343,1.63285,-0.00367,-0.00383,-0.00375,-0.46809,0.46631,1.68870,0.00000,0.00000,0.00000,0.00000,0.00000,0.00000,-0.99986,-0.99986,-0.99986,0.01272,-0.01343,-1.63285,"[1.000, 0.000, 0.000, 1.000, 1.000, 0.000]",1.000,1.000,0.000,0.000,0.000,0.000,1.000,1.000,1.000,1.000,0.000,0.000
0.1250,0.99984,0.99984,0.99984,-0.01507,0.01602,1.64156,-0.00390,-0.00410,-0.00400,-0.52307,0.52094,1.80760,0.00000,0.00000,0.00000,0.00000,0.00000,0.00000,-0.99984,-0.99984,-0.99984,0.01507,-0.01602,-1.64156,"[1.000, 0.000, 0.000, 1.000, 1.000, 0.000]",1.000,1.000,0.000,0.000,0.000,0.000,1.000,1.000,1.000,1.000,0.000,0.000
0.1300,0.99982,0.99982,0.99982,-0.01766,0.01892,1.65085,-0.00412,-0.00437,-0.00425,-0.57806,0.57557,1.92651,0.00000,0.00000,0.00000,0.00000,0.00000,0.00000,-0.99982,-0.99982,-0.99982,0.01766,-0.01892,-1.65085,"[1.000, 0.000, 0.000, 1.000, 1.000, 0.000]",1.000,1.000,0.000,0.000,0.000,0.000,1.000,1.000,1.000,1.000,0.000,0.000
0.1350,0.99980,0.99979,0.99980,-0.02049,0.02212,1.66072,-0.00435,-0.00464,-0.00450,-0.63304,0.63020,2.04541,0.00000,0.00000,0.00000,0.00000,0.00000,0.00000,-0.99980,-0.99979,-0.99980,0.02049,-0.02212,-1.66072,"[1.000, 0.000, 0.000, 1.000, 1.000, 0.000]",1.000,1.000,0.000,0.000,0.000,0.000,1.000,1.000,1.000,1.000,0.000,0.000
0.1400,0.99978,0.99977,0.99977,-0.02354,0.02564,1.67117,-0.00457,-0.00492,-0.00475,-0.68802,0.68483,2.16432,0.00000,0.00000,0.00000,0.00000,0.00000,0.00000,-0.99978,-0.99977,-0.99977,0.02354,-0.02564,-1.67117,"[1.000, 0.000, 0.000, 1.000, 1.000, 0.000]",1.000,1.000,0.000,0.000,0.000,0.000,1.000,1.000,1.000,1.000,0.000,0.000
0.1450,0.99976,0.99975,0.99975,-0.02681,0.02948,1.68220,-0.00479,-0.00520,-0.00500,-0.74300,0.73945,2.28323,0.00000,0.00000,0.00000,0.00000,0.00000,0.00000,-0.99976,-0.99975,-0.99975,0.02681,-0.02948,-1.68220,"[1.000, 0.000, 0.000, 1.000, 1.000, 0.000]",1.000,1.000,0.000,0.000,0.000,0.000,1.000,1.000,1.000,1.000,0.000,0.000
0.1500,0.99973,0.99972,0.99972,-0.03046,0.03381,1.69380,-0.00500,-0.00548,-0.00525,-0.86145,0.85882,2.40213,0.00000,0.00000,0.00000,0.00000,0.00000,0.00000,-0.99973,-0.99972,-0.99972,0.03046,-0.03381,-1.69380,"[1.000, 0.000, 0.000, 1.000, 1.000, 0.000]",1.000,1.000,0.000,0.000,0.000,0.000,1.000,1.000,1.000,1.000,0.000,0.000
0.1550,0.99971,0.99969,0.99970,-0.03462,0.03880,1.70596,-0.00521,-0.00577,-0.00550,-0.97990,0.97818,2.52104,0.00000,0.00000,0.00000,0.00000,0.00000,0.00000,-0.99971,-0.99969,-0.99970,0.03462,-0.03880,-1.70596,"[1.000, 0.000, 0.000, 1.000, 1.000, 0.000]",1.000,1.000,0.000,0.000,0.000,0.000,1.000,1.000,1.000,1.000,0.000,0.000
0.1600,0.99968,0.99966,0.99967,-0.03929,0.04446,1.71868,-0.00541,-0.00606,-0.00574,-1.09834,1.09754,2.63995,0.00000,0.00000,0.00000,0.00000,0.00000,0.00000,-0.99968,-0.99966,-0.99967,0.03929,-0.04446,-1.71868,"[1.000, 0.000, 0.000, 1.000, 1.000, 0.000]",1.000,1.000,0.000,0.000,0.000,0.000,1.000,1.000,1.000,1.000,0.000,0.000
0.1650,0.99965,0.99963,0.99964,-0.04444,0.05080,1.73194,-0.00561,-0.00635,-0.00599,-1.21679,1.21690,2.75886,0.00000,0.00000,0.00000,0.00000,0.00000,0.00000,-0.99965,-0.99963,-0.99964,0.04444,-0.05080,-1.73194,"[1.000, 0.000, 0.000, 1.000, 1.000, 0.000]",1.000,1.000,0.000,0.000,0.000,0.000,1.000,1.000,1.000,1.000,0.000,0.000
0.1700,0.99962,0.99960,0.99961,-0.05008,0.05785,1.74573,-0.00580,-0.00665,-0.00624,-1.33523,1.33627,2.87777,0.00000,0.00000,0.00000,0.00000,0.00000,0.00000,-0.99962,-0.99960,-0.99961,0.05008,-0.05785,-1.74573,"[1.000, 0.000, 0.000, 1.000, 1.000, 0.000]",1.000,1.000,0.000,0.000,0.000,0.000,1.000,1.000,1.000,1.000,0.000,0.000
0.1750,0.99959,0.99956,0.99958,-0.05617,0.06559,1.76005,-0.00599,-0.00695,-0.00649,-1.45368,1.45563,2.99667,0.00000,0.00000,0.00000,0.00000,0.00000,0.00000,-0.99959,-0.99956,-0.99958,0.05617,-0.06559,-1.76005,"[1.000, 0.000, 0.000, 1.000, 1.000, 0.000]",1.000,1.000,0.000,0.000,0.000,0.000,1.000,1.000,1.000,1.000,0.000,0.000
0.1800,0.99956,0.99953,0.99954,-0.06270,0.07407,1.77489,-0.00617,-0.00726,-0.00673,-1.57212,1.57499,3.11558,0.00000,0.00000,0.00000,0.00000,0.00000,0.00000,-0.99956,-0.99953,-0.99954,0.06270,-0.07407,-1.77489,"[1.000, 0.000, 0.000, 1.000, 1.000, 0.000]",1.000,1.000,0.000,0.000,0.000,0.000,1.000,1.000,1.000,1.000,0.000,0.000
0.1850,0.99953,0.99949,0.99951,-0.06965,0.08327,1.79024,-0.00635,-0.00757,-0.00698,-1.69057,1.69435,3.23449,0.00000,0.00000,0.00000,0.00000,0.00000,0.00000,-0.99953,-0.99949,-0.99951,0.06965,-0.08327,-1.79024,"[1.000, 0.000, 0.000, 1.000, 1.000, 0.000]",1.000,1.000,0.000,0.000,0.000,0.000,1.000,1.000,1.000,1.000,0.000,0.000
0.1900,0.99950,0.99945,0.99947,-0.07700,0.09322,1.80608,-0.00652,-0.00788,-0.00723,-1.80901,1.81372,3.35340,0.00000,0.00000,0.00000,0.00000,0.00000,0.00000,-0.99950,-0.99945,-0.99947,0.07700,-0.09322,-1.80608,"[1.000, 0.000, 0.000, 1.000, 1.000, 0.000]",1.000,1.000,0.000,0.000,0.000,0.000,1.000,1.000,1.000,1.000,0.000,0.000
0.1950,0.99947,0.99941,0.99944,-0.08473,0.10394,1.82241,-0.00668,-0.00820,-0.00747,-1.92746,1.93308,3.47230,0.00000,0.00000,0.00000,0.00000,0.00000,0.00000,-0.99947,-0.99941,-0.99944,0.08473,-0.10394,-1.82241,"[1.000, 0.000, 0.000, 1.000, 1.000, 0.000]",1.000,1.000,0.000,0.000,0.000,0.000,1.000,1.000,1.000,1.000,0.000,0.000
0.2000,0.99943,0.99937,0.99940,-0.09283,0.11543,1.83922,-0.00683,-0.00853,-0.00771,-2.04587,2.05239,3.59121,0.00000,0.00000,0.00000,0.00000,0.00000,0.00000,-0.99943,-0.99937,-0.99940,0.09283,-0.11543,-1.83922,"[1.000, 0.000, 0.000, 1.000, 1.000, 0.000]",1.000,1.000,0.000,0.000,0.000,0.000,1.000,1.000,1.000,1.000,0.000,0.000
0.2050,0.99940,0.99933,0.99936,-0.10126,0.12771,1.85649,-0.00697,-0.00886,-0.00795,-2.16428,2.17171,3.71012,0.00000,0.00000,0.00000,0.00000,0.00000,0.00000,-0.99940,-0.99933,-0.99936,0.10126,-0.12771,-1.85649,"[1.000, 0.000, 0.000, 1.000, 1.000, 0.000]",1.000,1.000,0.000,0.000,0.000,0.000,1.000,1.000,1.000,1.000,0.000,0.000
0.2100,0.99936,0.99928,0.99932,-0.11001,0.14079,1.87422,-0.00711,-0.00919,-0.00819,-2.28268,2.29102,3.82903,0.00000,0.00000,0.00000,0.00000,0.00000,0.00000,-0.99936,-0.99928,-0.99932,0.11001,-0.14079,-1.87422,"[1.000, 0.000, 0.000, 1.000, 1.000, 0.000]",1.000,1.000,0.000,0.000,0.000,0.000,1.000,1.000,1.000,1.000,0.000,0.000
0.2150,0.99933,0.99923,0.99928,-0.11904,0.15469,1.89239,-0.00723,-0.00953,-0.00843,-2.40109,2.41033,3.94793,0.00000,0.00000,0.00000,0.00000,0.00000,0.00000,-0.99933,-0.99923,-0.99928,0.11904,-0.15469,-1.89239,"[1.000, 0.000, 0.000, 1.000, 1.000, 0.000]",1.000,1.000,0.000,0.000,0.000,0.000,1.000,1.000,1.000,1.000,0.000,0.000
0.2200,0.99929,0.99919,0.99924,-0.12834,0.16941,1.91099,-0.00735,-0.00988,-0.00867,-2.51950,2.52965,4.06684,0.00000,0.00000,0.00000,0.00000,0.00000,0.00000,-0.99929,-0.99919,-0.99924,0.12834,-0.16941,-1.91099,"[1.000, 0.000, 0.000, 1.000, 1.000, 0.000]",1.000,1.000,0.000,0.000,0.000,0.000,1.000,1.000,1.000,1.000,0.000,0.000
0.2250,0.99925,0.99914,0.99919,-0.13788,0.18498,1.93002,-0.00745,-0.01023,-0.00890,-2.63791,2.64896,4.18575,0.00000,0.00000,0.00000,0.00000,0.00000,0.00000,-0.99925,-0.99914,-0.99919,0.13788,-0.18498,-1.93002,"[1.000, 0.000, 0.000, 1.000, 1.000, 0.000]",1.000,1.000,0.000,0.000,0.000,0.000,1.000,1.000,1.000,1.000,0.000,0.000
0.2300,0.99922,0.99908,0.99915,-0.14763,0.20141,1.94947,-0.00755,-0.01058,-0.00913,-2.75631,2.76827,4.30465,0.00000,0.00000,0.00000,0.00000,0.00000,0.00000,-0.99922,-0.99908,-0.99915,0.14763,-0.20141,-1.94947,"[1.000, 0.000, 0.000, 1.000, 1.000, 0.000]",1.000,1.000,0.000,0.000,0.000,0.000,1.000,1.000,1.000,1.000,0.000,0.000
0.2350,0.99918,0.99903,0.99910,-0.15757,0.21870,1.96932,-0.00763,-0.01094,-0.00936,-2.87472,2.88759,4.42356,0.00000,0.00000,0.00000,0.00000,0.00000,0.00000,-0.99918,-0.99903,-0.99910,0.15757,-0.21870,-1.96932,"[1.000, 0.000, 0.000, 1.000, 1.000, 0.000]",1.000,1.000,0.000,0.000,0.000,0.000,1.000,1.000,1.000,1.000,0.000,0.000
0.2400,0.99914,0.99897,0.99905,-0.16767,0.23687,1.98958,-0.00770,-0.01130,-0.00959,-2.99313,3.00690,4.54247,0.00000,0.00000,0.00000,0.00000,0.00000,0.00000,-0.99914,-0.99897,-0.99905,0.16767,-0.23687,-1.98958,"[1.000, 0.000, 0.000, 1.000, 1.000, 0.000]",1.000,1.000,0.000,0.000,0.000,0.000,1.000,1.000,1.000,1.000,0.000,0.000
0.2450,0.99910,0.99892,0.99901,-0.17789,0.25593,2.01023,-0.00776,-0.01167,-0.00981,-3.11154,3.12622,4.66137,0.00000,0.00000,0.00000,0.00000,0.00000,0.00000,-0.99910,-0.99892,-0.99901,0.17789,-0.25593,-2.01023,"[1.000, 0.000, 0.000, 1.000, 1.000, 0.000]",1.000,1.000,0.000,0.000,0.000,0.000,1.000,1.000,1.000,1.000,0.000,0.000
0.2500,0.99906,0.99886,0.99896,-0.18822,0.27589,2.03128,-0.00781,-0.01204,-0.01003,-3.22986,3.24555,4.78011,0.00000,0.00000,0.00000,0.00000,0.00000,0.00000,-0.99906,-0.99886,-0.99896,0.18822,-0.27589,-2.03128,"[1.000, 0.000, 0.000, 1.000, 1.000, 0.000]",1.000,1.000,0.000,0.000,0.000,0.000,1.000,1.000,1.000,1.000,0.000,0.000
0.2550,0.99902,0.99880,0.99891,-0.19861,0.29676,2.05272,-0.00785,-0.01241,-0.01024,-3.34817,3.36489,4.89884,0.00000,0.00000,0.00000,0.00000,0.00000,0.00000,-0.99902,-0.99880,-0.99891,0.19861,-0.29676,-2.05272,"[1.000, 0.000, 0.000, 1.000, 1.000, 0.000]",1.000,1.000,0.000,0.000,0.000,0.000,1.000,1.000,1.000,1.000,0.000,0.000
0.2600,0.99898,0.99873,0.99885,-0.20903,0.31855,2.07456,-0.00787,-0.01279,-0.01045,-3.46649,3.48423,5.01757,0.00000,0.00000,0.00000,0.00000,0.00000,0.00000,-0.99898,-0.99873,-0.99885,0.20903,-0.31855,-2.07456,"[1.000, 0.000, 0.000, 1.000, 1.000, 0.000]",1.000,1.000,0.000,0.000,0.000,0.000,1.000,1.000,1.000,1.000,0.000,0.000
0.2650,0.99894,0.99867,0.99880,-0.21946,0.34126,2.09679,-0.00788,-0.01317,-0.01065,-3.58481,3.60356,5.13631,0.00000,0.00000,0.00000,0.00000,0.00000,0.00000,-0.99894,-0.99867,-0.99880,0.21946,-0.34126,-2.09679,"[1.000, 0.000, 0.000, 1.000, 1.000, 0.000]",1.000,1.000,0.000,0.000,0.000,0.000,1.000,1.000,1.000,1.000,0.000,0.000
0.2700,0.99890,0.99860,0.99875,-0.22985,0.36490,2.11943,-0.00788,-0.01356,-0.01085,-3.70313,3.72290,5.25504,0.00000,0.00000,0.00000,0.00000,0.00000,0.00000,-0.99890,-0.99860,-0.99875,0.22985,-0.36490,-2.11943,"[1.000, 0.000, 0.000, 1.000, 1.000, 0.000]",1.000,1.000,0.000,0.000,0.000,0.000,1.000,1.000,1.000,1.000,0.000,0.000
0.2750,0.99887,0.99853,0.99869,-0.24017,0.38949,2.14249,-0.00786,-0.01395,-0.01104,-3.82145,3.84224,5.37377,0.00000,0.00000,0.00000,0.00000,0.00000,0.00000,-0.99887,-0.99853,-0.99869,0.24017,-0.38949,-2.14249,"[1.000, 0.000, 0.000, 1.000, 1.000, 0.000]",1.000,1.000,0.000,0.000,0.000,0.000,1.000,1.000,1.000,1.000,0.000,0.000
0.2800,0.99883,0.99846,0.99864,-0.25038,0.41501,2.16598,-0.00782,-0.01434,-0.01122,-3.93977,3.96158,5.49251,0.00000,0.00000,0.00000,0.00000,0.00000,0.00000,-0.99883,-0.99846,-0.99864,0.25038,-0.41501,-2.16598,"[1.000, 0.000, 0.000, 1.000, 1.000, 0.000]",1.000,1.000,0.000,0.000,0.000,0.000,1.000,1.000,1.000,1.000,0.000,0.000
0.2850,0.99879,0.99839,0.99858,-0.26043,0.44148,2.18992,-0.00778,-0.01473,-0.01140,-4.05808,4.08091,5.61124,0.00000,0.00000,0.00000,0.00000,0.00000,0.00000,-0.99879,-0.99839,-0.99858,0.26043,-0.44148,-2.18992,"[1.000, 0.000, 0.000, 1.000, 1.000, 0.000]",1.000,1.000,0.000,0.000,0.000,0.000,1.000,1.000,1.000,1.000,0.000,0.000
0.2900,0.99875,0.99831,0.99852,-0.27029,0.46889,2.21434,-0.00771,-0.01512,-0.01157,-4.17640,4.20025,5.72997,0.00000,0.00000,0.00000,0.00000,0.00000,0.00000,-0.99875,-0.99831,-0.99852,0.27029,-0.46889,-2.21434,"[1.000, 0.000, 0.000, 1.000, 1.000, 0.000]",1.000,1.000,0.000,0.000,0.000,0.000,1.000,1.000,1.000,1.000,0.000,0.000
0.2950,0.99871,0.99824,0.99846,-0.27989,0.49725,2.23926,-0.00764,-0.01552,-0.01173,-4.29472,4.31959,5.84871,0.00000,0.00000,0.00000,0.00000,0.00000,0.00000,-0.99871,-0.99824,-0.99846,0.27989,-0.49725,-2.23926,"[1.000, 0.000, 0.000, 1.000, 1.000, 0.000]",1.000,1.000,0.000,0.000,0.000,0.000,1.000,1.000,1.000,1.000,0.000,0.000
0.3000,0.99867,0.99816,0.99840,-0.28918,0.52656,2.26473,-0.00782,-0.01557,-0.01212,-4.41278,4.43856,5.96761,0.00000,0.00000,0.00000,0.00000,0.00000,0.00000,-0.99867,-0.99816,-0.99840,0.28918,-0.52656,-2.26473,"[0.000, 1.000, 0.000, 1.000, 1.000, 0.000]",0.000,0.000,1.000,1.000,0.000,0.000,1.000,1.000,1.000,1.000,0.000,0.000
0.3050,0.99863,0.99808,0.99834,-0.29810,0.55681,2.29080,-0.00798,-0.01563,-0.01252,-4.53084,4.55752,6.08652,0.00000,0.00000,0.00000,0.00000,0.00000,0.00000,-0.99863,-0.99808,-0.99834,0.29810,-0.55681,-2.29080,"[0.000, 1.000, 0.000, 1.000, 1.000, 0.000]",0.000,0.000,1.000,1.000,0.000,0.000,1.000,1.000,1.000,1.000,0.000,0.000
0.3100,0.99859,0.99800,0.99828,-0.30658,0.58800,2.31752,-0.00814,-0.01570,-0.01292,-4.64889,4.67649,6.20542,0.00000,0.00000,0.00000,0.00000,0.00000,0.00000,-0.99859,-0.99800,-0.99828,0.30658,-0.58800,-2.31752,"[0.000, 1.000, 0.000, 1.000, 1.000, 0.000]",0.000,0.000,1.000,1.000,0.000,0.000,1.000,1.000,1.000,1.000,0.000,0.000
0.3150,0.99855,0.99793,0.99821,-0.31453,0.62012,2.34497,-0.00828,-0.01579,-0.01332,-4.76695,4.79546,6.32433,0.00000,0.00000,0.00000,0.00000,0.00000,0.00000,-0.99855,-0.99793,-0.99821,0.31453,-0.62012,-2.34497,"[0.000, 1.000, 0.000, 1.000, 1.000, 0.000]",0.000,0.000,1.000,1.000,0.000,0.000,1.000,1.000,1.000,1.000,0.000,0.000
0.3200,0.99851,0.99785,0.99815,-0.32186,0.65317,2.37322,-0.00841,-0.01589,-0.01372,-4.88501,4.91443,6.44323,0.00000,0.00000,0.00000,0.00000,0.00000,0.00000,-0.99851,-0.99785,-0.99815,0.32186,-0.65317,-2.37322,"[0.000, 1.000, 0.000, 1.000, 1.000, 0.000]",0.000,0.000,1.000,1.000,0.000,0.000,1.000,1.000,1.000,1.000,0.000,0.000
0.3250,0.99847,0.99777,0.99808,-0.32846,0.68712,2.40239,-0.00852,-0.01600,-0.01412,-5.00306,5.03340,6.56214,0.00000,0.00000,0.00000,0.00000,0.00000,0.00000,-0.99847,-0.99777,-0.99808,0.32846,-0.68712,-2.40239,"[0.000, 1.000, 0.000, 1.000, 1.000, 0.000]",0.000,0.000,1.000,1.000,0.000,0.000,1.000,1.000,1.000,1.000,0.000,0.000
0.3300,0.99842,0.99769,0.99801,-0.33420,0.72197,2.43261,-0.00862,-0.01612,-0.01452,-5.12112,5.15236,6.68104,0.00000,0.00000,0.00000,0.00000,0.00000,0.00000,-0.99842,-0.99769,-0.99801,0.33420,-0.72197,-2.43261,"[0.000, 1.000, 0.000, 1.000, 1.000, 0.000]",0.000,0.000,1.000,1.000,0.000,0.000,1.000,1.000,1.000,1.000,0.000,0.000
0.3350,0.99838,0.99761,0.99793,-0.33892,0.75770,2.46403,-0.00871,-0.01625,-0.01493,-5.23918,5.27133,6.79995,0.00000,0.00000,0.00000,0.00000,0.00000,0.00000,-0.99838,-0.99761,-0.99793,0.33892,-0.75770,-2.46403,"[0.000, 1.000, 0.000, 1.000, 1.000, 0.000]",0.000,0.000,1.000,1.000,0.000,0.000,1.000,1.000,1.000,1.000,0.000,0.000
0.3400,0.99834,0.99752,0.99786,-0.34243,0.79429,2.49684,-0.00877,-0.01639,-0.01533,-5.35723,5.39030,6.91885,0.00000,0.00000,0.00000,0.00000,0.00000,0.00000,-0.99834,-0.99752,-0.99786,0.34243,-0.79429,-2.49684,"[0.000, 1.000, 0.000, 1.000, 1.000, 0.000]",0.000,0.000,1.000,1.000,0.000,0.000,1.000,1.000,1.000,1.000,0.000,0.000
0.3450,0.99829,0.99744,0.99778,-0.34449,0.83170,2.53129,-0.00882,-0.01654,-0.01573,-5.47529,5.50927,7.03776,0.00000,0.00000,0.00000,0.00000,0.00000,0.00000,-0.99829,-0.99744,-0.99778,0.34449,-0.83170,-2.53129,"[0.000, 1.000, 0.000, 1.000, 1.000, 0.000]",0.000,0.000,1.000,1.000,0.000,0.000,1.000,1.000,1.000,1.000,0.000,0.000
0.3500,0.99825,0.99736,0.99770,-0.34481,0.86989,2.56767,-0.00923,-0.01664,-0.01582,-5.59297,5.62795,7.15666,0.00000,0.00000,0.00000,0.00000,0.00000,0.00000,-0.99825,-0.99736,-0.99770,0.34481,-0.86989,-2.56767,"[0.000, 1.000, 0.000, 1.000, 0.000, 1.000]",0.000,0.000,1.000,1.000,0.000,0.000,1.000,1.000,0.000,0.000,1.000,1.000
0.3550,0.99820,0.99728,0.99762,-0.34301,0.90884,2.60637,-0.00964,-0.01676,-0.01591,-5.71064,5.74663,7.27557,0.00000,0.00000,0.00000,0.00000,0.00000,0.00000,-0.99820,-0.99728,-0.99762,0.34301,-0.90884,-2.60637,"[0.000, 1.000, 0.000, 1.000, 0.000, 1.000]",0.000,0.000,1.000,1.000,0.000,0.000,1.000,1.000,0.000,0.000,1.000,1.000
0.3600,0.99815,0.99719,0.99754,-0.33861,0.94846,2.64788,-0.01004,-0.01690,-0.01601,-5.82831,5.86530,7.39447,0.00000,0.00000,0.00000,0.00000,0.00000,0.00000,-0.99815,-0.99719,-0.99754,0.33861,-0.94846,-2.64788,"[0.000, 1.000, 0.000, 1.000, 0.000, 1.000]",0.000,0.000,1.000,1.000,0.000,0.000,1.000,1.000,0.000,0.000,1.000,1.000
0.3650,0.99810,0.99711,0.99746,-0.33099,0.98869,2.69284,-0.01043,-0.01705,-0.01613,-5.94599,5.98398,7.51338,0.00000,0.00000,0.00000,0.00000,0.00000,0.00000,-0.99810,-0.99711,-0.99746,0.33099,-0.98869,-2.69284,"[0.000, 1.000, 0.000, 1.000, 0.000, 1.000]",0.000,0.000,1.000,1.000,0.000,0.000,1.000,1.000,0.000,0.000,1.000,1.000
0.3700,0.99805,0.99702,0.99738,-0.31934,1.02943,2.74207,-0.01081,-0.01722,-0.01625,-6.06366,6.10266,7.63228,0.00000,0.00000,0.00000,0.00000,0.00000,0.00000,-0.99805,-0.99702,-0.99738,0.31934,-1.02943,-2.74207,"[0.000, 1.000, 0.000, 1.000, 0.000, 1.000]",0.000,0.000,1.000,1.000,0.000,0.000,1.000,1.000,0.000,0.000,1.000,1.000
0.3750,0.99799,0.99693,0.99730,-0.30256,1.07054,2.79671,-0.01117,-0.01741,-0.01638,-6.18134,6.22134,7.75119,0.00000,0.00000,0.00000,0.00000,0.00000,0.00000,-0.99799,-0.99693,-0.99730,0.30256,-1.07054,-2.79671,"[0.000, 1.000, 0.000, 1.000, 0.000, 1.000]",0.000,0.000,1.000,1.000,0.000,0.000,1.000,1.000,0.000,0.000,1.000,1.000
0.3800,0.99794,0.99685,0.99721,-0.27913,1.11184,2.85828,-0.01153,-0.01762,-0.01653,-6.29901,6.34002,7.87009,0.00000,0.00000,0.00000,0.00000,0.00000,0.00000,-0.99794,-0.99685,-0.99721,0.27913,-1.11184,-2.85828,"[0.000, 1.000, 0.000, 1.000, 0.000, 1.000]",0.000,0.000,1.000,1.000,0.000,0.000,1.000,1.000,0.000,0.000,1.000,1.000
0.3850,0.99788,0.99676,0.99713,-0.24698,1.15307,2.92888,-0.01187,-0.01784,-0.01667,-6.41668,6.45870,7.98900,0.00000,0.00000,0.00000,0.00000,0.00000,0.00000,-0.99788,-0.99676,-0.99713,0.24698,-1.15307,-2.92888,"[0.000, 1.000, 0.000, 1.000, 0.000, 1.000]",0.000,0.000,1.000,1.000,0.000,0.000,1.000,1.000,0.000,0.000,1.000,1.000
0.3900,0.99782,0.99667,0.99705,-0.20319,1.19385,3.01147,-0.01219,-0.01808,-0.01683,-6.53436,6.57737,8.10790,0.00000,0.00000,0.00000,0.00000,0.00000,0.00000,-0.99782,-0.99667,-0.99705,0.20319,-1.19385,-3.01147,"[0.000, 1.000, 0.000, 1.000, 0.000, 1.000]",0.000,0.000,1.000,1.000,0.000,0.000,1.000,1.000,0.000,0.000,1.000,1.000
0.3950,0.99775,0.99658,0.99696,-0.14364,1.23363,3.11019,-0.01250,-0.01834,-0.01699,-6.65203,6.69605,8.22681,0.00000,0.00000,0.00000,0.00000,0.00000,0.00000,-0.99775,-0.99658,-0.99696,0.14364,-1.23363,-3.11019,"[0.000, 1.000, 0.000, 1.000, 0.000, 1.000]",0.000,0.000,1.000,1.000,0.000,0.000,1.000,1.000,0.000,0.000,1.000,1.000
0.4000,0.99769,0.99649,0.99688,-0.06316,1.27124,-3.05327,-0.01250,-0.01834,-0.01699,-6.65203,6.69605,8.22681,0.00000,0.00000,0.00000,0.00000,0.00000,0.00000,-0.99769,-0.99649,-0.99688,0.06316,-1.27124,3.05327,"[0.000, 0.000, 0.000, 0.000, 0.000, 0.000]",0.000,0.000,0.000,0.000,0.000,0.000,0.000,0.000,0.000,0.000,0.000,0.000
0.4050,0.99763,0.99639,0.99679,0.04429,1.30519,-2.90678,-0.01250,-0.01834,-0.01699,-6.65203,6.69605,8.22681,0.00000,0.00000,0.00000,0.00000,0.00000,0.00000,-0.99763,-0.99639,-0.99679,-0.04429,-1.30519,2.90678,"[0.000, 0.000, 0.000, 0.000, 0.000, 0.000]",0.000,0.000,0.000,0.000,0.000,0.000,0.000,0.000,0.000,0.000,0.000,0.000
0.4100,0.99757,0.99630,0.99671,0.18540,1.33385,-2.72679,-0.01250,-0.01834,-0.01699,-6.65203,6.69605,8.22681,0.00000,0.00000,0.00000,0.00000,0.00000,0.00000,-0.99757,-0.99630,-0.99671,-0.18540,-1.33385,2.72679,"[0.000, 0.000, 0.000, 0.000, 0.000, 0.000]",0.000,0.000,0.000,0.000,0.000,0.000,0.000,0.000,0.000,0.000,0.000,0.000
0.4150,0.99750,0.99621,0.99662,0.36392,1.35504,-2.50952,-0.01250,-0.01834,-0.01699,-6.65203,6.69605,8.22681,0.00000,0.00000,0.00000,0.00000,0.00000,0.00000,-0.99750,-0.99621,-0.99662,-0.36392,-1.35504,2.50952,"[0.000, 0.000, 0.000, 0.000, 0.000, 0.000]",0.000,0.000,0.000,0.000,0.000,0.000,0.000,0.000,0.000,0.000,0.000,0.000
0.4200,0.99744,0.99612,0.99654,0.57436,1.36639,-2.26039,-0.01250,-0.01834,-0.01699,-6.65203,6.69605,8.22681,0.00000,0.00000,0.00000,0.00000,0.00000,0.00000,-0.99744,-0.99612,-0.99654,-0.57436,-1.36639,2.26039,"[0.000, 0.000, 0.000, 0.000, 0.000, 0.000]",0.000,0.000,0.000,0.000,0.000,0.000,0.000,0.000,0.000,0.000,0.000,0.000
0.4250,0.99738,0.99603,0.99645,0.79759,1.36624,-1.99849,-0.01250,-0.01834,-0.01699,-6.65203,6.69605,8.22681,0.00000,0.00000,0.00000,0.00000,0.00000,0.00000,-0.99738,-0.99603,-0.99645,-0.79759,-1.36624,1.99849,"[0.000, 0.000, 0.000, 0.000, 0.000, 0.000]",0.000,0.000,0.000,0.000,0.000,0.000,0.000,0.000,0.000,0.000,0.000,0.000
0.4300,0.99732,0.99594,0.99637,1.00741,1.35462,-1.74999,-0.01250,-0.01834,-0.01699,-6.65203,6.69605,8.22681,0.00000,0.00000,0.00000,0.00000,0.00000,0.00000,-0.99732,-0.99594,-0.99637,-1.00741,-1.35462,1.74999,"[0.000, 0.000, 0.000, 0.000, 0.000, 0.000]",0.000,0.000,0.000,0.000,0.000,0.000,0.000,0.000,0.000,0.000,0.000,0.000
0.4350,0.99725,0.99584,0.99628,1.18499,1.33321,-1.53365,-0.01250,-0.01834,-0.01699,-6.65203,6.69605,8.22681,0.00000,0.00000,0.00000,0.00000,0.00000,0.00000,-0.99725,-0.99584,-0.99628,-1.18499,-1.33321,1.53365,"[0.000, 0.000, 0.000, 0.000, 0.000, 0.000]",0.000,0.000,0.000,0.000,0.000,0.000,0.000,0.000,0.000,0.000,0.000,0.000
0.4400,0.99719,0.99575,0.99620,1.32518,1.30439,-1.35458,-0.01250,-0.01834,-0.01699,-6.65203,6.69605,8.22681,0.00000,0.00000,0.00000,0.00000,0.00000,0.00000,-0.99719,-0.99575,-0.99620,-1.32518,-1.30439,1.35458,"[0.000, 0.000, 0.000, 0.000, 0.000, 0.000]",0.000,0.000,0.000,0.000,0.000,0.000,0.000,0.000,0.000,0.000,0.000,0.000
0.4450,0.99713,0.99566,0.99611,1.43186,1.27032,-1.20886,-0.01250,-0.01834,-0.01699,-6.65203,6.69605,8.22681,0.00000,0.00000,0.00000,0.00000,0.00000,0.00000,-0.99713,-0.99566,-0.99611,-1.43186,-1.27032,1.20886,"[0.000, 0.000, 0.000, 0.000, 0.000, 0.000]",0.000,0.000,0.000,0.000,0.000,0.000,0.000,0.000,0.000,0.000,0.000,0.000
0.4500,0.99707,0.99557,0.99603,1.51234,1.23236,-1.08877,-0.01258,-0.01873,-0.01714,-6.77046,6.81535,8.34481,0.00000,0.00000,0.00000,0.00000,0.00000,0.00000,-0.99707,-0.99557,-0.99603,-1.51234,-1.23236,1.08877,"[0.000, 1.000, 0.000, 1.000, 0.000, 1.000]",0.000,0.000,1.000,1.000,0.000,0.000,1.000,1.000,0.000,0.000,1.000,1.000
0.4550,0.99700,0.99547,0.99594,1.57296,1.19128,-0.98757,-0.01263,-0.01914,-0.01729,-6.88889,6.93464,8.46281,0.00000,0.00000,0.00000,0.00000,0.00000,0.00000,-0.99700,-0.99547,-0.99594,-1.57296,-1.19128,0.98757,"[0.000, 1.000, 0.000, 1.000, 0.000, 1.000]",0.000,0.000,1.000,1.000,0.000,0.000,1.000,1.000,0.000,0.000,1.000,1.000
0.4600,0.99694,0.99538,0.99586,1.61816,1.14778,-0.90076,-0.01266,-0.01954,-0.01743,-7.00733,7.05394,8.58082,0.00000,0.00000,0.00000,0.00000,0.00000,0.00000,-0.99694,-0.99538,-0.99586,-1.61816,-1.14778,0.90076,"[0.000, 1.000, 0.000, 1.000, 0.000, 1.000]",0.000,0.000,1.000,1.000,0.000,0.000,1.000,1.000,0.000,0.000,1.000,1.000
0.4650,0.99688,0.99528,0.99577,1.65136,1.10237,-0.82482,-0.01267,-0.01996,-0.01756,-7.12576,7.17323,8.69882,0.00000,0.00000,0.00000,0.00000,0.00000,0.00000,-0.99688,-0.99528,-0.99577,-1.65136,-1.10237,0.82482,"[0.000, 1.000, 0.000, 1.000, 0.000, 1.000]",0.000,0.000,1.000,1.000,0.000,0.000,1.000,1.000,0.000,0.000,1.000,1.000
0.4700,0.99681,0.99518,0.99568,1.67510,1.05540,-0.75714,-0.01265,-0.02037,-0.01768,-7.24419,7.29252,8.81682,0.00000,0.00000,0.00000,0.00000,0.00000,0.00000,-0.99681,-0.99518,-0.99568,-1.67510,-1.05540,0.75714,"[0.000, 1.000, 0.000, 1.000, 0.000, 1.000]",0.000,0.000,1.000,1.000,0.000,0.000,1.000,1.000,0.000,0.000,1.000,1.000
0.4750,0.99675,0.99507,0.99559,1.69128,1.00716,-0.69572,-0.01261,-0.02079,-0.01779,-7.36262,7.41182,8.93482,0.00000,0.00000,0.00000,0.00000,0.00000,0.00000,-0.99675,-0.99507,-0.99559,-1.69128,-1.00716,0.69572,"[0.000, 1.000, 0.000, 1.000, 0.000, 1.000]",0.000,0.000,1.000,1.000,0.000,0.000,1.000,1.000,0.000,0.000,1.000,1.000
0.4800,0.99669,0.99497,0.99550,1.70130,0.95786,-0.63908,-0.01255,-0.02121,-0.01788,-7.48105,7.53111,9.05283,0.00000,0.00000,0.00000,0.00000,0.00000,0.00000,-0.99669,-0.99497,-0.99550,-1.70130,-0.95786,0.63908,"[0.000, 1.000, 0.000, 1.000, 0.000, 1.000]",0.000,0.000,1.000,1.000,0.000,0.000,1.000,1.000,0.000,0.000,1.000,1.000
0.4850,0.99663,0.99486,0.99541,1.70619,0.90766,-0.58607,-0.01246,-0.02162,-0.01797,-7.59948,7.65041,9.17083,0.00000,0.00000,0.00000,0.00000,0.00000,0.00000,-0.99663,-0.99486,-0.99541,-1.70619,-0.90766,0.58607,"[0.000, 1.000, 0.000, 1.000, 0.000, 1.000]",0.000,0.000,1.000,1.000,0.000,0.000,1.000,1.000,0.000,0.000,1.000,1.000
0.4900,0.99656,0.99475,0.99532,1.70672,0.85671,-0.53579,-0.01234,-0.02204,-0.01803,-7.71791,7.76970,9.28883,0.00000,0.00000,0.00000,0.00000,0.00000,0.00000,-0.99656,-0.99475,-0.99532,-1.70672,-0.85671,0.53579,"[0.000, 1.000, 0.000, 1.000, 0.000, 1.000]",0.000,0.000,1.000,1.000,0.000,0.000,1.000,1.000,0.000,0.000,1.000,1.000
0.4950,0.99650,0.99464,0.99523,1.70348,0.80514,-0.48754,-0.01221,-0.02244,-0.01808,-7.83635,7.88900,9.40683,0.00000,0.00000,0.00000,0.00000,0.00000,0.00000,-0.99650,-0.99464,-0.99523,-1.70348,-0.80514,0.48754,"[0.000, 1.000, 0.000, 1.000, 0.000, 1.000]",0.000,0.000,1.000,1.000,0.000,0.000,1.000,1.000,0.000,0.000,1.000,1.000
0.5000,0.99644,0.99453,0.99514,1.69694,0.75340,-0.44109,-0.01221,-0.02244,-0.01808,-7.83635,7.88900,9.40683,0.00000,0.00000,0.00000,0.00000,0.00000,0.00000,-0.99644,-0.99453,-0.99514,-1.69694,-0.75340,0.44109,"[0.000, 0.000, 0.000, 0.000, 0.000, 0.000]",0.000,0.000,0.000,0.000,0.000,0.000,0.000,0.000,0.000,0.000,0.000,0.000
0.5050,0.99638,0.99442,0.99505,1.68755,0.70192,-0.39630,-0.01221,-0.02244,-0.01808,-7.83635,7.88900,9.40683,0.00000,0.00000,0.00000,0.00000,0.00000,0.00000,-0.99638,-0.99442,-0.99505,-1.68755,-0.70192,0.39630,"[0.000, 0.000, 0.000, 0.000, 0.000, 0.000]",0.000,0.000,0.000,0.000,0.000,0.000,0.000,0.000,0.000,0.000,0.000,0.000
0.5100,0.99632,0.99430,0.99496,1.67566,0.65081,-0.35270,-0.01221,-0.02244,-0.01808,-7.83635,7.88900,9.40683,0.00000,0.00000,0.00000,0.00000,0.00000,0.00000,-0.99632,-0.99430,-0.99496,-1.67566,-0.65081,0.35270,"[0.000, 0.000, 0.000, 0.000, 0.000, 0.000]",0.000,0.000,0.000,0.000,0.000,0.000,0.000,0.000,0.000,0.000,0.000,0.000
0.5150,0.99626,0.99419,0.99487,1.66150,0.60014,-0.30995,-0.01221,-0.02244,-0.01808,-7.83635,7.88900,9.40683,0.00000,0.00000,0.00000,0.00000,0.00000,0.00000,-0.99626,-0.99419,-0.99487,-1.66150,-0.60014,0.30995,"[0.000, 0.000, 0.000, 0.000, 0.000, 0.000]",0.000,0.000,0.000,0.000,0.000,0.000,0.000,0.000,0.000,0.000,0.000,0.000
0.5200,0.99620,0.99408,0.99478,1.64528,0.55001,-0.26773,-0.01221,-0.02244,-0.01808,-7.83635,7.88900,9.40683,0.00000,0.00000,0.00000,0.00000,0.00000,0.00000,-0.99620,-0.99408,-0.99478,-1.64528,-0.55001,0.26773,"[0.000, 0.000, 0.000, 0.000, 0.000, 0.000]",0.000,0.000,0.000,0.000,0.000,0.000,0.000,0.000,0.000,0.000,0.000,0.000
0.5250,0.99614,0.99397,0.99469,1.62712,0.50049,-0.22580,-0.01221,-0.02244,-0.01808,-7.83635,7.88900,9.40683,0.00000,0.00000,0.00000,0.00000,0.00000,0.00000,-0.99614,-0.99397,-0.99469,-1.62712,-0.50049,0.22580,"[0.000, 0.000, 0.000, 0.000, 0.000, 0.000]",0.000,0.000,0.000,0.000,0.000,0.000,0.000,0.000,0.000,0.000,0.000,0.000
0.5300,0.99608,0.99386,0.99460,1.60713,0.45168,-0.18392,-0.01221,-0.02244,-0.01808,-7.83635,7.88900,9.40683,0.00000,0.00000,0.00000,0.00000,0.00000,0.00000,-0.99608,-0.99386,-0.99460,-1.60713,-0.45168,0.18392,"[0.000, 0.000, 0.000, 0.000, 0.000, 0.000]",0.000,0.000,0.000,0.000,0.000,0.000,0.000,0.000,0.000,0.000,0.000,0.000
0.5350,0.99601,0.99374,0.99451,1.58537,0.40365,-0.14191,-0.01221,-0.02244,-0.01808,-7.83635,7.88900,9.40683,0.00000,0.00000,0.00000,0.00000,0.00000,0.00000,-0.99601,-0.99374,-0.99451,-1.58537,-0.40365,0.14191,"[0.000, 0.000, 0.000, 0.000, 0.000, 0.000]",0.000,0.000,0.000,0.000,0.000,0.000,0.000,0.000,0.000,0.000,0.000,0.000
0.5400,0.99595,0.99363,0.99442,1.56188,0.35650,-0.09958,-0.01221,-0.02244,-0.01808,-7.83635,7.88900,9.40683,0.00000,0.00000,0.00000,0.00000,0.00000,0.00000,-0.99595,-0.99363,-0.99442,-1.56188,-0.35650,0.09958,"[0.000, 0.000, 0.000, 0.000, 0.000, 0.000]",0.000,0.000,0.000,0.000,0.000,0.000,0.000,0.000,0.000,0.000,0.000,0.000
0.5450,0.99589,0.99352,0.99433,1.53670,0.31032,-0.05678,-0.01221,-0.02244,-0.01808,-7.83635,7.88900,9.40683,0.00000,0.00000,0.00000,0.00000,0.00000,0.00000,-0.99589,-0.99352,-0.99433,-1.53670,-0.31032,0.05678,"[0.000, 0.000, 0.000, 0.000, 0.000, 0.000]",0.000,0.000,0.000,0.000,0.000,0.000,0.000,0.000,0.000,0.000,0.000,0.000
0.5500,0.99583,0.99341,0.99424,1.50962,0.26493,-0.01304,-0.01253,-0.02269,-0.01823,-7.95475,8.00837,9.52514,0.00000,0.00000,0.00000,0.00000,0.00000,0.00000,-0.99583,-0.99341,-0.99424,-1.50962,-0.26493,0.01304,"[1.000, 0.000, 1.000, 0.000, 0.000, 1.000]",1.000,1.000,0.000,0.000,1.000,1.000,0.000,0.000,0.000,0.000,1.000,1.000
0.5550,0.99577,0.99329,0.99415,1.48039,0.22020,0.03213,-0.01284,-0.02295,-0.01839,-8.07315,8.12775,9.64345,0.00000,0.00000,0.00000,0.00000,0.00000,0.00000,-0.99577,-0.99329,-0.99415,-1.48039,-0.22020,-0.03213,"[1.000, 0.000, 1.000, 0.000, 0.000, 1.000]",1.000,1.000,0.000,0.000,1.000,1.000,0.000,0.000,0.000,0.000,1.000,1.000
0.5600,0.99570,0.99318,0.99405,1.44893,0.17629,0.07888,-0.01312,-0.02323,-0.01856,-8.19155,8.24713,9.76176,0.00000,0.00000,0.00000,0.00000,0.00000,0.00000,-0.99570,-0.99318,-0.99405,-1.44893,-0.17629,-0.07888,"[1.000, 0.000, 1.000, 0.000, 0.000, 1.000]",1.000,1.000,0.000,0.000,1.000,1.000,0.000,0.000,0.000,0.000,1.000,1.000
0.5650,0.99564,0.99306,0.99396,1.41514,0.13340,0.12738,-0.01338,-0.02353,-0.01873,-8.30995,8.36650,9.88008,0.00000,0.00000,0.00000,0.00000,0.00000,0.00000,-0.99564,-0.99306,-0.99396,-1.41514,-0.13340,-0.12738,"[1.000, 0.000, 1.000, 0.000, 0.000, 1.000]",1.000,1.000,0.000,0.000,1.000,1.000,0.000,0.000,0.000,0.000,1.000,1.000
0.5700,0.99557,0.99294,0.99387,1.37895,0.09173,0.17778,-0.01362,-0.02385,-0.01890,-8.42835,8.48588,9.99839,0.00000,0.00000,0.00000,0.00000,0.00000,0.00000,-0.99557,-0.99294,-0.99387,-1.37895,-0.09173,-0.17778,"[1.000, 0.000, 1.000, 0.000, 0.000, 1.000]",1.000,1.000,0.000,0.000,1.000,1.000,0.000,0.000,0.000,0.000,1.000,1.000
0.5750,0.99550,0.99282,0.99377,1.34025,0.05151,0.23023,-0.01383,-0.02418,-0.01908,-8.54675,8.60526,10.11670,0.00000,0.00000,0.00000,0.00000,0.00000,0.00000,-0.99550,-0.99282,-0.99377,-1.34025,-0.05151,-0.23023,"[1.000, 0.000, 1.000, 0.000, 0.000, 1.000]",1.000,1.000,0.000,0.000,1.000,1.000,0.000,0.000,0.000,0.000,1.000,1.000
0.5800,0.99543,0.99270,0.99368,1.29896,0.01299,0.28486,-0.01402,-0.02453,-0.01925,-8.66515,8.72463,10.23501,0.00000,0.00000,0.00000,0.00000,0.00000,0.00000,-0.99543,-0.99270,-0.99368,-1.29896,-0.01299,-0.28486,"[1.000, 0.000, 1.000, 0.000, 0.000, 1.000]",1.000,1.000,0.000,0.000,1.000,1.000,0.000,0.000,0.000,0.000,1.000,1.000
0.5850,0.99536,0.99258,0.99358,1.25502,-0.02357,0.34180,-0.01417,-0.02490,-0.01942,-8.78355,8.84401,10.35332,0.00000,0.00000,0.00000,0.00000,0.00000,0.00000,-0.99536,-0.99258,-0.99358,-1.25502,0.02357,-0.34180,"[1.000, 0.000, 1.000, 0.000, 0.000, 1.000]",1.000,1.000,0.000,0.000,1.000,1.000,0.000,0.000,0.000,0.000,1.000,1.000
0.5900,0.99529,0.99245,0.99348,1.20838,-0.05786,0.40114,-0.01430,-0.02528,-0.01959,-8.90195,8.96339,10.47163,0.00000,0.00000,0.00000,0.00000,0.00000,0.00000,-0.99529,-0.99245,-0.99348,-1.20838,0.05786,-0.40114,"[1.000, 0.000, 1.000, 0.000, 0.000, 1.000]",1.000,1.000,0.000,0.000,1.000,1.000,0.000,0.000,0.000,0.000,1.000,1.000
0.5950,0.99522,0.99232,0.99338,1.15900,-0.08960,0.46295,-0.01439,-0.02567,-0.01975,-9.02035,9.08276,10.58994,0.00000,0.00000,0.00000,0.00000,0.00000,0.00000,-0.99522,-0.99232,-0.99338,-1.15900,0.08960,-0.46295,"[1.000, 0.000, 1.000, 0.000, 0.000, 1.000]",1.000,1.000,0.000,0.000,1.000,1.000,0.000,0.000,0.000,0.000,1.000,1.000
0.6000,0.99514,0.99219,0.99328,1.10724,-0.11831,0.52687,-0.01439,-0.02567,-0.01975,-9.02035,9.08276,10.58994,0.00000,0.00000,0.00000,0.00000,0.00000,0.00000,-0.99514,-0.99219,-0.99328,-1.10724,0.11831,-0.52687,"[0.000, 0.000, 0.000, 0.000, 0.000, 0.000]",0.000,0.000,0.000,0.000,0.000,0.000,0.000,0.000,0.000,0.000,0.000,0.000
0.6050,0.99507,0.99207,0.99319,1.05356,-0.14364,0.59242,-0.01439,-0.02567,-0.01975,-9.02035,9.08276,10.58994,0.00000,0.00000,0.00000,0.00000,0.00000,0.00000,-0.99507,-0.99207,-0.99319,-1.05356,0.14364,-0.59242,"[0.000, 0.000, 0.000, 0.000, 0.000, 0.000]",0.000,0.000,0.000,0.000,0.000,0.000,0.000,0.000,0.000,0.000,0.000,0.000
0.6100,0.99500,0.99194,0.99309,0.99811,-0.16539,0.65950,-0.01439,-0.02567,-0.01975,-9.02035,9.08276,10.58994,0.00000,0.00000,0.00000,0.00000,0.00000,0.00000,-0.99500,-0.99194,-0.99309,-0.99811,0.16539,-0.65950,"[0.000, 0.000, 0.000, 0.000, 0.000, 0.000]",0.000,0.000,0.000,0.000,0.000,0.000,0.000,0.000,0.000,0.000,0.000,0.000
0.6150,0.99493,0.99181,0.99299,0.94111,-0.18337,0.72793,-0.01439,-0.02567,-0.01975,-9.02035,9.08276,10.58994,0.00000,0.00000,0.00000,0.00000,0.00000,0.00000,-0.99493,-0.99181,-0.99299,-0.94111,0.18337,-0.72793,"[0.000, 0.000, 0.000, 0.000, 0.000, 0.000]",0.000,0.000,0.000,0.000,0.000,0.000,0.000,0.000,0.000,0.000,0.000,0.000
0.6200,0.99486,0.99168,0.99289,0.88282,-0.19744,0.79751,-0.01439,-0.02567,-0.01975,-9.02035,9.08276,10.58994,0.00000,0.00000,0.00000,0.00000,0.00000,0.00000,-0.99486,-0.99168,-0.99289,-0.88282,0.19744,-0.79751,"[0.000, 0.000, 0.000, 0.000, 0.000, 0.000]",0.000,0.000,0.000,0.000,0.000,0.000,0.000,0.000,0.000,0.000,0.000,0.000
0.6250,0.99478,0.99155,0.99279,0.82352,-0.20747,0.86797,-0.01439,-0.02567,-0.01975,-9.02035,9.08276,10.58994,0.00000,0.00000,0.00000,0.00000,0.00000,0.00000,-0.99478,-0.99155,-0.99279,-0.82352,0.20747,-0.86797,"[0.000, 0.000, 0.000, 0.000, 0.000, 0.000]",0.000,0.000,0.000,0.000,0.000,0.000,0.000,0.000,0.000,0.000,0.000,0.000
0.6300,0.99471,0.99142,0.99269,0.76355,-0.21337,0.93904,-0.01439,-0.02567,-0.01975,-9.02035,9.08276,10.58994,0.00000,0.00000,0.00000,0.00000,0.00000,0.00000,-0.99471,-0.99142,-0.99269,-0.76355,0.21337,-0.93904,"[0.000, 0.000, 0.000, 0.000, 0.000, 0.000]",0.000,0.000,0.000,0.000,0.000,0.000,0.000,0.000,0.000,0.000,0.000,0.000
0.6350,0.99464,0.99130,0.99259,0.70325,-0.21507,1.01040,-0.01439,-0.02567,-0.01975,-9.02035,9.08276,10.58994,0.00000,0.00000,0.00000,0.00000,0.00000,0.00000,-0.99464,-0.99130,-0.99259,-0.70325,0.21507,-1.01040,"[0.000, 0.000, 0.000, 0.000, 0.000, 0.000]",0.000,0.000,0.000,0.000,0.000,0.000,0.000,0.000,0.000,0.000,0.000,0.000
0.6400,0.99457,0.99117,0.99249,0.64299,-0.21258,1.08174,-0.01439,-0.02567,-0.01975,-9.02035,9.08276,10.58994,0.00000,0.00000,0.00000,0.00000,0.00000,0.00000,-0.99457,-0.99117,-0.99249,-0.64299,0.21258,-1.08174,"[0.000, 0.000, 0.000, 0.000, 0.000, 0.000]",0.000,0.000,0.000,0.000,0.000,0.000,0.000,0.000,0.000,0.000,0.000,0.000
0.6450,0.99450,0.99104,0.99240,0.58312,-0.20590,1.15272,-0.01439,-0.02567,-0.01975,-9.02035,9.08276,10.58994,0.00000,0.00000,0.00000,0.00000,0.00000,0.00000,-0.99450,-0.99104,-0.99240,-0.58312,0.20590,-1.15272,"[0.000, 0.000, 0.000, 0.000, 0.000, 0.000]",0.000,0.000,0.000,0.000,0.000,0.000,0.000,0.000,0.000,0.000,0.000,0.000
0.6500,0.99442,0.99091,0.99230,0.52362,-0.19499,1.22345,-0.01480,-0.02574,-0.01987,-9.13850,9.20213,10.70836,0.00000,0.00000,0.00000,0.00000,0.00000,0.00000,-0.99442,-0.99091,-0.99230,-0.52362,0.19499,-1.22345,"[1.000, 0.000, 0.000, 1.000, 1.000, 0.000]",1.000,1.000,0.000,0.000,0.000,0.000,1.000,1.000,1.000,1.000,0.000,0.000
0.6550,0.99435,0.99078,0.99220,0.46446,-0.17974,1.29404,-0.01520,-0.02584,-0.02001,-9.25665,9.32150,10.82677,0.00000,0.00000,0.00000,0.00000,0.00000,0.00000,-0.99435,-0.99078,-0.99220,-0.46446,0.17974,-1.29404,"[1.000, 0.000, 0.000, 1.000, 1.000, 0.000]",1.000,1.000,0.000,0.000,0.000,0.000,1.000,1.000,1.000,1.000,0.000,0.000
0.6600,0.99427,0.99065,0.99210,0.40599,-0.16015,1.36417,-0.01559,-0.02596,-0.02016,-9.37479,9.44087,10.94519,0.00000,0.00000,0.00000,0.00000,0.00000,0.00000,-0.99427,-0.99065,-0.99210,-0.40599,0.16015,-1.36417,"[1.000, 0.000, 0.000, 1.000, 1.000, 0.000]",1.000,1.000,0.000,0.000,0.000,0.000,1.000,1.000,1.000,1.000,0.000,0.000
0.6650,0.99419,0.99052,0.99200,0.34855,-0.13625,1.43358,-0.01596,-0.02612,-0.02033,-9.49294,9.56024,11.06361,0.00000,0.00000,0.00000,0.00000,0.00000,0.00000,-0.99419,-0.99052,-0.99200,-0.34855,0.13625,-1.43358,"[1.000, 0.000, 0.000, 1.000, 1.000, 0.000]",1.000,1.000,0.000,0.000,0.000,0.000,1.000,1.000,1.000,1.000,0.000,0.000
0.6700,0.99411,0.99039,0.99189,0.29242,-0.10811,1.50201,-0.01630,-0.02630,-0.02051,-9.61109,9.67960,11.18202,0.00000,0.00000,0.00000,0.00000,0.00000,0.00000,-0.99411,-0.99039,-0.99189,-0.29242,0.10811,-1.50201,"[1.000, 0.000, 0.000, 1.000, 1.000, 0.000]",1.000,1.000,0.000,0.000,0.000,0.000,1.000,1.000,1.000,1.000,0.000,0.000
0.6750,0.99403,0.99026,0.99179,0.23786,-0.07583,1.56929,-0.01663,-0.02651,-0.02070,-9.72923,9.79897,11.30044,0.00000,0.00000,0.00000,0.00000,0.00000,0.00000,-0.99403,-0.99026,-0.99179,-0.23786,0.07583,-1.56929,"[1.000, 0.000, 0.000, 1.000, 1.000, 0.000]",1.000,1.000,0.000,0.000,0.000,0.000,1.000,1.000,1.000,1.000,0.000,0.000
0.6800,0.99395,0.99013,0.99169,0.18509,-0.03955,1.63527,-0.01693,-0.02674,-0.02091,-9.84738,9.91834,11.41885,0.00000,0.00000,0.00000,0.00000,0.00000,0.00000,-0.99395,-0.99013,-0.99169,-0.18509,0.03955,-1.63527,"[1.000, 0.000, 0.000, 1.000, 1.000, 0.000]",1.000,1.000,0.000,0.000,0.000,0.000,1.000,1.000,1.000,1.000,0.000,0.000
0.6850,0.99386,0.98999,0.99158,0.13428,0.00059,1.69987,-0.01721,-0.02700,-0.02112,-9.96553,10.03771,11.53727,0.00000,0.00000,0.00000,0.00000,0.00000,0.00000,-0.99386,-0.98999,-0.99158,-0.13428,-0.00059,-1.69987,"[1.000, 0.000, 0.000, 1.000, 1.000, 0.000]",1.000,1.000,0.000,0.000,0.000,0.000,1.000,1.000,1.000,1.000,0.000,0.000
0.6900,0.99377,0.98986,0.99148,0.08555,0.04442,1.76304,-0.01745,-0.02729,-0.02133,-10.08367,10.15708,11.65569,0.00000,0.00000,0.00000,0.00000,0.00000,0.00000,-0.99377,-0.98986,-0.99148,-0.08555,-0.04442,-1.76304,"[1.000, 0.000, 0.000, 1.000, 1.000, 0.000]",1.000,1.000,0.000,0.000,0.000,0.000,1.000,1.000,1.000,1.000,0.000,0.000
0.6950,0.99369,0.98972,0.99137,0.03902,0.09177,1.82481,-0.01767,-0.02759,-0.02155,-10.20182,10.27644,11.77410,0.00000,0.00000,0.00000,0.00000,0.00000,0.00000,-0.99369,-0.98972,-0.99137,-0.03902,-0.09177,-1.82481,"[1.000, 0.000, 0.000, 1.000, 1.000, 0.000]",1.000,1.000,0.000,0.000,0.000,0.000,1.000,1.000,1.000,1.000,0.000,0.000
0.7000,0.99360,0.98958,0.99126,-0.00500,0.14215,1.88495,-0.01767,-0.02759,-0.02155,-10.20182,10.27644,11.77410,0.00000,0.00000,0.00000,0.00000,0.00000,0.00000,-0.99360,-0.98958,-0.99126,0.00500,-0.14215,-1.88495,"[0.000, 0.000, 0.000, 0.000, 0.000, 0.000]",0.000,0.000,0.000,0.000,0.000,0.000,0.000,0.000,0.000,0.000,0.000,0.000
0.7050,0.99351,0.98944,0.99115,-0.04623,0.19503,1.94330,-0.01767,-0.02759,-0.02155,-10.20182,10.27644,11.77410,0.00000,0.00000,0.00000,0.00000,0.00000,0.00000,-0.99351,-0.98944,-0.99115,0.04623,-0.19503,-1.94330,"[0.000, 0.000, 0.000, 0.000, 0.000, 0.000]",0.000,0.000,0.000,0.000,0.000,0.000,0.000,0.000,0.000,0.000,0.000,0.000
0.7100,0.99342,0.98930,0.99104,-0.08473,0.25017,2.00007,-0.01767,-0.02759,-0.02155,-10.20182,10.27644,11.77410,0.00000,0.00000,0.00000,0.00000,0.00000,0.00000,-0.99342,-0.98930,-0.99104,0.08473,-0.25017,-2.00007,"[0.000, 0.000, 0.000, 0.000, 0.000, 0.000]",0.000,0.000,0.000,0.000,0.000,0.000,0.000,0.000,0.000,0.000,0.000,0.000
0.7150,0.99333,0.98917,0.99094,-0.12050,0.30732,2.05549,-0.01767,-0.02759,-0.02155,-10.20182,10.27644,11.77410,0.00000,0.00000,0.00000,0.00000,0.00000,0.00000,-0.99333,-0.98917,-0.99094,0.12050,-0.30732,-2.05549,"[0.000, 0.000, 0.000, 0.000, 0.000, 0.000]",0.000,0.000,0.000,0.000,0.000,0.000,0.000,0.000,0.000,0.000,0.000,0.000
0.7200,0.99324,0.98903,0.99083,-0.15357,0.36627,2.10983,-0.01767,-0.02759,-0.02155,-10.20182,10.27644,11.77410,0.00000,0.00000,0.00000,0.00000,0.00000,0.00000,-0.99324,-0.98903,-0.99083,0.15357,-0.36627,-2.10983,"[0.000, 0.000, 0.000, 0.000, 0.000, 0.000]",0.000,0.000,0.000,0.000,0.000,0.000,0.000,0.000,0.000,0.000,0.000,0.000
0.7250,0.99316,0.98889,0.99072,-0.18391,0.42682,2.16338,-0.01767,-0.02759,-0.02155,-10.20182,10.27644,11.77410,0.00000,0.00000,0.00000,0.00000,0.00000,0.00000,-0.99316,-0.98889,-0.99072,0.18391,-0.42682,-2.16338,"[0.000, 0.000, 0.000, 0.000, 0.000, 0.000]",0.000,0.000,0.000,0.000,0.000,0.000,0.000,0.000,0.000,0.000,0.000,0.000
0.7300,0.99307,0.98875,0.99061,-0.21146,0.48877,2.21647,-0.01767,-0.02759,-0.02155,-10.20182,10.27644,11.77410,0.00000,0.00000,0.00000,0.00000,0.00000,0.00000,-0.99307,-0.98875,-0.99061,0.21146,-0.48877,-2.21647,"[0.000, 0.000, 0.000, 0.000, 0.000, 0.000]",0.000,0.000,0.000,0.000,0.000,0.000,0.000,0.000,0.000,0.000,0.000,0.000
0.7350,0.99298,0.98862,0.99051,-0.23613,0.55195,2.26947,-0.01767,-0.02759,-0.02155,-10.20182,10.27644,11.77410,0.00000,0.00000,0.00000,0.00000,0.00000,0.00000,-0.99298,-0.98862,-0.99051,0.23613,-0.55195,-2.26947,"[0.000, 0.000, 0.000, 0.000, 0.000, 0.000]",0.000,0.000,0.000,0.000,0.000,0.000,0.000,0.000,0.000,0.000,0.000,0.000
0.7400,0.99289,0.98848,0.99040,-0.25772,0.61617,2.32283,-0.01767,-0.02759,-0.02155,-10.20182,10.27644,11.77410,0.00000,0.00000,0.00000,0.00000,0.00000,0.00000,-0.99289,-0.98848,-0.99040,0.25772,-0.61617,-2.32283,"[0.000, 0.000, 0.000, 0.000, 0.000, 0.000]",0.000,0.000,0.000,0.000,0.000,0.000,0.000,0.000,0.000,0.000,0.000,0.000
0.7450,0.99280,0.98834,0.99029,-0.27596,0.68127,2.37708,-0.01767,-0.02759,-0.02155,-10.20182,10.27644,11.77410,0.00000,0.00000,0.00000,0.00000,0.00000,0.00000,-0.99280,-0.98834,-0.99029,0.27596,-0.68127,-2.37708,"[0.000, 0.000, 0.000, 0.000, 0.000, 0.000]",0.000,0.000,0.000,0.000,0.000,0.000,0.000,0.000,0.000,0.000,0.000,0.000
0.7500,0.99271,0.98820,0.99018,-0.29053,0.74744,2.43314,-0.01779,-0.02772,-0.02194,-10.31881,10.39577,11.89304,0.00000,0.00000,0.00000,0.00000,0.00000,0.00000,-0.99271,-0.98820,-0.99018,0.29053,-0.74744,-2.43314,"[0.000, 1.000, 0.000, 1.000, 1.000, 0.000]",0.000,0.000,1.000,1.000,0.000,0.000,1.000,1.000,1.000,1.000,0.000,0.000
0.7550,0.99262,0.98806,0.99007,-0.30084,0.81488,2.49218,-0.01788,-0.02786,-0.02234,-10.43581,10.51509,12.01197,0.00000,0.00000,0.00000,0.00000,0.00000,0.00000,-0.99262,-0.98806,-0.99007,0.30084,-0.81488,-2.49218,"[0.000, 1.000, 0.000, 1.000, 1.000, 0.000]",0.000,0.000,1.000,1.000,0.000,0.000,1.000,1.000,1.000,1.000,0.000,0.000
0.7600,0.99254,0.98792,0.98996,-0.30581,0.88339,2.55546,-0.01793,-0.02803,-0.02274,-10.55280,10.63441,12.13091,0.00000,0.00000,0.00000,0.00000,0.00000,0.00000,-0.99254,-0.98792,-0.98996,0.30581,-0.88339,-2.55546,"[0.000, 1.000, 0.000, 1.000, 1.000, 0.000]",0.000,0.000,1.000,1.000,0.000,0.000,1.000,1.000,1.000,1.000,0.000,0.000
0.7650,0.99245,0.98778,0.98984,-0.30381,0.95272,2.62475,-0.01795,-0.02821,-0.02313,-10.66979,10.75373,12.24985,0.00000,0.00000,0.00000,0.00000,0.00000,0.00000,-0.99245,-0.98778,-0.98984,0.30381,-0.95272,-2.62475,"[0.000, 1.000, 0.000, 1.000, 1.000, 0.000]",0.000,0.000,1.000,1.000,0.000,0.000,1.000,1.000,1.000,1.000,0.000,0.000
0.7700,0.99236,0.98764,0.98973,-0.29233,1.02251,2.70274,-0.01794,-0.02841,-0.02352,-10.78679,10.87305,12.36878,0.00000,0.00000,0.00000,0.00000,0.00000,0.00000,-0.99236,-0.98764,-0.98973,0.29233,-1.02251,-2.70274,"[0.000, 1.000, 0.000, 1.000, 1.000, 0.000]",0.000,0.000,1.000,1.000,0.000,0.000,1.000,1.000,1.000,1.000,0.000,0.000
0.7750,0.99227,0.98750,0.98961,-0.26739,1.09227,2.79359,-0.01789,-0.02862,-0.02389,-10.90378,10.99237,12.48772,0.00000,0.00000,0.00000,0.00000,0.00000,0.00000,-0.99227,-0.98750,-0.98961,0.26739,-1.09227,-2.79359,"[0.000, 1.000, 0.000, 1.000, 1.000, 0.000]",0.000,0.000,1.000,1.000,0.000,0.000,1.000,1.000,1.000,1.000,0.000,0.000
0.7800,0.99218,0.98735,0.98949,-0.22237,1.16118,2.90409,-0.01780,-0.02883,-0.02426,-11.02077,11.11169,12.60665,0.00000,0.00000,0.00000,0.00000,0.00000,0.00000,-0.99218,-0.98735,-0.98949,0.22237,-1.16118,-2.90409,"[0.000, 1.000, 0.000, 1.000, 1.000, 0.000]",0.000,0.000,1.000,1.000,0.000,0.000,1.000,1.000,1.000,1.000,0.000,0.000
0.7850,0.99209,0.98721,0.98937,-0.14596,1.22784,3.04574,-0.01767,-0.02906,-0.02460,-11.13777,11.23102,12.72559,0.00000,0.00000,0.00000,0.00000,0.00000,0.00000,-0.99209,-0.98721,-0.98937,0.14596,-1.22784,-3.04574,"[0.000, 1.000, 0.000, 1.000, 1.000, 0.000]",0.000,0.000,1.000,1.000,0.000,0.000,1.000,1.000,1.000,1.000,0.000,0.000
0.7900,0.99200,0.98706,0.98924,-0.01852,1.28962,-3.04483,-0.01751,-0.02929,-0.02493,-11.25476,11.35034,12.84453,0.00000,0.00000,0.00000,0.00000,0.00000,0.00000,-0.99200,-0.98706,-0.98924,0.01852,-1.28962,3.04483,"[0.000, 1.000, 0.000, 1.000, 1.000, 0.000]",0.000,0.000,1.000,1.000,0.000,0.000,1.000,1.000,1.000,1.000,0.000,0.000
0.7950,0.99191,0.98692,0.98912,0.19090,1.34138,-2.77009,-0.01731,-0.02951,-0.02525,-11.37175,11.46966,12.96346,0.00000,0.00000,0.00000,0.00000,0.00000,0.00000,-0.99191,-0.98692,-0.98912,-0.19090,-1.34138,2.77009,"[0.000, 1.000, 0.000, 1.000, 1.000, 0.000]",0.000,0.000,1.000,1.000,0.000,0.000,1.000,1.000,1.000,1.000,0.000,0.000
0.8000,0.99183,0.98677,0.98899,0.50823,1.37364,-2.38745,-0.01731,-0.02951,-0.02525,-11.37175,11.46966,12.96346,0.00000,0.00000,0.00000,0.00000,0.00000,0.00000,-0.99183,-0.98677,-0.98899,-0.50823,-1.37364,2.38745,"[0.000, 0.000, 0.000, 0.000, 0.000, 0.000]",0.000,0.000,0.000,0.000,0.000,0.000,0.000,0.000,0.000,0.000,0.000,0.000
0.8050,0.99174,0.98662,0.98886,0.89070,1.37584,-1.93979,-0.01731,-0.02951,-0.02525,-11.37175,11.46966,12.96346,0.00000,0.00000,0.00000,0.00000,0.00000,0.00000,-0.99174,-0.98662,-0.98886,-0.89070,-1.37584,1.93979,"[0.000, 0.000, 0.000, 0.000, 0.000, 0.000]",0.000,0.000,0.000,0.000,0.000,0.000,0.000,0.000,0.000,0.000,0.000,0.000
0.8100,0.99165,0.98647,0.98874,1.22159,1.34710,-1.54361,-0.01731,-0.02951,-0.02525,-11.37175,11.46966,12.96346,0.00000,0.00000,0.00000,0.00000,0.00000,0.00000,-0.99165,-0.98647,-0.98874,-1.22159,-1.34710,1.54361,"[0.000, 0.000, 0.000, 0.000, 0.000, 0.000]",0.000,0.000,0.000,0.000,0.000,0.000,0.000,0.000,0.000,0.000,0.000,0.000
0.8150,0.99157,0.98633,0.98861,1.44525,1.29708,-1.25437,-0.01731,-0.02951,-0.02525,-11.37175,11.46966,12.96346,0.00000,0.00000,0.00000,0.00000,0.00000,0.00000,-0.99157,-0.98633,-0.98861,-1.44525,-1.29708,1.25437,"[0.000, 0.000, 0.000, 0.000, 0.000, 0.000]",0.000,0.000,0.000,0.000,0.000,0.000,0.000,0.000,0.000,0.000,0.000,0.000
0.8200,0.99148,0.98618,0.98849,1.58260,1.23533,-1.05091,-0.01731,-0.02951,-0.02525,-11.37175,11.46966,12.96346,0.00000,0.00000,0.00000,0.00000,0.00000,0.00000,-0.99148,-0.98618,-0.98849,-1.58260,-1.23533,1.05091,"[0.000, 0.000, 0.000, 0.000, 0.000, 0.000]",0.000,0.000,0.000,0.000,0.000,0.000,0.000,0.000,0.000,0.000,0.000,0.000
0.8250,0.99139,0.98603,0.98836,1.66492,1.16739,-0.90174,-0.01731,-0.02951,-0.02525,-11.37175,11.46966,12.96346,0.00000,0.00000,0.00000,0.00000,0.00000,0.00000,-0.99139,-0.98603,-0.98836,-1.66492,-1.16739,0.90174,"[0.000, 0.000, 0.000, 0.000, 0.000, 0.000]",0.000,0.000,0.000,0.000,0.000,0.000,0.000,0.000,0.000,0.000,0.000,0.000
0.8300,0.99131,0.98588,0.98823,1.71312,1.09616,-0.78574,-0.01731,-0.02951,-0.02525,-11.37175,11.46966,12.96346,0.00000,0.00000,0.00000,0.00000,0.00000,0.00000,-0.99131,-0.98588,-0.98823,-1.71312,-1.09616,0.78574,"[0.000, 0.000, 0.000, 0.000, 0.000, 0.000]",0.000,0.000,0.000,0.000,0.000,0.000,0.000,0.000,0.000,0.000,0.000,0.000
0.8350,0.99122,0.98574,0.98811,1.73941,1.02318,-0.69044,-0.01731,-0.02951,-0.02525,-11.37175,11.46966,12.96346,0.00000,0.00000,0.00000,0.00000,0.00000,0.00000,-0.99122,-0.98574,-0.98811,-1.73941,-1.02318,0.69044,"[0.000, 0.000, 0.000, 0.000, 0.000, 0.000]",0.000,0.000,0.000,0.000,0.000,0.000,0.000,0.000,0.000,0.000,0.000,0.000
0.8400,0.99113,0.98559,0.98798,1.75093,0.94935,-0.60848,-0.01731,-0.02951,-0.02525,-11.37175,11.46966,12.96346,0.00000,0.00000,0.00000,0.00000,0.00000,0.00000,-0.99113,-0.98559,-0.98798,-1.75093,-0.94935,0.60848,"[0.000, 0.000, 0.000, 0.000, 0.000, 0.000]",0.000,0.000,0.000,0.000,0.000,0.000,0.000,0.000,0.000,0.000,0.000,0.000
0.8450,0.99105,0.98544,0.98785,1.75194,0.87525,-0.53533,-0.01731,-0.02951,-0.02525,-11.37175,11.46966,12.96346,0.00000,0.00000,0.00000,0.00000,0.00000,0.00000,-0.99105,-0.98544,-0.98785,-1.75194,-0.87525,0.53533,"[0.000, 0.000, 0.000, 0.000, 0.000, 0.000]",0.000,0.000,0.000,0.000,0.000,0.000,0.000,0.000,0.000,0.000,0.000,0.000
0.8500,0.99096,0.98529,0.98773,1.74508,0.80129,-0.46808,-0.01731,-0.02951,-0.02525,-11.37175,11.46966,12.96346,0.00000,0.00000,0.00000,0.00000,0.00000,0.00000,-0.99096,-0.98529,-0.98773,-1.74508,-0.80129,0.46808,"[0.000, 0.000, 0.000, 0.000, 0.000, 0.000]",0.000,0.000,0.000,0.000,0.000,0.000,0.000,0.000,0.000,0.000,0.000,0.000
0.8550,0.99087,0.98515,0.98760,1.73207,0.72778,-0.40475,-0.01731,-0.02951,-0.02525,-11.37175,11.46966,12.96346,0.00000,0.00000,0.00000,0.00000,0.00000,0.00000,-0.99087,-0.98515,-0.98760,-1.73207,-0.72778,0.40475,"[0.000, 0.000, 0.000, 0.000, 0.000, 0.000]",0.000,0.000,0.000,0.000,0.000,0.000,0.000,0.000,0.000,0.000,0.000,0.000
0.8600,0.99079,0.98500,0.98748,1.71398,0.65500,-0.34394,-0.01731,-0.02951,-0.02525,-11.37175,11.46966,12.96346,0.00000,0.00000,0.00000,0.00000,0.00000,0.00000,-0.99079,-0.98500,-0.98748,-1.71398,-0.65500,0.34394,"[0.000, 0.000, 0.000, 0.000, 0.000, 0.000]",0.000,0.000,0.000,0.000,0.000,0.000,0.000,0.000,0.000,0.000,0.000,0.000
0.8650,0.99070,0.98485,0.98735,1.69153,0.58319,-0.28462,-0.01731,-0.02951,-0.02525,-11.37175,11.46966,12.96346,0.00000,0.00000,0.00000,0.00000,0.00000,0.00000,-0.99070,-0.98485,-0.98735,-1.69153,-0.58319,0.28462,"[0.000, 0.000, 0.000, 0.000, 0.000, 0.000]",0.000,0.000,0.000,0.000,0.000,0.000,0.000,0.000,0.000,0.000,0.000,0.000
0.8700,0.99061,0.98470,0.98722,1.66520,0.51258,-0.22600,-0.01731,-0.02951,-0.02525,-11.37175,11.46966,12.96346,0.00000,0.00000,0.00000,0.00000,0.00000,0.00000,-0.99061,-0.98470,-0.98722,-1.66520,-0.51258,0.22600,"[0.000, 0.000, 0.000, 0.000, 0.000, 0.000]",0.000,0.000,0.000,0.000,0.000,0.000,0.000,0.000,0.000,0.000,0.000,0.000
0.8750,0.99053,0.98456,0.98710,1.63527,0.44340,-0.16743,-0.01731,-0.02951,-0.02525,-11.37175,11.46966,12.96346,0.00000,0.00000,0.00000,0.00000,0.00000,0.00000,-0.99053,-0.98456,-0.98710,-1.63527,-0.44340,0.16743,"[0.000, 0.000, 0.000, 0.000, 0.000, 0.000]",0.000,0.000,0.000,0.000,0.000,0.000,0.000,0.000,0.000,0.000,0.000,0.000
0.8800,0.99044,0.98441,0.98697,1.60192,0.37590,-0.10837,-0.01731,-0.02951,-0.02525,-11.37175,11.46966,12.96346,0.00000,0.00000,0.00000,0.00000,0.00000,0.00000,-0.99044,-0.98441,-0.98697,-1.60192,-0.37590,0.10837,"[0.000, 0.000, 0.000, 0.000, 0.000, 0.000]",0.000,0.000,0.000,0.000,0.000,0.000,0.000,0.000,0.000,0.000,0.000,0.000
0.8850,0.99036,0.98426,0.98684,1.56522,0.31035,-0.04838,-0.01731,-0.02951,-0.02525,-11.37175,11.46966,12.96346,0.00000,0.00000,0.00000,0.00000,0.00000,0.00000,-0.99036,-0.98426,-0.98684,-1.56522,-0.31035,0.04838,"[0.000, 0.000, 0.000, 0.000, 0.000, 0.000]",0.000,0.000,0.000,0.000,0.000,0.000,0.000,0.000,0.000,0.000,0.000,0.000
0.8900,0.99027,0.98411,0.98672,1.52521,0.24701,0.01296,-0.01731,-0.02951,-0.02525,-11.37175,11.46966,12.96346,0.00000,0.00000,0.00000,0.00000,0.00000,0.00000,-0.99027,-0.98411,-0.98672,-1.52521,-0.24701,-0.01296,"[0.000, 0.000, 0.000, 0.000, 0.000, 0.000]",0.000,0.000,0.000,0.000,0.000,0.000,0.000,0.000,0.000,0.000,0.000,0.000
0.8950,0.99018,0.98396,0.98659,1.48188,0.18618,0.07599,-0.01731,-0.02951,-0.02525,-11.37175,11.46966,12.96346,0.00000,0.00000,0.00000,0.00000,0.00000,0.00000,-0.99018,-0.98396,-0.98659,-1.48188,-0.18618,-0.07599,"[0.000, 0.000, 0.000, 0.000, 0.000, 0.000]",0.000,0.000,0.000,0.000,0.000,0.000,0.000,0.000,0.000,0.000,0.000,0.000
0.9000,0.99010,0.98382,0.98647,1.43517,0.12818,0.14102,-0.01731,-0.02951,-0.02525,-11.37175,11.46966,12.96346,0.00000,0.00000,0.00000,0.00000,0.00000,0.00000,-0.99010,-0.98382,-0.98647,-1.43517,-0.12818,-0.14102,"[0.000, 0.000, 0.000, 0.000, 0.000, 0.000]",0.000,0.000,0.000,0.000,0.000,0.000,0.000,0.000,0.000,0.000,0.000,0.000
0.9050,0.99001,0.98367,0.98634,1.38505,0.07336,0.20833,-0.01731,-0.02951,-0.02525,-11.37175,11.46966,12.96346,0.00000,0.00000,0.00000,0.00000,0.00000,0.00000,-0.99001,-0.98367,-0.98634,-1.38505,-0.07336,-0.20833,"[0.000, 0.000, 0.000, 0.000, 0.000, 0.000]",0.000,0.000,0.000,0.000,0.000,0.000,0.000,0.000,0.000,0.000,0.000,0.000
