Step,MPC_Start_Time,Control_Time,Actual_Time_Interval,CONTROL_DT,Mission_Phase,Waypoint_Number,Telemetry_X_mm,Telemetry_Y_mm,Telemetry_Z_mm,Telemetry_Roll_deg,Telemetry_Pitch_deg,Telemetry_Yaw_deg,Current_X,Current_Y,Current_Z,Current_Roll,Current_Pitch,Current_Yaw,Current_VX,Current_VY,Current_VZ,Current_WX,Current_WY,Current_WZ,Target_X,Target_Y,Target_Z,Target_Roll,Target_Pitch,Target_Yaw,Target_VX,Target_VY,Target_VZ,Target_WX,Target_WY,Target_WZ,Error_X,Error_Y,Error_Z,Error_Roll,Error_Pitch,Error_Yaw,Error_VX,Error_VY,Error_VZ,Error_WX,Error_WY,Error_WZ,MPC_Computation_Time,MPC_Status,MPC_Solver,MPC_Solver_Time_Limit,MPC_Solve_Time,MPC_Time_Limit_Exceeded,MPC_Fallback_Used,MPC_Objective,MPC_Iterations,MPC_Optimality_Gap,Command_Vector,Command_Hex,Command_Sent_Time,Total_Active_Thrusters,Thruster_Switches,RW_Torque_X,RW_Torque_Y,RW_Torque_Z,Total_MPC_Loop_Time,Timing_Violation
0,0.0450,0.0450,0.0500,0.050,APPROACHING,0,1000.00,1000.00,1000.00,0.00,0.00,90.00,1.00000,1.00000,1.00000,0.00000,0.00000,1.57080,0.00000,0.00000,0.00000,0.00000,0.00000,0.00000,0.00000,0.00000,0.00000,0.00000,0.00000,0.00000,0.00000,0.00000,0.00000,0.00000,0.00000,0.00000,1.00000,1.00000,1.00000,0.00000,0.00000,-1.57080,0.00000,0.00000,0.00000,0.00000,0.00000,0.00000,0.0000,,,,0.0422,,,,,,"[0.000, 0.000, 0.000, 0.000, 0.000, 0.000]",0x000000,0.0450,0,0,0.000000,0.000000,0.000000,0.0000,NO
1,0.0950,0.0950,0.0500,0.050,APPROACHING,0,1000.00,1000.00,1000.00,0.00,0.00,90.00,1.00000,1.00000,1.00000,0.00000,0.00000,1.57080,0.00000,0.00000,0.00000,0.00000,0.00000,0.00000,0.00000,0.00000,0.00000,0.00000,0.00000,0.00000,0.00000,0.00000,0.00000,0.00000,0.00000,0.00000,1.00000,1.00000,1.00000,0.00000,0.00000,-1.57080,0.00000,0.00000,0.00000,0.00000,0.00000,0.00000,0.0000,,,,0.0422,,,,,,"[0.000, 0.000, 0.000, 0.000, 0.000, 0.000]",0x000000,0.0950,0,0,0.000000,0.000000,0.000000,0.0000,NO
2,0.1450,0.1450,0.0500,0.050,APPROACHING,0,1000.00,1000.00,1000.00,0.00,0.00,90.00,1.00000,1.00000,1.00000,0.00000,0.00000,1.57080,0.00000,0.00000,0.00000,0.00000,0.00000,0.00000,0.00000,0.00000,0.00000,0.00000,0.00000,0.00000,0.00000,0.00000,0.00000,0.00000,0.00000,0.00000,1.00000,1.00000,1.00000,0.00000,0.00000,-1.57080,0.00000,0.00000,0.00000,0.00000,0.00000,0.00000,0.0000,,,,0.0196,,,,,,"[1.000, 0.000, 0.000, 0.000, 1.000, 0.000]",0x100010,0.1450,2,2,0.079822,-0.079822,-0.452123,0.0000,NO
3,0.1950,0.1950,0.0500,0.050,APPROACHING,0,1000.00,999.94,999.94,0.07,-0.07,89.61,1.00000,0.99994,0.99994,0.00119,-0.00118,1.56408,-0.00001,-0.00250,-0.00250,0.04746,-0.04746,-0.26880,0.00000,0.00000,0.00000,0.00000,0.00000,0.00000,0.00000,0.00000,0.00000,0.00000,0.00000,0.00000,1.00000,0.99994,0.99994,-0.00119,0.00118,-1.56408,0.00001,0.00250,0.00250,-0.04746,0.04746,0.26880,0.0000,,,,0.0361,,,,,,"[0.998, 0.000, 0.000, 0.000, 0.998, 0.000]",0x100010,0.1950,2,0,-0.063368,0.062815,0.357359,0.0000,NO
4,0.2450,0.2450,0.0500,0.050,APPROACHING,0,1000.00,999.75,999.75,0.15,-0.15,89.15,1.00000,0.99975,0.99975,0.00264,-0.00261,1.55594,-0.00004,-0.00499,-0.00501,0.00978,-0.01011,-0.05634,0.00000,0.00000,0.00000,0.00000,0.00000,0.00000,0.00000,0.00000,0.00000,0.00000,0.00000,0.00000,1.00000,0.99975,0.99975,-0.00264,0.00261,-1.55594,0.00004,0.00499,0.00501,-0.00978,0.01011,0.05634,0.0000,,,,0.0353,,,,,,"[0.998, 0.000, 0.000, 0.000, 0.998, 0.000]",0x100010,0.2450,2,0,0.049197,-0.049438,-0.279340,0.0000,NO
5,0.2950,0.2950,0.0500,0.050,APPROACHING,0,1000.00,999.44,999.44,0.22,-0.22,88.75,1.00000,0.99944,0.99944,0.00388,-0.00382,1.54897,-0.00009,-0.00749,-0.00751,0.03903,-0.03950,-0.22242,0.00000,0.00000,0.00000,0.00000,0.00000,0.00000,0.00000,0.00000,0.00000,0.00000,0.00000,0.00000,1.00000,0.99944,0.99944,-0.00388,0.00382,-1.54897,0.00009,0.00749,0.00751,-0.03903,0.03950,0.22242,0.0000,,,,0.0371,,,,,,"[0.998, 0.000, 0.000, 0.000, 0.998, 0.000]",0x100010,0.2950,2,0,-0.039297,0.038898,0.221455,0.0000,NO
6,0.3450,0.3450,0.0500,0.050,APPROACHING,0,999.99,999.00,999.00,0.30,-0.30,88.30,0.99999,0.99900,0.99900,0.00528,-0.00518,1.54114,-0.00017,-0.00997,-0.01002,0.01567,-0.01638,-0.09075,0.00000,0.00000,0.00000,0.00000,0.00000,0.00000,0.00000,0.00000,0.00000,0.00000,0.00000,0.00000,0.99999,0.99900,0.99900,-0.00528,0.00518,-1.54114,0.00017,0.00997,0.01002,-0.01567,0.01638,0.09075,0.0000,,,,0.0327,,,,,,"[0.998, 0.000, 0.000, 0.000, 0.998, 0.000]",0x100010,0.3450,2,0,0.030269,-0.030621,-0.172444,0.0000,NO
7,0.3950,0.3950,0.0500,0.050,APPROACHING,0,999.98,998.44,998.43,0.38,-0.37,87.89,0.99998,0.99844,0.99843,0.00656,-0.00642,1.53403,-0.00026,-0.01246,-0.01254,0.03366,-0.03458,-0.19328,0.00000,0.00000,0.00000,0.00000,0.00000,0.00000,0.00000,0.00000,0.00000,0.00000,0.00000,0.00000,0.99998,0.99844,0.99843,-0.00656,0.00642,-1.53403,0.00026,0.01246,0.01254,-0.03366,0.03458,0.19328,0.0000,,,,0.0387,,,,,,"[0.998, 0.000, 0.000, 0.000, 0.998, 0.000]",0x100010,0.3950,2,0,-0.024422,0.024085,0.137376,0.0000,NO
8,0.4450,0.4450,0.0500,0.050,APPROACHING,0,999.96,997.76,997.74,0.45,-0.44,87.46,0.99996,0.99776,0.99774,0.00793,-0.00773,1.52640,-0.00038,-0.01494,-0.01506,0.01915,-0.02026,-0.11160,0.00000,0.00000,0.00000,0.00000,0.00000,0.00000,0.00000,0.00000,0.00000,0.00000,0.00000,0.00000,0.99996,0.99776,0.99774,-0.00793,0.00773,-1.52640,0.00038,0.01494,0.01506,-0.01915,0.02026,0.11160,0.0000,,,,0.0364,,,,,,"[0.998, 0.000, 0.000, 0.000, 0.998, 0.000]",0x100010,0.4450,2,0,0.018570,-0.018969,-0.106312,0.0000,NO
9,0.4950,0.4950,0.0500,0.050,APPROACHING,0,999.94,996.95,996.93,0.53,-0.51,87.05,0.99994,0.99695,0.99693,0.00922,-0.00897,1.51922,-0.00052,-0.01741,-0.01758,0.03019,-0.03154,-0.17481,0.00000,0.00000,0.00000,0.00000,0.00000,0.00000,0.00000,0.00000,0.00000,0.00000,0.00000,0.00000,0.99994,0.99695,0.99693,-0.00922,0.00897,-1.51922,0.00052,0.01741,0.01758,-0.03019,0.03154,0.17481,0.0000,,,,0.0337,,,,,,"[0.998, 0.000, 0.000, 0.000, 0.998, 0.000]",0x100010,0.4950,2,0,-0.015261,0.014942,0.085351,0.0000,NO
10,0.5450,0.5450,0.0500,0.050,APPROACHING,0,999.91,996.01,995.99,0.61,-0.59,86.62,0.99991,0.99601,0.99599,0.01058,-0.01025,1.51174,-0.00068,-0.01988,-0.02010,0.02111,-0.02266,-0.12406,0.00000,0.00000,0.00000,0.00000,0.00000,0.00000,0.00000,0.00000,0.00000,0.00000,0.00000,0.00000,0.99991,0.99601,0.99599,-0.01058,0.01025,-1.51174,0.00068,0.01988,0.02010,-0.02111,0.02266,0.12406,0.0000,,,,0.0392,,,,,,"[0.998, 0.000, 0.000, 0.000, 0.999, 0.000]",0x100010,0.5450,2,0,0.011290,-0.011704,-0.065411,0.0000,NO
11,0.5950,0.5950,0.0500,0.050,APPROACHING,0,999.87,994.96,994.92,0.68,-0.66,86.20,0.99987,0.99496,0.99492,0.01188,-0.01147,1.50455,-0.00086,-0.02235,-0.02263,0.02783,-0.02962,-0.16295,0.00000,0.00000,0.00000,0.00000,0.00000,0.00000,0.00000,0.00000,0.00000,0.00000,0.00000,0.00000,0.99987,0.99496,0.99492,-0.01188,0.01147,-1.50455,0.00086,0.02235,0.02263,-0.02783,0.02962,0.16295,0.0000,,,,0.0381,,,,,,"[0.998, 0.000, 0.000, 0.000, 0.998, 0.000]",0x100010,0.5950,2,0,-0.009594,0.009272,0.053167,0.0000,NO
12,0.6450,0.6450,0.0500,0.050,APPROACHING,0,999.82,993.78,993.72,0.76,-0.73,85.78,0.99982,0.99378,0.99372,0.01322,-0.01272,1.49717,-0.00106,-0.02481,-0.02516,0.02212,-0.02410,-0.13134,0.00000,0.00000,0.00000,0.00000,0.00000,0.00000,0.00000,0.00000,0.00000,0.00000,0.00000,0.00000,0.99982,0.99378,0.99372,-0.01322,0.01272,-1.49717,0.00106,0.02481,0.02516,-0.02212,0.02410,0.13134,0.0000,,,,0.0375,,,,,,"[0.998, 0.000, 0.000, 0.000, 0.998, 0.000]",0x100010,0.6450,2,0,0.006812,-0.007227,-0.040102,0.0000,NO
13,0.6950,0.6950,0.0500,0.050,APPROACHING,0,999.77,992.48,992.40,0.83,-0.80,85.37,0.99977,0.99248,0.99240,0.01452,-0.01394,1.48999,-0.00129,-0.02727,-0.02769,0.02617,-0.02840,-0.15519,0.00000,0.00000,0.00000,0.00000,0.00000,0.00000,0.00000,0.00000,0.00000,0.00000,0.00000,0.00000,0.99977,0.99248,0.99240,-0.01452,0.01394,-1.48999,0.00129,0.02727,0.02769,-0.02617,0.02840,0.15519,0.0000,,,,0.0329,,,,,,"[0.998, 0.000, 0.000, 0.000, 0.998, 0.000]",0x100010,0.6950,2,0,-0.006096,0.005765,0.033254,0.0000,NO
14,0.7450,0.7450,0.0500,0.050,APPROACHING,0,999.70,991.05,990.96,0.91,-0.87,84.95,0.99970,0.99105,0.99096,0.01585,-0.01516,1.48271,-0.00153,-0.02972,-0.03023,0.02255,-0.02497,-0.13542,0.00000,0.00000,0.00000,0.00000,0.00000,0.00000,0.00000,0.00000,0.00000,0.00000,0.00000,0.00000,0.99970,0.99105,0.99096,-0.01585,0.01516,-1.48271,0.00153,0.02972,0.03023,-0.02255,0.02497,0.13542,0.0000,,,,0.0344,,,,,,"[0.998, 0.000, 0.000, 0.000, 0.999, 0.000]",0x100010,0.7450,2,0,0.004040,-0.004450,-0.024446,0.0000,NO
15,0.7950,0.7950,0.0500,0.050,APPROACHING,0,999.61,989.51,989.38,0.98,-0.94,84.54,0.99961,0.98951,0.98938,0.01715,-0.01636,1.47555,-0.00180,-0.03217,-0.03276,0.02495,-0.02762,-0.14995,0.00000,0.00000,0.00000,0.00000,0.00000,0.00000,0.00000,0.00000,0.00000,0.00000,0.00000,0.00000,0.99961,0.98951,0.98938,-0.01715,0.01636,-1.47555,0.00180,0.03217,0.03276,-0.02495,0.02762,0.14995,0.0000,,,,0.0384,,,,,,"[0.998, 0.000, 0.000, 0.000, 0.999, 0.000]",0x100010,0.7950,2,0,-0.003939,0.003597,0.020934,0.0000,NO
16,0.8450,0.8450,0.0500,0.050,APPROACHING,0,999.52,987.84,987.68,1.06,-1.01,84.13,0.99952,0.98784,0.98768,0.01846,-0.01756,1.46834,-0.00208,-0.03461,-0.03531,0.02261,-0.02548,-0.13750,0.00000,0.00000,0.00000,0.00000,0.00000,0.00000,0.00000,0.00000,0.00000,0.00000,0.00000,0.00000,0.99952,0.98784,0.98768,-0.01846,0.01756,-1.46834,0.00208,0.03461,0.03531,-0.02261,0.02548,0.13750,0.0000,,,,0.0148,,,,,,"[1.000, 0.000, 0.000, 0.000, 1.000, 0.000]",0x100010,0.8450,2,0,0.002298,-0.002701,-0.014826,0.0000,NO
17,0.8950,0.8950,0.0500,0.050,APPROACHING,0,999.40,986.05,985.85,1.13,-1.07,83.72,0.99940,0.98605,0.98585,0.01975,-0.01874,1.46122,-0.00239,-0.03704,-0.03785,0.02397,-0.02709,-0.14632,0.00000,0.00000,0.00000,0.00000,0.00000,0.00000,0.00000,0.00000,0.00000,0.00000,0.00000,0.00000,0.99940,0.98605,0.98585,-0.01975,0.01874,-1.46122,0.00239,0.03704,0.03785,-0.02397,0.02709,0.14632,0.0000,,,,0.0042,,,,,,"[1.000, 0.000, 0.000, 0.000, 1.000, 0.000]",0x100010,0.8950,2,0,-0.002418,0.002040,0.012492,0.0000,NO
18,0.9450,0.9450,0.0500,0.050,APPROACHING,0,999.28,984.13,983.89,1.21,-1.14,83.31,0.99928,0.98413,0.98389,0.02105,-0.01991,1.45406,-0.00272,-0.03947,-0.04040,0.02254,-0.02587,-0.13889,0.00000,0.00000,0.00000,0.00000,0.00000,0.00000,0.00000,0.00000,0.00000,0.00000,0.00000,0.00000,0.99928,0.98413,0.98389,-0.02105,0.01991,-1.45406,0.00272,0.03947,0.04040,-0.02254,0.02587,0.13889,0.0000,,,,0.0041,,,,,,"[1.000, 0.000, 0.000, 0.000, 1.000, 0.000]",0x100010,0.9450,2,0,0.000835,-0.001215,-0.006522,0.0000,NO
19,0.9950,0.9950,0.0500,0.050,APPROACHING,0,999.13,982.10,981.81,1.28,-1.21,82.91,0.99913,0.98210,0.98181,0.02234,-0.02107,1.44699,-0.00306,-0.04190,-0.04295,0.02303,-0.02660,-0.14277,0.00000,0.00000,0.00000,0.00000,0.00000,0.00000,0.00000,0.00000,0.00000,0.00000,0.00000,0.00000,0.99913,0.98210,0.98181,-0.02234,0.02107,-1.44699,0.00306,0.04190,0.04295,-0.02303,0.02660,0.14277,0.0000,,,,0.0041,,,,,,"[1.000, 0.000, 0.000, 0.000, 1.000, 0.000]",0x100010,0.9950,2,0,-0.001292,0.000917,0.005844,0.0000,NO
20,1.0450,1.0450,0.0500,0.050,APPROACHING,0,998.97,979.94,979.60,1.35,-1.27,82.50,0.99897,0.97994,0.97960,0.02362,-0.02223,1.43991,-0.00343,-0.04432,-0.04550,0.02227,-0.02605,-0.13929,0.00000,0.00000,0.00000,0.00000,0.00000,0.00000,0.00000,0.00000,0.00000,0.00000,0.00000,0.00000,0.99897,0.97994,0.97960,-0.02362,0.02223,-1.43991,0.00343,0.04432,0.04550,-0.02227,0.02605,0.13929,0.0000,,,,0.0041,,,,,,"[1.000, 0.000, 0.000, 0.000, 1.000, 0.000]",0x100010,1.0450,2,0,0.000090,-0.000473,-0.002259,0.0000,NO
21,1.0950,1.0950,0.0500,0.050,APPROACHING,0,998.79,977.67,977.26,1.43,-1.34,82.10,0.99879,0.97767,0.97726,0.02490,-0.02337,1.43288,-0.00381,-0.04673,-0.04805,0.02232,-0.02633,-0.14064,0.00000,0.00000,0.00000,0.00000,0.00000,0.00000,0.00000,0.00000,0.00000,0.00000,0.00000,0.00000,0.99879,0.97767,0.97726,-0.02490,0.02337,-1.43288,0.00381,0.04673,0.04805,-0.02232,0.02633,0.14064,0.0000,,,,0.0042,,,,,,"[1.000, 0.000, 0.000, 0.000, 1.000, 0.000]",0x100010,1.0950,2,0,-0.000822,0.000445,0.003038,0.0000,NO
22,1.1450,1.1450,0.0500,0.050,APPROACHING,0,998.59,975.27,974.79,1.50,-1.40,81.70,0.99859,0.97527,0.97479,0.02617,-0.02450,1.42586,-0.00422,-0.04913,-0.05061,0.02183,-0.02607,-0.13883,0.00000,0.00000,0.00000,0.00000,0.00000,0.00000,0.00000,0.00000,0.00000,0.00000,0.00000,0.00000,0.99859,0.97527,0.97479,-0.02617,0.02450,-1.42586,0.00422,0.04913,0.05061,-0.02183,0.02607,0.13883,0.0000,,,,0.0041,,,,,,"[1.000, 0.000, 0.000, 0.000, 1.000, 0.000]",0x100010,1.1450,2,0,-0.000235,-0.000148,-0.000431,0.0000,NO
23,1.1950,1.1950,0.0500,0.050,APPROACHING,0,998.37,972.75,972.20,1.57,-1.47,81.30,0.99837,0.97275,0.97220,0.02743,-0.02562,1.41888,-0.00465,-0.05153,-0.05317,0.02169,-0.02616,-0.13909,0.00000,0.00000,0.00000,0.00000,0.00000,0.00000,0.00000,0.00000,0.00000,0.00000,0.00000,0.00000,0.99837,0.97275,0.97220,-0.02743,0.02562,-1.41888,0.00465,0.05153,0.05317,-0.02169,0.02616,0.13909,0.0000,,,,0.0062,,,,,,"[1.000, 0.000, 0.000, 0.000, 1.000, 0.000]",0x100010,1.1950,2,0,-0.000620,0.000261,0.001811,0.0000,NO
24,1.2450,1.2450,0.0500,0.050,APPROACHING,0,998.12,970.12,969.48,1.64,-1.53,80.90,0.99812,0.97012,0.96948,0.02869,-0.02673,1.41192,-0.00509,-0.05393,-0.05574,0.02132,-0.02600,-0.13801,0.00000,0.00000,0.00000,0.00000,0.00000,0.00000,0.00000,0.00000,0.00000,0.00000,0.00000,0.00000,0.99812,0.97012,0.96948,-0.02869,0.02673,-1.41192,0.00509,0.05393,0.05574,-0.02132,0.02600,0.13801,0.0000,,,,0.0041,,,,,,"[1.000, 0.000, 0.000, 0.000, 1.000, 0.000]",0x100010,1.2450,2,0,-0.000394,-0.000021,0.000391,0.0000,NO
25,1.2950,1.2950,0.0500,0.050,APPROACHING,0,997.86,967.36,966.62,1.72,-1.59,80.50,0.99786,0.96736,0.96662,0.02994,-0.02782,1.40499,-0.00556,-0.05632,-0.05830,0.02109,-0.02601,-0.13778,0.00000,0.00000,0.00000,0.00000,0.00000,0.00000,0.00000,0.00000,0.00000,0.00000,0.00000,0.00000,0.99786,0.96736,0.96662,-0.02994,0.02782,-1.40499,0.00556,0.05632,0.05830,-0.02109,0.02601,0.13778,0.0000,,,,0.0062,,,,,,"[1.000, 0.000, 0.000, 0.000, 1.000, 0.000]",0x100010,1.2950,2,0,-0.000527,0.000188,0.001225,0.0000,NO
26,1.3450,1.3450,0.0500,0.050,APPROACHING,0,997.57,964.49,963.65,1.79,-1.66,80.10,0.99757,0.96449,0.96365,0.03118,-0.02891,1.39808,-0.00604,-0.05870,-0.06087,0.02077,-0.02590,-0.13705,0.00000,0.00000,0.00000,0.00000,0.00000,0.00000,0.00000,0.00000,0.00000,0.00000,0.00000,0.00000,0.99757,0.96449,0.96365,-0.03118,0.02891,-1.39808,0.00604,0.05870,0.06087,-0.02077,0.02590,0.13705,0.0000,,,,0.0041,,,,,,"[1.000, 0.000, 0.000, 0.000, 1.000, 0.000]",0x100010,1.3450,2,0,-0.000477,0.000049,0.000802,0.0000,NO
27,1.3950,1.3950,0.0500,0.050,APPROACHING,0,997.25,961.49,960.54,1.86,-1.72,79.71,0.99725,0.96149,0.96054,0.03241,-0.02999,1.39119,-0.00654,-0.06107,-0.06344,0.02049,-0.02587,-0.13657,0.00000,0.00000,0.00000,0.00000,0.00000,0.00000,0.00000,0.00000,0.00000,0.00000,0.00000,0.00000,0.99725,0.96149,0.96054,-0.03241,0.02999,-1.39119,0.00654,0.06107,0.06344,-0.02049,0.02587,0.13657,0.0000,,,,0.0062,,,,,,"[1.000, 0.000, 0.000, 0.000, 1.000, 0.000]",0x100010,1.3950,2,0,-0.000488,0.000158,0.000933,0.0000,NO
28,1.4450,1.4450,0.0500,0.050,APPROACHING,0,996.91,958.38,957.30,1.93,-1.78,79.32,0.99691,0.95838,0.95730,0.03364,-0.03105,1.38434,-0.00706,-0.06344,-0.06602,0.02020,-0.02578,-0.13602,0.00000,0.00000,0.00000,0.00000,0.00000,0.00000,0.00000,0.00000,0.00000,0.00000,0.00000,0.00000,0.99691,0.95838,0.95730,-0.03364,0.03105,-1.38434,0.00706,0.06344,0.06602,-0.02020,0.02578,0.13602,0.0000,,,,0.0062,,,,,,"[1.000, 0.000, 0.000, 0.000, 1.000, 0.000]",0x100010,1.4450,2,0,-0.000507,0.000087,0.000923,0.0000,NO
29,1.4950,1.4950,0.0500,0.050,APPROACHING,0,996.55,955.15,953.94,2.00,-1.84,78.93,0.99655,0.95515,0.95394,0.03486,-0.03211,1.37751,-0.00760,-0.06580,-0.06859,0.01990,-0.02573,-0.13547,0.00000,0.00000,0.00000,0.00000,0.00000,0.00000,0.00000,0.00000,0.00000,0.00000,0.00000,0.00000,0.99655,0.95515,0.95394,-0.03486,0.03211,-1.37751,0.00760,0.06580,0.06859,-0.01990,0.02573,0.13547,0.0000,,,,0.0042,,,,,,"[1.000, 0.000, 0.000, 0.000, 1.000, 0.000]",0x100010,1.4950,2,0,-0.000516,0.000148,0.001005,0.0000,NO
30,1.5450,1.5450,0.0500,0.050,APPROACHING,0,996.15,951.80,950.44,2.07,-1.90,78.54,0.99615,0.95180,0.95044,0.03607,-0.03315,1.37070,-0.00816,-0.06815,-0.07117,0.01959,-0.02564,-0.13487,0.00000,0.00000,0.00000,0.00000,0.00000,0.00000,0.00000,0.00000,0.00000,0.00000,0.00000,0.00000,0.99615,0.95180,0.95044,-0.03607,0.03315,-1.37070,0.00816,0.06815,0.07117,-0.01959,0.02564,0.13487,0.0000,,,,0.0040,,,,,,"[1.000, 0.000, 0.000, 0.000, 1.000, 0.000]",0x100010,1.5450,2,0,-0.000503,0.000116,0.000868,0.0000,NO
31,1.5950,1.5950,0.0500,0.050,APPROACHING,0,995.73,948.33,946.82,2.14,-1.96,78.15,0.99573,0.94833,0.94682,0.03727,-0.03418,1.36393,-0.00874,-0.07050,-0.07375,0.01929,-0.02557,-0.13436,0.00000,0.00000,0.00000,0.00000,0.00000,0.00000,0.00000,0.00000,0.00000,0.00000,0.00000,0.00000,0.99573,0.94833,0.94682,-0.03727,0.03418,-1.36393,0.00874,0.07050,0.07375,-0.01929,0.02557,0.13436,0.0000,,,,0.0394,,,,,,"[1.000, 0.000, 0.000, 0.000, 1.000, 0.000]",0x100010,1.5950,2,0,-0.000506,0.000149,0.000872,0.0000,NO
32,1.6450,1.6450,0.0500,0.050,APPROACHING,0,995.28,944.75,943.07,2.20,-2.02,77.76,0.99528,0.94475,0.94307,0.03846,-0.03520,1.35717,-0.00933,-0.07284,-0.07634,0.01899,-0.02548,-0.13384,0.00000,0.00000,0.00000,0.00000,0.00000,0.00000,0.00000,0.00000,0.00000,0.00000,0.00000,0.00000,0.99528,0.94475,0.94307,-0.03846,0.03520,-1.35717,0.00933,0.07284,0.07634,-0.01899,0.02548,0.13384,0.0000,,,,0.0041,,,,,,"[1.000, 0.000, 0.000, 0.000, 1.000, 0.000]",0x100010,1.6450,2,0,-0.000540,0.000133,0.001030,0.0000,NO
33,1.6950,1.6950,0.0500,0.050,APPROACHING,0,994.80,941.05,939.19,2.27,-2.07,77.37,0.99480,0.94105,0.93919,0.03964,-0.03622,1.35045,-0.00995,-0.07517,-0.07892,0.01867,-0.02540,-0.13322,0.00000,0.00000,0.00000,0.00000,0.00000,0.00000,0.00000,0.00000,0.00000,0.00000,0.00000,0.00000,0.99480,0.94105,0.93919,-0.03964,0.03622,-1.35045,0.00995,0.07517,0.07892,-0.01867,0.02540,0.13322,0.0000,,,,0.0063,,,,,,"[1.000, 0.000, 0.000, 0.000, 1.000, 0.000]",0x100010,1.6950,2,0,-0.000498,0.000156,0.000751,0.0000,NO
34,1.7450,1.7450,0.0500,0.050,APPROACHING,0,994.28,937.23,935.17,2.34,-2.13,76.99,0.99428,0.93723,0.93517,0.04081,-0.03721,1.34375,-0.01058,-0.07750,-0.08151,0.01837,-0.02531,-0.13278,0.00000,0.00000,0.00000,0.00000,0.00000,0.00000,0.00000,0.00000,0.00000,0.00000,0.00000,0.00000,0.99428,0.93723,0.93517,-0.04081,0.03721,-1.34375,0.01058,0.07750,0.08151,-0.01837,0.02531,0.13278,0.0000,,,,0.0041,,,,,,"[1.000, 0.000, 0.000, 0.000, 1.000, 0.000]",0x100010,1.7450,2,0,-0.000560,0.000147,0.001108,0.0000,NO
35,1.7950,1.7950,0.0500,0.050,APPROACHING,0,993.74,933.30,931.03,2.41,-2.19,76.61,0.99374,0.93330,0.93103,0.04198,-0.03820,1.33707,-0.01123,-0.07981,-0.08410,0.01804,-0.02522,-0.13212,0.00000,0.00000,0.00000,0.00000,0.00000,0.00000,0.00000,0.00000,0.00000,0.00000,0.00000,0.00000,0.99374,0.93330,0.93103,-0.04198,0.03820,-1.33707,0.01123,0.07981,0.08410,-0.01804,0.02522,0.13212,0.0000,,,,0.0041,,,,,,"[1.000, 0.000, 0.000, 0.000, 1.000, 0.000]",0x100010,1.7950,2,0,-0.000513,0.000164,0.000781,0.0000,NO
36,1.8450,1.8450,0.0500,0.050,APPROACHING,0,993.16,929.25,926.76,2.47,-2.24,76.23,0.99316,0.92925,0.92676,0.04313,-0.03918,1.33043,-0.01189,-0.08212,-0.08669,0.01774,-0.02513,-0.13165,0.00000,0.00000,0.00000,0.00000,0.00000,0.00000,0.00000,0.00000,0.00000,0.00000,0.00000,0.00000,0.99316,0.92925,0.92676,-0.04313,0.03918,-1.33043,0.01189,0.08212,0.08669,-0.01774,0.02513,0.13165,0.0000,,,,0.0061,,,,,,"[1.000, 0.000, 0.000, 0.000, 1.000, 0.000]",0x100010,1.8450,2,0,-0.000542,0.000164,0.000912,0.0000,NO
37,1.8950,1.8950,0.0500,0.050,APPROACHING,0,992.55,925.09,922.36,2.54,-2.30,75.85,0.99255,0.92509,0.92236,0.04427,-0.04015,1.32380,-0.01258,-0.08442,-0.08929,0.01741,-0.02503,-0.13111,0.00000,0.00000,0.00000,0.00000,0.00000,0.00000,0.00000,0.00000,0.00000,0.00000,0.00000,0.00000,0.99255,0.92509,0.92236,-0.04427,0.04015,-1.32380,0.01258,0.08442,0.08929,-0.01741,0.02503,0.13111,0.0000,,,,0.0040,,,,,,"[1.000, 0.000, 0.000, 0.000, 1.000, 0.000]",0x100010,1.8950,2,0,-0.000550,0.000170,0.000980,0.0000,NO
38,1.9450,1.9450,0.0500,0.050,APPROACHING,0,991.90,920.81,917.84,2.60,-2.35,75.47,0.99190,0.92081,0.91784,0.04540,-0.04110,1.31721,-0.01328,-0.08672,-0.09188,0.01709,-0.02493,-0.13053,0.00000,0.00000,0.00000,0.00000,0.00000,0.00000,0.00000,0.00000,0.00000,0.00000,0.00000,0.00000,0.99190,0.92081,0.91784,-0.04540,0.04110,-1.31721,0.01328,0.08672,0.09188,-0.01709,0.02493,0.13053,0.0000,,,,0.0041,,,,,,"[1.000, 0.000, 0.000, 0.000, 1.000, 0.000]",0x100010,1.9450,2,0,-0.000541,0.000178,0.000852,0.0000,NO
39,1.9950,1.9950,0.0500,0.050,APPROACHING,0,991.22,916.42,913.18,2.67,-2.41,75.09,0.99122,0.91642,0.91318,0.04652,-0.04204,1.31064,-0.01400,-0.08901,-0.09448,0.01677,-0.02482,-0.13002,0.00000,0.00000,0.00000,0.00000,0.00000,0.00000,0.00000,0.00000,0.00000,0.00000,0.00000,0.00000,0.99122,0.91642,0.91318,-0.04652,0.04204,-1.31064,0.01400,0.08901,0.09448,-0.01677,0.02482,0.13002,0.0000,,,,0.0063,,,,,,"[1.000, 0.000, 0.000, 0.000, 1.000, 0.000]",0x100010,1.9950,2,0,-0.000545,0.000185,0.000849,0.0000,NO
40,2.0450,2.0450,0.0500,0.050,APPROACHING,0,990.50,911.91,908.39,2.73,-2.46,74.72,0.99050,0.91191,0.90839,0.04763,-0.04297,1.30409,-0.01473,-0.09128,-0.09708,0.01644,-0.02471,-0.12952,0.00000,0.00000,0.00000,0.00000,0.00000,0.00000,0.00000,0.00000,0.00000,0.00000,0.00000,0.00000,0.99050,0.91191,0.90839,-0.04763,0.04297,-1.30409,0.01473,0.09128,0.09708,-0.01644,0.02471,0.12952,0.0000,,,,0.0062,,,,,,"[1.000, 0.000, 0.000, 0.000, 1.000, 0.000]",0x100010,2.0450,2,0,-0.000559,0.000188,0.000935,0.0000,NO
41,2.0950,2.0950,0.0500,0.050,APPROACHING,0,989.75,907.29,903.47,2.79,-2.51,74.35,0.98975,0.90729,0.90347,0.04872,-0.04389,1.29757,-0.01548,-0.09356,-0.09969,0.01611,-0.02460,-0.12896,0.00000,0.00000,0.00000,0.00000,0.00000,0.00000,0.00000,0.00000,0.00000,0.00000,0.00000,0.00000,0.98975,0.90729,0.90347,-0.04872,0.04389,-1.29757,0.01548,0.09356,0.09969,-0.01611,0.02460,0.12896,0.0000,,,,0.0062,,,,,,"[1.000, 0.000, 0.000, 0.000, 1.000, 0.000]",0x100010,2.0950,2,0,-0.000556,0.000197,0.000865,0.0000,NO
42,2.1450,2.1450,0.0500,0.050,APPROACHING,0,988.95,902.55,898.42,2.85,-2.57,73.97,0.98895,0.90255,0.89842,0.04981,-0.04480,1.29108,-0.01625,-0.09582,-0.10229,0.01578,-0.02448,-0.12845,0.00000,0.00000,0.00000,0.00000,0.00000,0.00000,0.00000,0.00000,0.00000,0.00000,0.00000,0.00000,0.98895,0.90255,0.89842,-0.04981,0.04480,-1.29108,0.01625,0.09582,0.10229,-0.01578,0.02448,0.12845,0.0000,,,,0.0041,,,,,,"[1.000, 0.000, 0.000, 0.000, 1.000, 0.000]",0x100010,2.1450,2,0,-0.000572,0.000199,0.000991,0.0000,NO
43,2.1950,2.1950,0.0500,0.050,APPROACHING,0,988.12,897.71,893.24,2.92,-2.62,73.60,0.98812,0.89771,0.89324,0.05088,-0.04570,1.28461,-0.01704,-0.09807,-0.10490,0.01544,-0.02436,-0.12786,0.00000,0.00000,0.00000,0.00000,0.00000,0.00000,0.00000,0.00000,0.00000,0.00000,0.00000,0.00000,0.98812,0.89771,0.89324,-0.05088,0.04570,-1.28461,0.01704,0.09807,0.10490,-0.01544,0.02436,0.12786,0.0000,,,,0.0071,,,,,,"[1.000, 0.000, 0.000, 0.000, 1.000, 0.000]",0x100010,2.1950,2,0,-0.000552,0.000213,0.000735,0.0000,NO
44,2.2450,2.2450,0.0500,0.050,APPROACHING,0,987.25,892.75,887.93,2.98,-2.67,73.23,0.98725,0.89275,0.88793,0.05194,-0.04659,1.27817,-0.01784,-0.10032,-0.10751,0.01511,-0.02424,-0.12742,0.00000,0.00000,0.00000,0.00000,0.00000,0.00000,0.00000,0.00000,0.00000,0.00000,0.00000,0.00000,0.98725,0.89275,0.88793,-0.05194,0.04659,-1.27817,0.01784,0.10032,0.10751,-0.01511,0.02424,0.12742,0.0000,,,,0.0062,,,,,,"[1.000, 0.000, 0.000, 0.000, 1.000, 0.000]",0x100010,2.2450,2,0,-0.000581,0.000211,0.001004,0.0000,NO
45,2.2950,2.2950,0.0500,0.050,APPROACHING,0,986.34,887.67,882.49,3.04,-2.72,72.87,0.98634,0.88767,0.88249,0.05299,-0.04746,1.27175,-0.01866,-0.10256,-0.11012,0.01476,-0.02411,-0.12683,0.00000,0.00000,0.00000,0.00000,0.00000,0.00000,0.00000,0.00000,0.00000,0.00000,0.00000,0.00000,0.98634,0.88767,0.88249,-0.05299,0.04746,-1.27175,0.01866,0.10256,0.11012,-0.01476,0.02411,0.12683,0.0000,,,,0.0062,,,,,,"[1.000, 0.000, 0.000, 0.000, 1.000, 0.000]",0x100010,2.2950,2,0,-0.000565,0.000224,0.000793,0.0000,NO
46,2.3450,2.3450,0.0500,0.050,APPROACHING,0,985.38,882.49,876.92,3.10,-2.77,72.50,0.98538,0.88249,0.87692,0.05403,-0.04832,1.26536,-0.01949,-0.10479,-0.11273,0.01443,-0.02398,-0.12635,0.00000,0.00000,0.00000,0.00000,0.00000,0.00000,0.00000,0.00000,0.00000,0.00000,0.00000,0.00000,0.98538,0.88249,0.87692,-0.05403,0.04832,-1.26536,0.01949,0.10479,0.11273,-0.01443,0.02398,0.12635,0.0000,,,,0.0101,,,,,,"[1.000, 0.000, 0.000, 0.000, 1.000, 0.000]",0x100010,2.3450,2,0,-0.000584,0.000226,0.000945,0.0000,NO
47,2.3950,2.3950,0.0500,0.050,APPROACHING,0,984.39,877.19,871.21,3.15,-2.82,72.13,0.98439,0.87719,0.87121,0.05505,-0.04917,1.25899,-0.02034,-0.10701,-0.11535,0.01408,-0.02385,-0.12579,0.00000,0.00000,0.00000,0.00000,0.00000,0.00000,0.00000,0.00000,0.00000,0.00000,0.00000,0.00000,0.98439,0.87719,0.87121,-0.05505,0.04917,-1.25899,0.02034,0.10701,0.11535,-0.01408,0.02385,0.12579,0.0000,,,,0.0062,,,,,,"[1.000, 0.000, 0.000, 0.000, 1.000, 0.000]",0x100010,2.3950,2,0,-0.000575,0.000235,0.000834,0.0000,NO
48,2.4450,2.4450,0.0500,0.050,APPROACHING,0,983.35,871.79,865.38,3.21,-2.87,71.77,0.98335,0.87179,0.86538,0.05606,-0.05001,1.25265,-0.02121,-0.10923,-0.11796,0.01374,-0.02371,-0.12530,0.00000,0.00000,0.00000,0.00000,0.00000,0.00000,0.00000,0.00000,0.00000,0.00000,0.00000,0.00000,0.98335,0.87179,0.86538,-0.05606,0.05001,-1.25265,0.02121,0.10923,0.11796,-0.01374,0.02371,0.12530,0.0000,,,,0.0041,,,,,,"[1.000, 0.000, 0.000, 0.000, 1.000, 0.000]",0x100010,2.4450,2,0,-0.000591,0.000236,0.000986,0.0000,NO
49,2.4950,2.4950,0.0500,0.050,APPROACHING,0,982.27,866.27,859.42,3.27,-2.91,71.41,0.98227,0.86627,0.85942,0.05706,-0.05084,1.24633,-0.02209,-0.11143,-0.12058,0.01339,-0.02357,-0.12471,0.00000,0.00000,0.00000,0.00000,0.00000,0.00000,0.00000,0.00000,0.00000,0.00000,0.00000,0.00000,0.98227,0.86627,0.85942,-0.05706,0.05084,-1.24633,0.02209,0.11143,0.12058,-0.01339,0.02357,0.12471,0.0000,,,,0.0062,,,,,,"[1.000, 0.000, 0.000, 0.000, 1.000, 0.000]",0x100010,2.4950,2,0,-0.000578,0.000253,0.000712,0.0000,NO
50,2.5450,2.5450,0.0500,0.050,APPROACHING,0,981.14,860.65,853.32,3.33,-2.96,71.05,0.98114,0.86065,0.85332,0.05804,-0.05165,1.24004,-0.02299,-0.11363,-0.12320,0.01304,-0.02342,-0.12429,0.00000,0.00000,0.00000,0.00000,0.00000,0.00000,0.00000,0.00000,0.00000,0.00000,0.00000,0.00000,0.98114,0.86065,0.85332,-0.05804,0.05165,-1.24004,0.02299,0.11363,0.12320,-0.01304,0.02342,0.12429,0.0000,,,,0.0040,,,,,,"[1.000, 0.000, 0.000, 0.000, 1.000, 0.000]",0x100010,2.5450,2,0,-0.000599,0.000246,0.001063,0.0000,NO
51,2.5950,2.5950,0.0500,0.050,APPROACHING,0,979.97,854.91,847.10,3.38,-3.01,70.69,0.97997,0.85491,0.84710,0.05901,-0.05245,1.23378,-0.02390,-0.11582,-0.12583,0.01269,-0.02327,-0.12365,0.00000,0.00000,0.00000,0.00000,0.00000,0.00000,0.00000,0.00000,0.00000,0.00000,0.00000,0.00000,0.97997,0.85491,0.84710,-0.05901,0.05245,-1.23378,0.02390,0.11582,0.12583,-0.01269,0.02327,0.12365,0.0000,,,,0.0061,,,,,,"[1.000, 0.000, 0.000, 0.000, 1.000, 0.000]",0x100010,2.5950,2,0,-0.000584,0.000270,0.000650,0.0000,NO
52,2.6450,2.6450,0.0500,0.050,APPROACHING,0,978.75,849.06,840.74,3.44,-3.05,70.33,0.97875,0.84906,0.84074,0.05996,-0.05324,1.22754,-0.02483,-0.11800,-0.12845,0.01234,-0.02311,-0.12327,0.00000,0.00000,0.00000,0.00000,0.00000,0.00000,0.00000,0.00000,0.00000,0.00000,0.00000,0.00000,0.97875,0.84906,0.84074,-0.05996,0.05324,-1.22754,0.02483,0.11800,0.12845,-0.01234,0.02311,0.12327,0.0000,,,,0.0084,,,,,,"[1.000, 0.000, 0.000, 0.000, 1.000, 0.000]",0x100010,2.6450,2,0,-0.000603,0.000261,0.001028,0.0000,NO
53,2.6950,2.6950,0.0500,0.050,APPROACHING,0,977.48,843.11,834.25,3.49,-3.10,69.98,0.97748,0.84311,0.83425,0.06090,-0.05402,1.22132,-0.02577,-0.12017,-0.13108,0.01198,-0.02295,-0.12266,0.00000,0.00000,0.00000,0.00000,0.00000,0.00000,0.00000,0.00000,0.00000,0.00000,0.00000,0.00000,0.97748,0.84311,0.83425,-0.06090,0.05402,-1.22132,0.02577,0.12017,0.13108,-0.01198,0.02295,0.12266,0.0000,,,,0.0062,,,,,,"[1.000, 0.000, 0.000, 0.000, 1.000, 0.000]",0x100010,2.6950,2,0,-0.000592,0.000279,0.000741,0.0000,NO
54,2.7450,2.7450,0.0500,0.050,APPROACHING,0,976.17,837.05,827.63,3.54,-3.14,69.62,0.97617,0.83705,0.82763,0.06183,-0.05479,1.21513,-0.02673,-0.12233,-0.13370,0.01163,-0.02279,-0.12222,0.00000,0.00000,0.00000,0.00000,0.00000,0.00000,0.00000,0.00000,0.00000,0.00000,0.00000,0.00000,0.97617,0.83705,0.82763,-0.06183,0.05479,-1.21513,0.02673,0.12233,0.13370,-0.01163,0.02279,0.12222,0.0000,,,,0.0062,,,,,,"[1.000, 0.000, 0.000, 0.000, 1.000, 0.000]",0x100010,2.7450,2,0,-0.000606,0.000278,0.000952,0.0000,NO
55,2.7950,2.7950,0.0500,0.050,APPROACHING,0,974.81,830.88,820.88,3.59,-3.18,69.27,0.97481,0.83088,0.82088,0.06274,-0.05554,1.20897,-0.02771,-0.12449,-0.13633,0.01127,-0.02262,-0.12165,0.00000,0.00000,0.00000,0.00000,0.00000,0.00000,0.00000,0.00000,0.00000,0.00000,0.00000,0.00000,0.97481,0.83088,0.82088,-0.06274,0.05554,-1.20897,0.02771,0.12449,0.13633,-0.01127,0.02262,0.12165,0.0000,,,,0.0061,,,,,,"[1.000, 0.000, 0.000, 0.000, 1.000, 0.000]",0x100010,2.7950,2,0,-0.000600,0.000291,0.000786,0.0000,NO
56,2.8450,2.8450,0.0500,0.050,APPROACHING,0,973.40,824.60,814.00,3.65,-3.22,68.92,0.97340,0.82460,0.81400,0.06364,-0.05628,1.20283,-0.02869,-0.12663,-0.13896,0.01091,-0.02245,-0.12118,0.00000,0.00000,0.00000,0.00000,0.00000,0.00000,0.00000,0.00000,0.00000,0.00000,0.00000,0.00000,0.97340,0.82460,0.81400,-0.06364,0.05628,-1.20283,0.02869,0.12663,0.13896,-0.01091,0.02245,0.12118,0.0000,,,,0.0062,,,,,,"[1.000, 0.000, 0.000, 0.000, 1.000, 0.000]",0x100010,2.8450,2,0,-0.000609,0.000293,0.000909,0.0000,NO
57,2.8950,2.8950,0.0500,0.050,APPROACHING,0,971.94,818.21,806.99,3.70,-3.27,68.57,0.97194,0.81821,0.80699,0.06452,-0.05701,1.19672,-0.02970,-0.12877,-0.14160,0.01055,-0.02228,-0.12064,0.00000,0.00000,0.00000,0.00000,0.00000,0.00000,0.00000,0.00000,0.00000,0.00000,0.00000,0.00000,0.97194,0.81821,0.80699,-0.06452,0.05701,-1.19672,0.02970,0.12877,0.14160,-0.01055,0.02228,0.12064,0.0000,,,,0.0040,,,,,,"[1.000, 0.000, 0.000, 0.000, 1.000, 0.000]",0x100010,2.8950,2,0,-0.000605,0.000299,0.000890,0.0000,NO
58,2.9450,2.9450,0.0500,0.050,APPROACHING,0,970.43,811.72,799.84,3.75,-3.31,68.22,0.97043,0.81172,0.79984,0.06539,-0.05773,1.19063,-0.03071,-0.13090,-0.14423,0.01019,-0.02210,-0.12011,0.00000,0.00000,0.00000,0.00000,0.00000,0.00000,0.00000,0.00000,0.00000,0.00000,0.00000,0.00000,0.97043,0.81172,0.79984,-0.06539,0.05773,-1.19063,0.03071,0.13090,0.14423,-0.01019,0.02210,0.12011,0.0000,,,,0.0063,,,,,,"[1.000, 0.000, 0.000, 0.000, 1.000, 0.000]",0x100010,2.9450,2,0,-0.000615,0.000318,0.000739,0.0000,NO
59,2.9950,2.9950,0.0500,0.050,APPROACHING,0,968.87,805.12,792.56,3.80,-3.35,67.87,0.96887,0.80512,0.79256,0.06624,-0.05843,1.18456,-0.03174,-0.13302,-0.14687,0.00983,-0.02191,-0.11967,0.00000,0.00000,0.00000,0.00000,0.00000,0.00000,0.00000,0.00000,0.00000,0.00000,0.00000,0.00000,0.96887,0.80512,0.79256,-0.06624,0.05843,-1.18456,0.03174,0.13302,0.14687,-0.00983,0.02191,0.11967,0.0000,,,,0.0041,,,,,,"[1.000, 0.000, 0.000, 0.000, 1.000, 0.000]",0x100010,2.9950,2,0,-0.000608,0.000306,0.001002,0.0000,NO
60,3.0450,3.0450,0.0500,0.050,APPROACHING,0,967.26,798.42,785.15,3.84,-3.39,67.52,0.96726,0.79842,0.78515,0.06708,-0.05912,1.17852,-0.03279,-0.13513,-0.14950,0.00946,-0.02173,-0.11908,0.00000,0.00000,0.00000,0.00000,0.00000,0.00000,0.00000,0.00000,0.00000,0.00000,0.00000,0.00000,0.96726,0.79842,0.78515,-0.06708,0.05912,-1.17852,0.03279,0.13513,0.14950,-0.00946,0.02173,0.11908,0.0000,,,,0.0063,,,,,,"[1.000, 0.000, 0.000, 0.000, 1.000, 0.000]",0x100010,3.0450,2,0,-0.000622,0.000338,0.000653,0.0000,NO
61,3.0950,3.0950,0.0500,0.050,APPROACHING,0,965.59,791.61,777.61,3.89,-3.43,67.18,0.96559,0.79161,0.77761,0.06790,-0.05980,1.17251,-0.03385,-0.13723,-0.15214,0.00909,-0.02153,-0.11869,0.00000,0.00000,0.00000,0.00000,0.00000,0.00000,0.00000,0.00000,0.00000,0.00000,0.00000,0.00000,0.96559,0.79161,0.77761,-0.06790,0.05980,-1.17251,0.03385,0.13723,0.15214,-0.00909,0.02153,0.11869,0.0000,,,,0.0062,,,,,,"[1.000, 0.000, 0.000, 0.000, 1.000, 0.000]",0x100010,3.0950,2,0,-0.000612,0.000321,0.000988,0.0000,NO
62,3.1450,3.1450,0.0500,0.050,APPROACHING,0,963.87,784.70,769.94,3.94,-3.46,66.84,0.96387,0.78470,0.76994,0.06871,-0.06047,1.16652,-0.03492,-0.13932,-0.15478,0.00873,-0.02134,-0.11810,0.00000,0.00000,0.00000,0.00000,0.00000,0.00000,0.00000,0.00000,0.00000,0.00000,0.00000,0.00000,0.96387,0.78470,0.76994,-0.06871,0.06047,-1.16652,0.03492,0.13932,0.15478,-0.00873,0.02134,0.11810,0.0000,,,,0.0063,,,,,,"[1.000, 0.000, 0.000, 0.000, 1.000, 0.000]",0x100010,3.1450,2,0,-0.000623,0.000347,0.000727,0.0000,NO
63,3.1950,3.1950,0.0500,0.050,APPROACHING,0,962.10,777.68,762.13,3.98,-3.50,66.49,0.96210,0.77768,0.76213,0.06950,-0.06112,1.16056,-0.03601,-0.14140,-0.15742,0.00836,-0.02113,-0.11767,0.00000,0.00000,0.00000,0.00000,0.00000,0.00000,0.00000,0.00000,0.00000,0.00000,0.00000,0.00000,0.96210,0.77768,0.76213,-0.06950,0.06112,-1.16056,0.03601,0.14140,0.15742,-0.00836,0.02113,0.11767,0.0000,,,,0.0101,,,,,,"[1.000, 0.000, 0.000, 0.000, 1.000, 0.000]",0x100010,3.1950,2,0,-0.000619,0.000342,0.000917,0.0000,NO
64,3.2450,3.2450,0.0500,0.050,APPROACHING,0,960.27,770.56,754.20,4.03,-3.54,66.15,0.96027,0.77056,0.75420,0.07027,-0.06176,1.15462,-0.03711,-0.14348,-0.16006,0.00799,-0.02093,-0.11713,0.00000,0.00000,0.00000,0.00000,0.00000,0.00000,0.00000,0.00000,0.00000,0.00000,0.00000,0.00000,0.96027,0.77056,0.75420,-0.07027,0.06176,-1.15462,0.03711,0.14348,0.16006,-0.00799,0.02093,0.11713,0.0000,,,,0.0082,,,,,,"[1.000, 0.000, 0.000, 0.000, 1.000, 0.000]",0x100010,3.2450,2,0,-0.000624,0.000359,0.000770,0.0000,NO
65,3.2950,3.2950,0.0500,0.050,APPROACHING,0,958.39,763.33,746.13,4.07,-3.57,65.82,0.95839,0.76333,0.74613,0.07103,-0.06238,1.14870,-0.03822,-0.14555,-0.16271,0.00762,-0.02071,-0.11667,0.00000,0.00000,0.00000,0.00000,0.00000,0.00000,0.00000,0.00000,0.00000,0.00000,0.00000,0.00000,0.95839,0.76333,0.74613,-0.07103,0.06238,-1.14870,0.03822,0.14555,0.16271,-0.00762,0.02071,0.11667,0.0000,,,,0.0061,,,,,,"[1.000, 0.000, 0.000, 0.000, 1.000, 0.000]",0x100010,3.2950,2,0,-0.000621,0.000358,0.000886,0.0000,NO
66,3.3450,3.3450,0.0500,0.050,APPROACHING,0,956.45,756.00,737.93,4.11,-3.61,65.48,0.95645,0.75600,0.73793,0.07177,-0.06300,1.14281,-0.03935,-0.14760,-0.16535,0.00725,-0.02050,-0.11614,0.00000,0.00000,0.00000,0.00000,0.00000,0.00000,0.00000,0.00000,0.00000,0.00000,0.00000,0.00000,0.95645,0.75600,0.73793,-0.07177,0.06300,-1.14281,0.03935,0.14760,0.16535,-0.00725,0.02050,0.11614,0.0000,,,,0.0082,,,,,,"[1.000, 0.000, 0.000, 0.000, 1.000, 0.000]",0x100010,3.3450,2,0,-0.000628,0.000374,0.000781,0.0000,NO
67,3.3950,3.3950,0.0500,0.050,APPROACHING,0,954.45,748.57,729.59,4.15,-3.64,65.14,0.95445,0.74857,0.72959,0.07249,-0.06359,1.13694,-0.04048,-0.14965,-0.16800,0.00688,-0.02028,-0.11568,0.00000,0.00000,0.00000,0.00000,0.00000,0.00000,0.00000,0.00000,0.00000,0.00000,0.00000,0.00000,0.95445,0.74857,0.72959,-0.07249,0.06359,-1.13694,0.04048,0.14965,0.16800,-0.00688,0.02028,0.11568,0.0000,,,,0.0061,,,,,,"[1.000, 0.000, 0.000, 0.000, 1.000, 0.000]",0x100010,3.3950,2,0,-0.000623,0.000374,0.000868,0.0000,NO
68,3.4450,3.4450,0.0500,0.050,APPROACHING,0,952.40,741.04,721.13,4.19,-3.68,64.81,0.95240,0.74104,0.72113,0.07320,-0.06418,1.13110,-0.04164,-0.15169,-0.17065,0.00651,-0.02006,-0.11516,0.00000,0.00000,0.00000,0.00000,0.00000,0.00000,0.00000,0.00000,0.00000,0.00000,0.00000,0.00000,0.95240,0.74104,0.72113,-0.07320,0.06418,-1.13110,0.04164,0.15169,0.17065,-0.00651,0.02006,0.11516,0.0000,,,,0.0063,,,,,,"[1.000, 0.000, 0.000, 0.000, 1.000, 0.000]",0x100010,3.4450,2,0,-0.000630,0.000389,0.000792,0.0000,NO
69,3.4950,3.4950,0.0500,0.050,APPROACHING,0,950.29,733.40,712.53,4.23,-3.71,64.47,0.95029,0.73340,0.71253,0.07389,-0.06475,1.12529,-0.04280,-0.15372,-0.17330,0.00613,-0.01983,-0.11469,0.00000,0.00000,0.00000,0.00000,0.00000,0.00000,0.00000,0.00000,0.00000,0.00000,0.00000,0.00000,0.95029,0.73340,0.71253,-0.07389,0.06475,-1.12529,0.04280,0.15372,0.17330,-0.00613,0.01983,0.11469,0.0000,,,,0.0062,,,,,,"[1.000, 0.000, 0.000, 0.000, 1.000, 0.000]",0x100010,3.4950,2,0,-0.000626,0.000391,0.000846,0.0000,NO
70,3.5450,3.5450,0.0500,0.050,APPROACHING,0,948.12,725.67,703.80,4.27,-3.74,64.14,0.94812,0.72567,0.70380,0.07457,-0.06531,1.11950,-0.04398,-0.15575,-0.17595,0.00576,-0.01959,-0.11419,0.00000,0.00000,0.00000,0.00000,0.00000,0.00000,0.00000,0.00000,0.00000,0.00000,0.00000,0.00000,0.94812,0.72567,0.70380,-0.07457,0.06531,-1.11950,0.04398,0.15575,0.17595,-0.00576,0.01959,0.11419,0.0000,,,,0.0062,,,,,,"[1.000, 0.000, 0.000, 0.000, 1.000, 0.000]",0x100010,3.5450,2,0,-0.000630,0.000404,0.000800,0.0000,NO
71,3.5950,3.5950,0.0500,0.050,APPROACHING,0,945.89,717.83,694.93,4.31,-3.77,63.81,0.94589,0.71783,0.69493,0.07522,-0.06586,1.11373,-0.04517,-0.15776,-0.17860,0.00539,-0.01935,-0.11371,0.00000,0.00000,0.00000,0.00000,0.00000,0.00000,0.00000,0.00000,0.00000,0.00000,0.00000,0.00000,0.94589,0.71783,0.69493,-0.07522,0.06586,-1.11373,0.04517,0.15776,0.17860,-0.00539,0.01935,0.11371,0.0000,,,,0.0062,,,,,,"[1.000, 0.000, 0.000, 0.000, 0.600, 0.000]",0x100010,3.5950,2,1,-0.000628,0.000409,0.000831,0.0000,NO
72,3.6450,3.6450,0.0500,0.050,APPROACHING,0,943.60,709.89,685.94,4.35,-3.80,63.48,0.94360,0.70989,0.68594,0.07586,-0.06639,1.10799,-0.04637,-0.15976,-0.18125,0.00501,-0.01911,-0.11322,0.00000,0.00000,0.00000,0.00000,0.00000,0.00000,0.00000,0.00000,0.00000,0.00000,0.00000,0.00000,0.94360,0.70989,0.68594,-0.07586,0.06639,-1.10799,0.04637,0.15976,0.18125,-0.00501,0.01911,0.11322,0.0000,,,,0.0061,,,,,,"[1.000, 0.000, 0.000, 0.000, 0.000, 0.000]",0x100000,3.6450,1,1,-0.000631,0.000419,0.000803,0.0000,NO
73,3.6950,3.6950,0.0500,0.050,APPROACHING,0,941.26,701.85,676.87,4.38,-3.83,63.16,0.94126,0.70185,0.67687,0.07648,-0.06690,1.10227,-0.04749,-0.16199,-0.18142,0.00464,-0.01886,-0.11274,0.00000,0.00000,0.00000,0.00000,0.00000,0.00000,0.00000,0.00000,0.00000,0.00000,0.00000,0.00000,0.94126,0.70185,0.67687,-0.07648,0.06690,-1.10227,0.04749,0.16199,0.18142,-0.00464,0.01886,0.11274,0.0000,,,,0.0062,,,,,,"[1.000, 0.000, 0.000, 0.000, 0.000, 0.000]",0x100000,3.6950,1,0,-0.000626,0.000420,0.000821,0.0000,NO
74,3.7450,3.7450,0.0500,0.050,APPROACHING,0,938.85,693.69,667.79,4.42,-3.86,62.83,0.93885,0.69369,0.66779,0.07709,-0.06741,1.09658,-0.04862,-0.16422,-0.18159,0.00427,-0.01861,-0.11225,0.00000,0.00000,0.00000,0.00000,0.00000,0.00000,0.00000,0.00000,0.00000,0.00000,0.00000,0.00000,0.93885,0.69369,0.66779,-0.07709,0.06741,-1.09658,0.04862,0.16422,0.18159,-0.00427,0.01861,0.11225,0.0000,,,,0.0063,,,,,,"[1.000, 0.000, 0.000, 0.000, 0.000, 0.000]",0x100000,3.7450,1,0,-0.000623,0.000423,0.000805,0.0000,NO
75,3.7950,3.7950,0.0500,0.050,APPROACHING,0,936.39,685.42,658.71,4.45,-3.89,62.50,0.93639,0.68542,0.65871,0.07768,-0.06789,1.09091,-0.04977,-0.16643,-0.18175,0.00390,-0.01836,-0.11177,0.00000,0.00000,0.00000,0.00000,0.00000,0.00000,0.00000,0.00000,0.00000,0.00000,0.00000,0.00000,0.93639,0.68542,0.65871,-0.07768,0.06789,-1.09091,0.04977,0.16643,0.18175,-0.00390,0.01836,0.11177,0.0000,,,,0.0041,,,,,,"[1.000, 0.000, 0.000, 0.000, 0.000, 0.000]",0x100000,3.7950,1,0,-0.000607,0.000414,0.000889,0.0000,NO
76,3.8450,3.8450,0.0500,0.050,APPROACHING,0,933.88,677.05,649.62,4.48,-3.92,62.18,0.93388,0.67705,0.64962,0.07825,-0.06837,1.08527,-0.05093,-0.16864,-0.18192,0.00353,-0.01811,-0.11124,0.00000,0.00000,0.00000,0.00000,0.00000,0.00000,0.00000,0.00000,0.00000,0.00000,0.00000,0.00000,0.93388,0.67705,0.64962,-0.07825,0.06837,-1.08527,0.05093,0.16864,0.18192,-0.00353,0.01811,0.11124,0.0000,,,,0.0063,,,,,,"[1.000, 0.000, 0.000, 0.000, 0.000, 0.000]",0x100000,3.8450,1,0,-0.000634,0.000443,0.000672,0.0000,NO
77,3.8950,3.8950,0.0500,0.050,APPROACHING,0,931.30,668.56,640.52,4.51,-3.94,61.86,0.93130,0.66856,0.64052,0.07880,-0.06883,1.07965,-0.05210,-0.17084,-0.18210,0.00316,-0.01785,-0.11084,0.00000,0.00000,0.00000,0.00000,0.00000,0.00000,0.00000,0.00000,0.00000,0.00000,0.00000,0.00000,0.93130,0.66856,0.64052,-0.07880,0.06883,-1.07965,0.05210,0.17084,0.18210,-0.00316,0.01785,0.11084,0.0000,,,,0.0041,,,,,,"[1.000, 0.000, 0.000, 0.000, 0.000, 0.000]",0x100000,3.8950,1,0,-0.000584,0.000406,0.000978,0.0000,NO
78,3.9450,3.9450,0.0500,0.050,APPROACHING,0,928.67,659.96,631.41,4.55,-3.97,61.54,0.92867,0.65996,0.63141,0.07933,-0.06928,1.07405,-0.05328,-0.17304,-0.18227,0.00281,-0.01761,-0.11026,0.00000,0.00000,0.00000,0.00000,0.00000,0.00000,0.00000,0.00000,0.00000,0.00000,0.00000,0.00000,0.92867,0.65996,0.63141,-0.07933,0.06928,-1.07405,0.05328,0.17304,0.18227,-0.00281,0.01761,0.11026,0.0000,,,,0.0064,,,,,,"[1.000, 0.000, 0.000, 0.000, 0.000, 0.000]",0x100000,3.9450,1,0,-0.000636,0.000455,0.000606,0.0000,NO
79,3.9950,3.9950,0.0500,0.050,APPROACHING,0,925.97,651.26,622.29,4.58,-3.99,61.22,0.92597,0.65126,0.62229,0.07985,-0.06971,1.06848,-0.05447,-0.17523,-0.18244,0.00243,-0.01734,-0.10990,0.00000,0.00000,0.00000,0.00000,0.00000,0.00000,0.00000,0.00000,0.00000,0.00000,0.00000,0.00000,0.92597,0.65126,0.62229,-0.07985,0.06971,-1.06848,0.05447,0.17523,0.18244,-0.00243,0.01734,0.10990,0.0000,,,,0.0041,,,,,,"[1.000, 0.000, 0.000, 0.000, 0.000, 0.000]",0x100000,3.9950,1,0,-0.000568,0.000404,0.001019,0.0000,NO
80,4.0450,4.0450,0.0500,0.050,APPROACHING,0,923.22,642.44,613.17,4.60,-4.02,60.90,0.92322,0.64244,0.61317,0.08035,-0.07013,1.06294,-0.05568,-0.17741,-0.18262,0.00209,-0.01710,-0.10930,0.00000,0.00000,0.00000,0.00000,0.00000,0.00000,0.00000,0.00000,0.00000,0.00000,0.00000,0.00000,0.92322,0.64244,0.61317,-0.08035,0.07013,-1.06294,0.05568,0.17741,0.18262,-0.00209,0.01710,0.10930,0.0000,,,,0.0063,,,,,,"[1.000, 0.000, 0.000, 0.000, 0.000, 0.000]",0x100000,4.0450,1,0,-0.000634,0.000464,0.000573,0.0000,NO
81,4.0950,4.0950,0.0500,0.050,APPROACHING,0,920.40,633.52,604.03,4.63,-4.04,60.59,0.92040,0.63352,0.60403,0.08084,-0.07054,1.05742,-0.05690,-0.17959,-0.18279,0.00172,-0.01682,-0.10896,0.00000,0.00000,0.00000,0.00000,0.00000,0.00000,0.00000,0.00000,0.00000,0.00000,0.00000,0.00000,0.92040,0.63352,0.60403,-0.08084,0.07054,-1.05742,0.05690,0.17959,0.18279,-0.00172,0.01682,0.10896,0.0000,,,,0.0101,,,,,,"[1.000, 0.000, 0.000, 0.000, 0.000, 0.000]",0x100000,4.0950,1,0,-0.000566,0.000414,0.000972,0.0000,NO
82,4.1450,4.1450,0.0500,0.050,APPROACHING,0,917.53,624.48,594.89,4.66,-4.06,60.27,0.91753,0.62448,0.59489,0.08130,-0.07093,1.05192,-0.05813,-0.18176,-0.18297,0.00138,-0.01658,-0.10838,0.00000,0.00000,0.00000,0.00000,0.00000,0.00000,0.00000,0.00000,0.00000,0.00000,0.00000,0.00000,0.91753,0.62448,0.59489,-0.08130,0.07093,-1.05192,0.05813,0.18176,0.18297,-0.00138,0.01658,0.10838,0.0000,,,,0.0062,,,,,,"[1.000, 0.000, 0.000, 0.000, 0.000, 0.000]",0x100000,4.1450,1,0,-0.000608,0.000454,0.000671,0.0000,NO
83,4.1950,4.1950,0.0500,0.050,APPROACHING,0,914.59,615.34,585.73,4.68,-4.09,59.96,0.91459,0.61534,0.58573,0.08175,-0.07131,1.04645,-0.05937,-0.18392,-0.18315,0.00102,-0.01631,-0.10798,0.00000,0.00000,0.00000,0.00000,0.00000,0.00000,0.00000,0.00000,0.00000,0.00000,0.00000,0.00000,0.91459,0.61534,0.58573,-0.08175,0.07131,-1.04645,0.05937,0.18392,0.18315,-0.00102,0.01631,0.10798,0.0000,,,,0.0041,,,,,,"[1.000, 0.000, 0.000, 0.000, 0.000, 0.000]",0x100000,4.1950,1,0,-0.000557,0.000418,0.000962,0.0000,NO
84,4.2450,4.2450,0.0500,0.050,APPROACHING,0,911.59,606.09,576.57,4.71,-4.11,59.65,0.91159,0.60609,0.57657,0.08218,-0.07167,1.04100,-0.06062,-0.18608,-0.18332,0.00069,-0.01606,-0.10741,0.00000,0.00000,0.00000,0.00000,0.00000,0.00000,0.00000,0.00000,0.00000,0.00000,0.00000,0.00000,0.91159,0.60609,0.57657,-0.08218,0.07167,-1.04100,0.06062,0.18608,0.18332,-0.00069,0.01606,0.10741,0.0000,,,,0.0062,,,,,,"[1.000, 0.000, 0.000, 0.000, 0.000, 0.000]",0x100000,4.2450,1,0,-0.000614,0.000469,0.000603,0.0000,NO
85,4.2950,4.2950,0.0500,0.050,APPROACHING,0,908.53,596.73,567.40,4.73,-4.13,59.33,0.90853,0.59673,0.56740,0.08260,-0.07202,1.03558,-0.06189,-0.18822,-0.18350,0.00032,-0.01578,-0.10705,0.00000,0.00000,0.00000,0.00000,0.00000,0.00000,0.00000,0.00000,0.00000,0.00000,0.00000,0.00000,0.90853,0.59673,0.56740,-0.08260,0.07202,-1.03558,0.06189,0.18822,0.18350,-0.00032,0.01578,0.10705,0.0000,,,,0.0041,,,,,,"[1.000, 0.000, 0.000, 0.000, 0.000, 0.000]",0x100000,4.2950,1,0,-0.000537,0.000415,0.001005,0.0000,NO
86,4.3450,4.3450,0.0500,0.050,APPROACHING,0,905.40,587.27,558.22,4.76,-4.15,59.03,0.90540,0.58727,0.55822,0.08299,-0.07236,1.03018,-0.06316,-0.19037,-0.18368,0.00000,-0.01553,-0.10645,0.00000,0.00000,0.00000,0.00000,0.00000,0.00000,0.00000,0.00000,0.00000,0.00000,0.00000,0.00000,0.90540,0.58727,0.55822,-0.08299,0.07236,-1.03018,0.06316,0.19037,0.18368,-0.00000,0.01553,0.10645,0.0000,,,,0.0063,,,,,,"[1.000, 0.000, 0.000, 0.000, 0.000, 0.000]",0x100000,4.3450,1,0,-0.000613,0.000479,0.000569,0.0000,NO
87,4.3950,4.3950,0.0500,0.050,APPROACHING,0,902.21,577.70,549.03,4.78,-4.16,58.72,0.90221,0.57770,0.54903,0.08337,-0.07269,1.02481,-0.06445,-0.19250,-0.18387,-0.00036,-0.01525,-0.10611,0.00000,0.00000,0.00000,0.00000,0.00000,0.00000,0.00000,0.00000,0.00000,0.00000,0.00000,0.00000,0.90221,0.57770,0.54903,-0.08337,0.07269,-1.02481,0.06445,0.19250,0.18387,0.00036,0.01525,0.10611,0.0000,,,,0.0085,,,,,,"[1.000, 0.000, 0.000, 0.000, 0.000, 0.000]",0x100000,4.3950,1,0,-0.000535,0.000426,0.000959,0.0000,NO
88,4.4450,4.4450,0.0500,0.050,APPROACHING,0,898.96,568.02,539.83,4.80,-4.18,58.41,0.89896,0.56802,0.53983,0.08374,-0.07300,1.01946,-0.06575,-0.19463,-0.18405,-0.00068,-0.01500,-0.10554,0.00000,0.00000,0.00000,0.00000,0.00000,0.00000,0.00000,0.00000,0.00000,0.00000,0.00000,0.00000,0.89896,0.56802,0.53983,-0.08374,0.07300,-1.01946,0.06575,0.19463,0.18405,0.00068,0.01500,0.10554,0.0000,,,,0.0063,,,,,,"[1.000, 0.000, 0.000, 0.000, 0.000, 0.000]",0x100000,4.4450,1,0,-0.000583,0.000468,0.000664,0.0000,NO
89,4.4950,4.4950,0.0500,0.050,APPROACHING,0,895.64,558.23,530.63,4.82,-4.20,58.11,0.89564,0.55823,0.53063,0.08408,-0.07330,1.01413,-0.06706,-0.19675,-0.18423,-0.00103,-0.01472,-0.10515,0.00000,0.00000,0.00000,0.00000,0.00000,0.00000,0.00000,0.00000,0.00000,0.00000,0.00000,0.00000,0.89564,0.55823,0.53063,-0.08408,0.07330,-1.01413,0.06706,0.19675,0.18423,0.00103,0.01472,0.10515,0.0000,,,,0.0041,,,,,,"[1.000, 0.000, 0.000, 0.000, 0.000, 0.000]",0x100000,4.4950,1,0,-0.000525,0.000431,0.000949,0.0000,NO
90,4.5450,4.5450,0.0500,0.050,APPROACHING,0,892.25,548.34,521.41,4.84,-4.22,57.80,0.89225,0.54834,0.52141,0.08441,-0.07359,1.00883,-0.06839,-0.19886,-0.18441,-0.00134,-0.01446,-0.10458,0.00000,0.00000,0.00000,0.00000,0.00000,0.00000,0.00000,0.00000,0.00000,0.00000,0.00000,0.00000,0.89225,0.54834,0.52141,-0.08441,0.07359,-1.00883,0.06839,0.19886,0.18441,0.00134,0.01446,0.10458,0.0000,,,,0.0064,,,,,,"[1.000, 0.000, 0.000, 0.000, 0.000, 0.000]",0x100000,4.5450,1,0,-0.000590,0.000485,0.000597,0.0000,NO
91,4.5950,4.5950,0.0500,0.050,APPROACHING,0,888.80,538.35,512.19,4.85,-4.23,57.50,0.88880,0.53835,0.51219,0.08473,-0.07386,1.00356,-0.06972,-0.20097,-0.18460,-0.00169,-0.01417,-0.10423,0.00000,0.00000,0.00000,0.00000,0.00000,0.00000,0.00000,0.00000,0.00000,0.00000,0.00000,0.00000,0.88880,0.53835,0.51219,-0.08473,0.07386,-1.00356,0.06972,0.20097,0.18460,0.00169,0.01417,0.10423,0.0000,,,,0.0041,,,,,,"[1.000, 0.000, 0.000, 0.000, 0.000, 0.000]",0x100000,4.5950,1,0,-0.000502,0.000428,0.000991,0.0000,NO
92,4.6450,4.6450,0.0500,0.050,APPROACHING,0,885.28,528.25,502.95,4.87,-4.25,57.20,0.88528,0.52825,0.50295,0.08502,-0.07412,0.99830,-0.07106,-0.20307,-0.18478,-0.00199,-0.01392,-0.10364,0.00000,0.00000,0.00000,0.00000,0.00000,0.00000,0.00000,0.00000,0.00000,0.00000,0.00000,0.00000,0.88528,0.52825,0.50295,-0.08502,0.07412,-0.99830,0.07106,0.20307,0.18478,0.00199,0.01392,0.10364,0.0000,,,,0.0063,,,,,,"[1.000, 0.000, 0.000, 0.000, 0.000, 0.000]",0x100000,4.6450,1,0,-0.000589,0.000497,0.000564,0.0000,NO
93,4.6950,4.6950,0.0500,0.050,APPROACHING,0,881.69,518.04,493.71,4.89,-4.26,56.90,0.88169,0.51804,0.49371,0.08530,-0.07436,0.99308,-0.07242,-0.20516,-0.18497,-0.00234,-0.01362,-0.10330,0.00000,0.00000,0.00000,0.00000,0.00000,0.00000,0.00000,0.00000,0.00000,0.00000,0.00000,0.00000,0.88169,0.51804,0.49371,-0.08530,0.07436,-0.99308,0.07242,0.20516,0.18497,0.00234,0.01362,0.10330,0.0000,,,,0.0041,,,,,,"[0.841, 0.000, 0.000, 0.000, 0.000, 0.000]",0x100000,4.6950,1,1,-0.000485,0.000428,0.001009,0.0000,NO
94,4.7450,4.7450,0.0500,0.050,APPROACHING,0,878.04,507.73,484.46,4.90,-4.27,56.60,0.87804,0.50773,0.48446,0.08557,-0.07460,0.98787,-0.07379,-0.20725,-0.18515,-0.00263,-0.01337,-0.10271,0.00000,0.00000,0.00000,0.00000,0.00000,0.00000,0.00000,0.00000,0.00000,0.00000,0.00000,0.00000,0.87804,0.50773,0.48446,-0.08557,0.07460,-0.98787,0.07379,0.20725,0.18515,0.00263,0.01337,0.10271,0.0000,,,,0.0040,,,,,,"[0.001, 0.000, 0.000, 0.000, 0.000, 0.000]",0x000000,4.7450,0,1,-0.000563,0.000491,0.000632,0.0000,NO
95,4.7950,4.7950,0.0500,0.050,APPROACHING,0,874.35,497.37,475.20,4.92,-4.29,56.30,0.87435,0.49737,0.47520,0.08581,-0.07482,0.98269,-0.07379,-0.20725,-0.18515,-0.00296,-0.01308,-0.10233,0.00000,0.00000,0.00000,0.00000,0.00000,0.00000,0.00000,0.00000,0.00000,0.00000,0.00000,0.00000,0.87435,0.49737,0.47520,-0.08581,0.07482,-0.98269,0.07379,0.20725,0.18515,0.00296,0.01308,0.10233,0.0000,,,,0.0040,,,,,,"[0.000, 0.000, 0.000, 0.000, 0.000, 0.000]",0x000000,4.7950,0,0,-0.000503,0.000455,0.000874,0.0000,NO
96,4.8450,4.8450,0.0500,0.050,APPROACHING,0,870.66,487.01,465.94,4.93,-4.30,56.01,0.87066,0.48701,0.46594,0.08604,-0.07502,0.97754,-0.07379,-0.20725,-0.18515,-0.00326,-0.01281,-0.10181,0.00000,0.00000,0.00000,0.00000,0.00000,0.00000,0.00000,0.00000,0.00000,0.00000,0.00000,0.00000,0.87066,0.48701,0.46594,-0.08604,0.07502,-0.97754,0.07379,0.20725,0.18515,0.00326,0.01281,0.10181,0.0000,,,,0.0041,,,,,,"[0.000, 0.000, 0.000, 0.000, 0.000, 0.000]",0x000000,4.8450,0,0,-0.000530,0.000484,0.000714,0.0000,NO
97,4.8950,4.8950,0.0500,0.050,APPROACHING,0,866.97,476.64,456.68,4.94,-4.31,55.71,0.86697,0.47664,0.45668,0.08626,-0.07522,0.97241,-0.07379,-0.20725,-0.18515,-0.00358,-0.01252,-0.10139,0.00000,0.00000,0.00000,0.00000,0.00000,0.00000,0.00000,0.00000,0.00000,0.00000,0.00000,0.00000,0.86697,0.47664,0.45668,-0.08626,0.07522,-0.97241,0.07379,0.20725,0.18515,0.00358,0.01252,0.10139,0.0000,,,,0.0042,,,,,,"[0.000, 0.000, 0.000, 0.000, 0.000, 0.000]",0x000000,4.8950,0,0,-0.000500,0.000471,0.000816,0.0000,NO
98,4.9450,4.9450,0.0500,0.050,APPROACHING,0,863.28,466.28,447.42,4.95,-4.32,55.42,0.86328,0.46628,0.44742,0.08646,-0.07540,0.96730,-0.07379,-0.20725,-0.18515,-0.00387,-0.01224,-0.10090,0.00000,0.00000,0.00000,0.00000,0.00000,0.00000,0.00000,0.00000,0.00000,0.00000,0.00000,0.00000,0.86328,0.46628,0.44742,-0.08646,0.07540,-0.96730,0.07379,0.20725,0.18515,0.00387,0.01224,0.10090,0.0000,,,,0.0042,,,,,,"[0.000, 0.000, 0.000, 0.000, 0.000, 0.000]",0x000000,4.9450,0,0,-0.000507,0.000484,0.000747,0.0000,NO
99,4.9950,4.9950,0.0500,0.050,APPROACHING,0,859.59,455.92,438.17,4.96,-4.33,55.13,0.85959,0.45592,0.43817,0.08664,-0.07556,0.96222,-0.07379,-0.20725,-0.18515,-0.00417,-0.01195,-0.10046,0.00000,0.00000,0.00000,0.00000,0.00000,0.00000,0.00000,0.00000,0.00000,0.00000,0.00000,0.00000,0.85959,0.45592,0.43817,-0.08664,0.07556,-0.96222,0.07379,0.20725,0.18515,0.00417,0.01195,0.10046,0.0000,,,,0.0041,,,,,,"[0.000, 0.000, 0.000, 0.000, 0.000, 0.000]",0x000000,4.9950,0,0,-0.000490,0.000481,0.000789,0.0000,NO
100,5.0450,5.0450,0.0500,0.050,APPROACHING,0,855.90,445.56,428.91,4.97,-4.34,54.84,0.85590,0.44556,0.42891,0.08680,-0.07572,0.95716,-0.07379,-0.20725,-0.18515,-0.00447,-0.01167,-0.09999,0.00000,0.00000,0.00000,0.00000,0.00000,0.00000,0.00000,0.00000,0.00000,0.00000,0.00000,0.00000,0.85590,0.44556,0.42891,-0.08680,0.07572,-0.95716,0.07379,0.20725,0.18515,0.00447,0.01167,0.09999,0.0000,,,,0.0060,,,,,,"[0.000, 0.000, 0.000, 0.000, 0.000, 0.000]",0x000000,5.0450,0,0,-0.000488,0.000488,0.000758,0.0000,NO
101,5.0950,5.0950,0.0500,0.050,APPROACHING,0,852.21,435.19,419.65,4.98,-4.35,54.55,0.85221,0.43519,0.41965,0.08695,-0.07586,0.95213,-0.07379,-0.20725,-0.18515,-0.00476,-0.01138,-0.09954,0.00000,0.00000,0.00000,0.00000,0.00000,0.00000,0.00000,0.00000,0.00000,0.00000,0.00000,0.00000,0.85221,0.43519,0.41965,-0.08695,0.07586,-0.95213,0.07379,0.20725,0.18515,0.00476,0.01138,0.09954,0.0000,,,,0.0041,,,,,,"[0.000, 0.000, 0.000, 0.000, 0.000, 0.000]",0x000000,5.0950,0,0,-0.000476,0.000489,0.000777,0.0000,NO
102,5.1450,5.1450,0.0500,0.050,APPROACHING,0,848.52,424.83,410.39,4.99,-4.35,54.27,0.84852,0.42483,0.41039,0.08709,-0.07599,0.94712,-0.07379,-0.20725,-0.18515,-0.00504,-0.01109,-0.09907,0.00000,0.00000,0.00000,0.00000,0.00000,0.00000,0.00000,0.00000,0.00000,0.00000,0.00000,0.00000,0.84852,0.42483,0.41039,-0.08709,0.07599,-0.94712,0.07379,0.20725,0.18515,0.00504,0.01109,0.09907,0.0000,,,,0.0042,,,,,,"[0.000, 0.000, 0.000, 0.000, 0.000, 0.000]",0x000000,5.1450,0,0,-0.000471,0.000494,0.000762,0.0000,NO
103,5.1950,5.1950,0.0500,0.050,APPROACHING,0,844.83,414.47,401.14,5.00,-4.36,53.98,0.84483,0.41447,0.40114,0.08721,-0.07610,0.94214,-0.07379,-0.20725,-0.18515,-0.00532,-0.01079,-0.09862,0.00000,0.00000,0.00000,0.00000,0.00000,0.00000,0.00000,0.00000,0.00000,0.00000,0.00000,0.00000,0.84483,0.41447,0.40114,-0.08721,0.07610,-0.94214,0.07379,0.20725,0.18515,0.00532,0.01079,0.09862,0.0000,,,,0.0041,,,,,,"[0.000, 0.000, 0.000, 0.000, 0.000, 0.000]",0x000000,5.1950,0,0,-0.000461,0.000496,0.000769,0.0000,NO
104,5.2450,5.2450,0.0500,0.050,APPROACHING,0,841.14,404.11,391.88,5.00,-4.37,53.70,0.84114,0.40411,0.39188,0.08731,-0.07620,0.93717,-0.07379,-0.20725,-0.18515,-0.00559,-0.01050,-0.09816,0.00000,0.00000,0.00000,0.00000,0.00000,0.00000,0.00000,0.00000,0.00000,0.00000,0.00000,0.00000,0.84114,0.40411,0.39188,-0.08731,0.07620,-0.93717,0.07379,0.20725,0.18515,0.00559,0.01050,0.09816,0.0000,,,,0.0042,,,,,,"[0.000, 0.000, 0.000, 0.000, 0.000, 0.000]",0x000000,5.2450,0,0,-0.000454,0.000500,0.000762,0.0000,NO
105,5.2950,5.2950,0.0500,0.050,APPROACHING,0,837.45,393.74,382.62,5.01,-4.37,53.41,0.83745,0.39374,0.38262,0.08740,-0.07629,0.93224,-0.07379,-0.20725,-0.18515,-0.00586,-0.01020,-0.09771,0.00000,0.00000,0.00000,0.00000,0.00000,0.00000,0.00000,0.00000,0.00000,0.00000,0.00000,0.00000,0.83745,0.39374,0.38262,-0.08740,0.07629,-0.93224,0.07379,0.20725,0.18515,0.00586,0.01020,0.09771,0.0000,,,,0.0041,,,,,,"[0.000, 0.000, 0.000, 0.000, 0.000, 0.000]",0x000000,5.2950,0,0,-0.000444,0.000503,0.000764,0.0000,NO
106,5.3450,5.3450,0.0500,0.050,APPROACHING,0,833.77,383.38,373.36,5.01,-4.38,53.13,0.83377,0.38338,0.37336,0.08748,-0.07637,0.92732,-0.07379,-0.20725,-0.18515,-0.00613,-0.00990,-0.09726,0.00000,0.00000,0.00000,0.00000,0.00000,0.00000,0.00000,0.00000,0.00000,0.00000,0.00000,0.00000,0.83377,0.38338,0.37336,-0.08748,0.07637,-0.92732,0.07379,0.20725,0.18515,0.00613,0.00990,0.09726,0.0000,,,,0.0041,,,,,,"[0.000, 0.000, 0.000, 0.000, 0.000, 0.000]",0x000000,5.3450,0,0,-0.000436,0.000507,0.000760,0.0000,NO
107,5.3950,5.3950,0.0500,0.050,APPROACHING,0,830.08,373.02,364.10,5.02,-4.38,52.85,0.83008,0.37302,0.36410,0.08754,-0.07643,0.92243,-0.07379,-0.20725,-0.18515,-0.00639,-0.00960,-0.09681,0.00000,0.00000,0.00000,0.00000,0.00000,0.00000,0.00000,0.00000,0.00000,0.00000,0.00000,0.00000,0.83008,0.37302,0.36410,-0.08754,0.07643,-0.92243,0.07379,0.20725,0.18515,0.00639,0.00960,0.09681,0.0000,,,,0.0041,,,,,,"[0.000, 0.000, 0.000, 0.000, 0.000, 0.000]",0x000000,5.3950,0,0,-0.000427,0.000510,0.000760,0.0000,NO
108,5.4450,5.4450,0.0500,0.050,APPROACHING,0,826.39,362.66,354.85,5.02,-4.38,52.57,0.82639,0.36266,0.35485,0.08758,-0.07648,0.91757,-0.07379,-0.20725,-0.18515,-0.00664,-0.00930,-0.09635,0.00000,0.00000,0.00000,0.00000,0.00000,0.00000,0.00000,0.00000,0.00000,0.00000,0.00000,0.00000,0.82639,0.36266,0.35485,-0.08758,0.07648,-0.91757,0.07379,0.20725,0.18515,0.00664,0.00930,0.09635,0.0000,,,,0.0041,,,,,,"[0.000, 0.000, 0.000, 0.000, 0.000, 0.000]",0x000000,5.4450,0,0,-0.000418,0.000513,0.000757,0.0000,NO
109,5.4950,5.4950,0.0500,0.050,APPROACHING,0,822.70,352.29,345.59,5.02,-4.38,52.30,0.82270,0.35229,0.34559,0.08762,-0.07651,0.91272,-0.07379,-0.20725,-0.18515,-0.00689,-0.00899,-0.09590,0.00000,0.00000,0.00000,0.00000,0.00000,0.00000,0.00000,0.00000,0.00000,0.00000,0.00000,0.00000,0.82270,0.35229,0.34559,-0.08762,0.07651,-0.91272,0.07379,0.20725,0.18515,0.00689,0.00899,0.09590,0.0000,,,,0.0041,,,,,,"[0.000, 0.000, 0.000, 0.000, 0.000, 0.000]",0x000000,5.4950,0,0,-0.000409,0.000516,0.000756,0.0000,NO
110,5.5450,5.5450,0.0500,0.050,APPROACHING,0,819.01,341.93,336.33,5.02,-4.38,52.02,0.81901,0.34193,0.33633,0.08763,-0.07653,0.90791,-0.07379,-0.20725,-0.18515,-0.00713,-0.00868,-0.09545,0.00000,0.00000,0.00000,0.00000,0.00000,0.00000,0.00000,0.00000,0.00000,0.00000,0.00000,0.00000,0.81901,0.34193,0.33633,-0.08763,0.07653,-0.90791,0.07379,0.20725,0.18515,0.00713,0.00868,0.09545,0.0000,,,,0.0041,,,,,,"[0.000, 0.000, 0.000, 0.000, 0.000, 0.000]",0x000000,5.5450,0,0,-0.000399,0.000520,0.000754,0.0000,NO
111,5.5950,5.5950,0.0500,0.050,APPROACHING,0,815.32,331.57,327.07,5.02,-4.39,51.74,0.81532,0.33157,0.32707,0.08764,-0.07654,0.90311,-0.07379,-0.20725,-0.18515,-0.00737,-0.00838,-0.09501,0.00000,0.00000,0.00000,0.00000,0.00000,0.00000,0.00000,0.00000,0.00000,0.00000,0.00000,0.00000,0.81532,0.33157,0.32707,-0.08764,0.07654,-0.90311,0.07379,0.20725,0.18515,0.00737,0.00838,0.09501,0.0000,,,,0.0041,,,,,,"[0.000, 0.000, 0.000, 0.000, 0.000, 0.000]",0x000000,5.5950,0,0,-0.000390,0.000523,0.000753,0.0000,NO
112,5.6450,5.6450,0.0500,0.050,APPROACHING,0,811.63,321.21,317.82,5.02,-4.39,51.47,0.81163,0.32121,0.31782,0.08763,-0.07654,0.89834,-0.07379,-0.20725,-0.18515,-0.00760,-0.00806,-0.09456,0.00000,0.00000,0.00000,0.00000,0.00000,0.00000,0.00000,0.00000,0.00000,0.00000,0.00000,0.00000,0.81163,0.32121,0.31782,-0.08763,0.07654,-0.89834,0.07379,0.20725,0.18515,0.00760,0.00806,0.09456,0.0000,,,,0.0040,,,,,,"[0.000, 0.000, 0.000, 0.000, 0.000, 0.000]",0x000000,5.6450,0,0,-0.000380,0.000526,0.000751,0.0000,NO
113,5.6950,5.6950,0.0500,0.050,APPROACHING,0,807.94,310.85,308.56,5.02,-4.38,51.20,0.80794,0.31085,0.30856,0.08761,-0.07652,0.89359,-0.07379,-0.20725,-0.18515,-0.00783,-0.00775,-0.09411,0.00000,0.00000,0.00000,0.00000,0.00000,0.00000,0.00000,0.00000,0.00000,0.00000,0.00000,0.00000,0.80794,0.31085,0.30856,-0.08761,0.07652,-0.89359,0.07379,0.20725,0.18515,0.00783,0.00775,0.09411,0.0000,,,,0.0040,,,,,,"[0.000, 0.000, 0.000, 0.000, 0.000, 0.000]",0x000000,5.6950,0,0,-0.000370,0.000530,0.000750,0.0000,NO
114,5.7450,5.7450,0.0500,0.050,APPROACHING,0,804.25,300.48,299.30,5.02,-4.38,50.93,0.80425,0.30048,0.29930,0.08757,-0.07648,0.88887,-0.07379,-0.20725,-0.18515,-0.00805,-0.00744,-0.09366,0.00000,0.00000,0.00000,0.00000,0.00000,0.00000,0.00000,0.00000,0.00000,0.00000,0.00000,0.00000,0.80425,0.30048,0.29930,-0.08757,0.07648,-0.88887,0.07379,0.20725,0.18515,0.00805,0.00744,0.09366,0.0000,,,,0.0040,,,,,,"[0.000, 0.000, 0.000, 0.000, 0.000, 0.000]",0x000000,5.7450,0,0,-0.000359,0.000533,0.000748,0.0000,NO
115,5.7950,5.7950,0.0500,0.050,APPROACHING,0,800.56,290.12,290.04,5.01,-4.38,50.66,0.80056,0.29012,0.29004,0.08752,-0.07644,0.88417,-0.07379,-0.20725,-0.18515,-0.00826,-0.00712,-0.09322,0.00000,0.00000,0.00000,0.00000,0.00000,0.00000,0.00000,0.00000,0.00000,0.00000,0.00000,0.00000,0.80056,0.29012,0.29004,-0.08752,0.07644,-0.88417,0.07379,0.20725,0.18515,0.00826,0.00712,0.09322,0.0000,,,,0.0041,,,,,,"[0.000, 0.000, 0.000, 0.000, 0.000, 0.000]",0x000000,5.7950,0,0,-0.000349,0.000536,0.000747,0.0000,NO
116,5.8450,5.8450,0.0500,0.050,APPROACHING,0,796.87,279.76,280.79,5.01,-4.38,50.39,0.79687,0.27976,0.28079,0.08746,-0.07638,0.87949,-0.07379,-0.20725,-0.18515,-0.00847,-0.00680,-0.09278,0.00000,0.00000,0.00000,0.00000,0.00000,0.00000,0.00000,0.00000,0.00000,0.00000,0.00000,0.00000,0.79687,0.27976,0.28079,-0.08746,0.07638,-0.87949,0.07379,0.20725,0.18515,0.00847,0.00680,0.09278,0.0000,,,,0.0040,,,,,,"[0.000, 0.000, 0.000, 0.000, 0.000, 0.000]",0x000000,5.8450,0,0,-0.000338,0.000539,0.000745,0.0000,NO
