Time,Current_X,Current_Y,Current_Z,Current_Roll,Current_Pitch,Current_Yaw,Current_VX,Current_VY,Current_VZ,Current_WX,Current_WY,Current_WZ,Target_X,Target_Y,Target_Z,Target_Roll,Target_Pitch,Target_Yaw,Error_X,Error_Y,Error_Z,Error_Roll,Error_Pitch,Error_Yaw,Command_Vector,Thruster_1_Cmd,Thruster_1_Val,Thruster_2_Cmd,Thruster_2_Val,Thruster_3_Cmd,Thruster_3_Val,Thruster_4_Cmd,Thruster_4_Val,Thruster_5_Cmd,Thruster_5_Val,Thruster_6_Cmd,Thruster_6_Val
0.0050,1.00000,1.00000,1.00000,0.00000,0.00000,1.57080,0.00000,0.00000,0.00000,0.00000,0.00000,0.00000,0.00000,0.00000,0.00000,0.00000,0.00000,1.57080,-1.00000,-1.00000,-1.00000,0.00000,0.00000,0.00000,"[0.000, 0.000, 0.000, 0.000, 0.000, 0.000]",0.000,0.000,0.000,0.000,0.000,0.000,0.000,0.000,0.000,0.000,0.000,0.000
0.0100,1.00000,1.00000,1.00000,0.00000,0.00000,1.57080,0.00000,0.00000,0.00000,0.00000,0.00000,0.00000,0.00000,0.00000,0.00000,0.00000,0.00000,1.57080,-1.00000,-1.00000,-1.00000,0.00000,0.00000,0.00000,"[0.000, 0.000, 0.000, 0.000, 0.000, 0.000]",0.000,0.000,0.000,0.000,0.000,0.000,0.000,0.000,0.000,0.000,0.000,0.000
0.0150,1.00000,1.00000,1.00000,0.00000,0.00000,1.57080,0.00000,0.00000,0.00000,0.00000,0.00000,0.00000,0.00000,0.00000,0.00000,0.00000,0.00000,1.57080,-1.00000,-1.00000,-1.00000,0.00000,0.00000,0.00000,"[0.000, 0.000, 0.000, 0.000, 0.000, 0.000]",0.000,0.000,0.000,0.000,0.000,0.000,0.000,0.000,0.000,0.000,0.000,0.000
0.0200,1.00000,1.00000,1.00000,0.00000,0.00000,1.57080,0.00000,0.00000,0.00000,0.00000,0.00000,0.00000,0.00000,0.00000,0.00000,0.00000,0.00000,1.57080,-1.00000,-1.00000,-1.00000,0.00000,0.00000,0.00000,"[0.000, 0.000, 0.000, 0.000, 0.000, 0.000]",0.000,0.000,0.000,0.000,0.000,0.000,0.000,0.000,0.000,0.000,0.000,0.000
0.0250,1.00000,1.00000,1.00000,0.00000,0.00000,1.57080,0.00000,0.00000,0.00000,0.00000,0.00000,0.00000,0.00000,0.00000,0.00000,0.00000,0.00000,1.57080,-1.00000,-1.00000,-1.00000,0.00000,0.00000,0.00000,"[0.000, 0.000, 0.000, 0.000, 0.000, 0.000]",0.000,0.000,0.000,0.000,0.000,0.000,0.000,0.000,0.000,0.000,0.000,0.000
0.0300,1.00000,1.00000,1.00000,0.00000,0.00000,1.57080,0.00000,0.00000,0.00000,0.00000,0.00000,0.00000,0.00000,0.00000,0.00000,0.00000,0.00000,1.57080,-1.00000,-1.00000,-1.00000,0.00000,0.00000,0.00000,"[0.000, 0.000, 0.000, 0.000, 0.000, 0.000]",0.000,0.000,0.000,0.000,0.000,0.000,0.000,0.000,0.000,0.000,0.000,0.000
0.0350,1.00000,1.00000,1.00000,0.00000,0.00000,1.57080,0.00000,0.00000,0.00000,0.00000,0.00000,0.00000,0.00000,0.00000,0.00000,0.00000,0.00000,1.57080,-1.00000,-1.00000,-1.00000,0.00000,0.00000,0.00000,"[0.000, 0.000, 0.000, 0.000, 0.000, 0.000]",0.000,0.000,0.000,0.000,0.000,0.000,0.000,0.000,0.000,0.000,0.000,0.000
0.0400,1.00000,1.00000,1.00000,0.00000,0.00000,1.57080,0.00000,0.00000,0.00000,0.00000,0.00000,0.00000,0.00000,0.00000,0.00000,0.00000,0.00000,1.57080,-1.00000,-1.00000,-1.00000,0.00000,0.00000,0.00000,"[0.000, 0.000, 0.000, 0.000, 0.000, 0.000]",0.000,0.000,0.000,0.000,0.000,0.000,0.000,0.000,0.000,0.000,0.000,0.000
0.0450,1.00000,1.00000,1.00000,0.00000,0.00000,1.57080,0.00000,0.00000,0.00000,0.00000,0.00000,0.00000,0.00000,0.00000,0.00000,0.00000,0.00000,1.57080,-1.00000,-1.00000,-1.00000,0.00000,0.00000,0.00000,"[0.000, 0.000, 0.000, 0.000, 0.000, 0.000]",0.000,0.000,0.000,0.000,0.000,0.000,0.000,0.000,0.000,0.000,0.000,0.000
0.0500,1.00000,1.00000,1.00000,0.00000,0.00000,1.57080,0.00000,0.00000,0.00000,0.00000,0.00000,0.00000,0.00000,0.00000,0.00000,0.00000,0.00000,0.00000,-1.00000,-1.00000,-1.00000,0.00000,0.00000,-1.57080,"[0.000, 0.000, 0.000, 0.000, 0.000, 0.000]",0.000,0.000,0.000,0.000,0.000,0.000,0.000,0.000,0.000,0.000,0.000,0.000
0.0550,1.00000,1.00000,1.00000,0.00000,0.00000,1.57080,0.00000,0.00000,0.00000,0.00000,0.00000,0.00000,0.00000,0.00000,0.00000,0.00000,0.00000,0.00000,-1.00000,-1.00000,-1.00000,0.00000,0.00000,-1.57080,"[0.000, 0.000, 0.000, 0.000, 0.000, 0.000]",0.000,0.000,0.000,0.000,0.000,0.000,0.000,0.000,0.000,0.000,0.000,0.000
0.0600,1.00000,1.00000,1.00000,0.00000,0.00000,1.57080,0.00000,0.00000,0.00000,0.00000,0.00000,0.00000,0.00000,0.00000,0.00000,0.00000,0.00000,0.00000,-1.00000,-1.00000,-1.00000,0.00000,0.00000,-1.57080,"[0.000, 0.000, 0.000, 0.000, 0.000, 0.000]",0.000,0.000,0.000,0.000,0.000,0.000,0.000,0.000,0.000,0.000,0.000,0.000
0.0650,1.00000,1.00000,1.00000,0.00000,0.00000,1.57080,0.00000,0.00000,0.00000,0.00000,0.00000,0.00000,0.00000,0.00000,0.00000,0.00000,0.00000,0.00000,-1.00000,-1.00000,-1.00000,0.00000,0.00000,-1.57080,"[0.000, 0.000, 0.000, 0.000, 0.000, 0.000]",0.000,0.000,0.000,0.000,0.000,0.000,0.000,0.000,0.000,0.000,0.000,0.000
0.0700,1.00000,1.00000,1.00000,0.00000,0.00000,1.57080,0.00000,0.00000,0.00000,0.00000,0.00000,0.00000,0.00000,0.00000,0.00000,0.00000,0.00000,0.00000,-1.00000,-1.00000,-1.00000,0.00000,0.00000,-1.57080,"[0.000, 0.000, 0.000, 0.000, 0.000, 0.000]",0.000,0.000,0.000,0.000,0.000,0.000,0.000,0.000,0.000,0.000,0.000,0.000
0.0750,1.00000,1.00000,1.00000,0.00000,0.00000,1.57080,0.00000,0.00000,0.00000,0.00000,0.00000,0.00000,0.00000,0.00000,0.00000,0.00000,0.00000,0.00000,-1.00000,-1.00000,-1.00000,0.00000,0.00000,-1.57080,"[0.000, 0.000, 0.000, 0.000, 0.000, 0.000]",0.000,0.000,0.000,0.000,0.000,0.000,0.000,0.000,0.000,0.000,0.000,0.000
0.0800,1.00000,1.00000,1.00000,0.00000,0.00000,1.57080,0.00000,0.00000,0.00000,0.00000,0.00000,0.00000,0.00000,0.00000,0.00000,0.00000,0.00000,0.00000,-1.00000,-1.00000,-1.00000,0.00000,0.00000,-1.57080,"[0.000, 0.000, 0.000, 0.000, 0.000, 0.000]",0.000,0.000,0.000,0.000,0.000,0.000,0.000,0.000,0.000,0.000,0.000,0.000
0.0850,1.00000,1.00000,1.00000,0.00000,0.00000,1.57080,0.00000,0.00000,0.00000,0.00000,0.00000,0.00000,0.00000,0.00000,0.00000,0.00000,0.00000,0.00000,-1.00000,-1.00000,-1.00000,0.00000,0.00000,-1.57080,"[0.000, 0.000, 0.000, 0.000, 0.000, 0.000]",0.000,0.000,0.000,0.000,0.000,0.000,0.000,0.000,0.000,0.000,0.000,0.000
0.0900,1.00000,1.00000,1.00000,0.00000,0.00000,1.57080,0.00000,0.00000,0.00000,0.00000,0.00000,0.00000,0.00000,0.00000,0.00000,0.00000,0.00000,0.00000,-1.00000,-1.00000,-1.00000,0.00000,0.00000,-1.57080,"[0.000, 0.000, 0.000, 0.000, 0.000, 0.000]",0.000,0.000,0.000,0.000,0.000,0.000,0.000,0.000,0.000,0.000,0.000,0.000
0.0950,1.00000,1.00000,1.00000,0.00000,0.00000,1.57080,0.00000,0.00000,0.00000,0.00000,0.00000,0.00000,0.00000,0.00000,0.00000,0.00000,0.00000,0.00000,-1.00000,-1.00000,-1.00000,0.00000,0.00000,-1.57080,"[0.000, 0.000, 0.000, 0.000, 0.000, 0.000]",0.000,0.000,0.000,0.000,0.000,0.000,0.000,0.000,0.000,0.000,0.000,0.000
0.1000,1.00000,1.00000,1.00000,0.00000,0.00000,1.57080,0.00000,0.00000,0.00000,0.00000,0.00000,0.00000,0.00000,0.00000,0.00000,0.00000,0.00000,0.00000,-1.00000,-1.00000,-1.00000,0.00000,0.00000,-1.57080,"[0.000, 0.000, 0.000, 0.000, 0.000, 0.000]",0.000,0.000,0.000,0.000,0.000,0.000,0.000,0.000,0.000,0.000,0.000,0.000
0.1050,1.00000,1.00000,1.00000,0.00000,0.00000,1.57080,0.00000,0.00000,0.00000,0.00000,0.00000,0.00000,0.00000,0.00000,0.00000,0.00000,0.00000,0.00000,-1.00000,-1.00000,-1.00000,0.00000,0.00000,-1.57080,"[0.000, 0.000, 0.000, 0.000, 0.000, 0.000]",0.000,0.000,0.000,0.000,0.000,0.000,0.000,0.000,0.000,0.000,0.000,0.000
0.1100,1.00000,1.00000,1.00000,0.00000,0.00000,1.57080,0.00000,0.00000,0.00000,0.00000,0.00000,0.00000,0.00000,0.00000,0.00000,0.00000,0.00000,0.00000,-1.00000,-1.00000,-1.00000,0.00000,0.00000,-1.57080,"[0.000, 0.000, 0.000, 0.000, 0.000, 0.000]",0.000,0.000,0.000,0.000,0.000,0.000,0.000,0.000,0.000,0.000,0.000,0.000
0.1150,1.00000,1.00000,1.00000,0.00000,0.00000,1.57080,0.00000,0.00000,0.00000,0.00000,0.00000,0.00000,0.00000,0.00000,0.00000,0.00000,0.00000,0.00000,-1.00000,-1.00000,-1.00000,0.00000,0.00000,-1.57080,"[0.000, 0.000, 0.000, 0.000, 0.000, 0.000]",0.000,0.000,0.000,0.000,0.000,0.000,0.000,0.000,0.000,0.000,0.000,0.000
0.1200,1.00000,1.00000,1.00000,0.00000,0.00000,1.57080,0.00000,0.00000,0.00000,0.00000,0.00000,0.00000,0.00000,0.00000,0.00000,0.00000,0.00000,0.00000,-1.00000,-1.00000,-1.00000,0.00000,0.00000,-1.57080,"[0.000, 0.000, 0.000, 0.000, 0.000, 0.000]",0.000,0.000,0.000,0.000,0.000,0.000,0.000,0.000,0.000,0.000,0.000,0.000
0.1250,1.00000,1.00000,1.00000,0.00000,0.00000,1.57080,0.00000,0.00000,0.00000,0.00000,0.00000,0.00000,0.00000,0.00000,0.00000,0.00000,0.00000,0.00000,-1.00000,-1.00000,-1.00000,0.00000,0.00000,-1.57080,"[0.000, 0.000, 0.000, 0.000, 0.000, 0.000]",0.000,0.000,0.000,0.000,0.000,0.000,0.000,0.000,0.000,0.000,0.000,0.000
0.1300,1.00000,1.00000,1.00000,0.00000,0.00000,1.57080,0.00000,0.00000,0.00000,0.00000,0.00000,0.00000,0.00000,0.00000,0.00000,0.00000,0.00000,0.00000,-1.00000,-1.00000,-1.00000,0.00000,0.00000,-1.57080,"[0.000, 0.000, 0.000, 0.000, 0.000, 0.000]",0.000,0.000,0.000,0.000,0.000,0.000,0.000,0.000,0.000,0.000,0.000,0.000
0.1350,1.00000,1.00000,1.00000,0.00000,0.00000,1.57080,0.00000,0.00000,0.00000,0.00000,0.00000,0.00000,0.00000,0.00000,0.00000,0.00000,0.00000,0.00000,-1.00000,-1.00000,-1.00000,0.00000,0.00000,-1.57080,"[0.000, 0.000, 0.000, 0.000, 0.000, 0.000]",0.000,0.000,0.000,0.000,0.000,0.000,0.000,0.000,0.000,0.000,0.000,0.000
0.1400,1.00000,1.00000,1.00000,0.00000,0.00000,1.57080,0.00000,0.00000,0.00000,0.00000,0.00000,0.00000,0.00000,0.00000,0.00000,0.00000,0.00000,0.00000,-1.00000,-1.00000,-1.00000,0.00000,0.00000,-1.57080,"[0.000, 0.000, 0.000, 0.000, 0.000, 0.000]",0.000,0.000,0.000,0.000,0.000,0.000,0.000,0.000,0.000,0.000,0.000,0.000
0.1450,1.00000,1.00000,1.00000,0.00000,0.00000,1.57080,0.00000,0.00000,0.00000,0.00000,0.00000,0.00000,0.00000,0.00000,0.00000,0.00000,0.00000,0.00000,-1.00000,-1.00000,-1.00000,0.00000,0.00000,-1.57080,"[0.000, 0.000, 0.000, 0.000, 0.000, 0.000]",0.000,0.000,0.000,0.000,0.000,0.000,0.000,0.000,0.000,0.000,0.000,0.000
0.1500,1.00000,1.00000,1.00000,0.00001,-0.00001,1.57073,-0.00000,-0.00025,-0.00025,0.00475,-0.00475,-0.02688,0.00000,0.00000,0.00000,0.00000,0.00000,0.00000,-1.00000,-1.00000,-1.00000,-0.00001,0.00001,-1.57073,"[1.000, 0.000, 0.000, 0.000, 1.000, 0.000]",1.000,1.000,0.000,0.000,0.000,0.000,0.000,0.000,1.000,1.000,0.000,0.000
0.1550,1.00000,1.00000,1.00000,0.00005,-0.00005,1.57053,-0.00000,-0.00050,-0.00050,0.00949,-0.00949,-0.05376,0.00000,0.00000,0.00000,0.00000,0.00000,0.00000,-1.00000,-1.00000,-1.00000,-0.00005,0.00005,-1.57053,"[1.000, 0.000, 0.000, 0.000, 1.000, 0.000]",1.000,1.000,0.000,0.000,0.000,0.000,0.000,0.000,1.000,1.000,0.000,0.000
0.1600,1.00000,0.99999,0.99999,0.00011,-0.00011,1.57019,-0.00000,-0.00075,-0.00075,0.01424,-0.01424,-0.08064,0.00000,0.00000,0.00000,0.00000,0.00000,0.00000,-1.00000,-0.99999,-0.99999,-0.00011,0.00011,-1.57019,"[1.000, 0.000, 0.000, 0.000, 1.000, 0.000]",1.000,1.000,0.000,0.000,0.000,0.000,0.000,0.000,1.000,1.000,0.000,0.000
0.1650,1.00000,0.99999,0.99999,0.00019,-0.00019,1.56972,-0.00000,-0.00100,-0.00100,0.01898,-0.01898,-0.10752,0.00000,0.00000,0.00000,0.00000,0.00000,0.00000,-1.00000,-0.99999,-0.99999,-0.00019,0.00019,-1.56972,"[1.000, 0.000, 0.000, 0.000, 1.000, 0.000]",1.000,1.000,0.000,0.000,0.000,0.000,0.000,0.000,1.000,1.000,0.000,0.000
0.1700,1.00000,0.99998,0.99998,0.00030,-0.00030,1.56912,-0.00000,-0.00125,-0.00125,0.02373,-0.02373,-0.13440,0.00000,0.00000,0.00000,0.00000,0.00000,0.00000,-1.00000,-0.99998,-0.99998,-0.00030,0.00030,-1.56912,"[1.000, 0.000, 0.000, 0.000, 1.000, 0.000]",1.000,1.000,0.000,0.000,0.000,0.000,0.000,0.000,1.000,1.000,0.000,0.000
0.1750,1.00000,0.99998,0.99998,0.00043,-0.00043,1.56838,-0.00000,-0.00150,-0.00150,0.02847,-0.02847,-0.16128,0.00000,0.00000,0.00000,0.00000,0.00000,0.00000,-1.00000,-0.99998,-0.99998,-0.00043,0.00043,-1.56838,"[1.000, 0.000, 0.000, 0.000, 1.000, 0.000]",1.000,1.000,0.000,0.000,0.000,0.000,0.000,0.000,1.000,1.000,0.000,0.000
0.1800,1.00000,0.99997,0.99997,0.00058,-0.00058,1.56750,-0.00000,-0.00175,-0.00175,0.03322,-0.03322,-0.18816,0.00000,0.00000,0.00000,0.00000,0.00000,0.00000,-1.00000,-0.99997,-0.99997,-0.00058,0.00058,-1.56750,"[1.000, 0.000, 0.000, 0.000, 1.000, 0.000]",1.000,1.000,0.000,0.000,0.000,0.000,0.000,0.000,1.000,1.000,0.000,0.000
0.1850,1.00000,0.99996,0.99996,0.00076,-0.00076,1.56650,-0.00000,-0.00200,-0.00200,0.03797,-0.03797,-0.21504,0.00000,0.00000,0.00000,0.00000,0.00000,0.00000,-1.00000,-0.99996,-0.99996,-0.00076,0.00076,-1.56650,"[1.000, 0.000, 0.000, 0.000, 1.000, 0.000]",1.000,1.000,0.000,0.000,0.000,0.000,0.000,0.000,1.000,1.000,0.000,0.000
0.1900,1.00000,0.99995,0.99995,0.00096,-0.00096,1.56535,-0.00000,-0.00225,-0.00225,0.04271,-0.04271,-0.24192,0.00000,0.00000,0.00000,0.00000,0.00000,0.00000,-1.00000,-0.99995,-0.99995,-0.00096,0.00096,-1.56535,"[1.000, 0.000, 0.000, 0.000, 1.000, 0.000]",1.000,1.000,0.000,0.000,0.000,0.000,0.000,0.000,1.000,1.000,0.000,0.000
0.1950,1.00000,0.99994,0.99994,0.00119,-0.00118,1.56408,-0.00001,-0.00250,-0.00250,0.04746,-0.04746,-0.26880,0.00000,0.00000,0.00000,0.00000,0.00000,0.00000,-1.00000,-0.99994,-0.99994,-0.00119,0.00118,-1.56408,"[1.000, 0.000, 0.000, 0.000, 1.000, 0.000]",1.000,1.000,0.000,0.000,0.000,0.000,0.000,0.000,1.000,1.000,0.000,0.000
0.2000,1.00000,0.99992,0.99992,0.00142,-0.00141,1.56278,-0.00001,-0.00275,-0.00275,0.04369,-0.04372,-0.24755,0.00000,0.00000,0.00000,0.00000,0.00000,0.00000,-1.00000,-0.99992,-0.99992,-0.00142,0.00141,-1.56278,"[0.998, 0.000, 0.000, 0.000, 0.998, 0.000]",0.998,0.998,0.000,0.000,0.000,0.000,0.000,0.000,0.998,0.998,0.000,0.000
0.2050,1.00000,0.99991,0.99991,0.00163,-0.00162,1.56160,-0.00001,-0.00300,-0.00300,0.03992,-0.03999,-0.22631,0.00000,0.00000,0.00000,0.00000,0.00000,0.00000,-1.00000,-0.99991,-0.99991,-0.00163,0.00162,-1.56160,"[0.998, 0.000, 0.000, 0.000, 0.998, 0.000]",0.998,0.998,0.000,0.000,0.000,0.000,0.000,0.000,0.998,0.998,0.000,0.000
0.2100,1.00000,0.99989,0.99989,0.00182,-0.00180,1.56052,-0.00001,-0.00325,-0.00325,0.03615,-0.03625,-0.20506,0.00000,0.00000,0.00000,0.00000,0.00000,0.00000,-1.00000,-0.99989,-0.99989,-0.00182,0.00180,-1.56052,"[0.998, 0.000, 0.000, 0.000, 0.998, 0.000]",0.998,0.998,0.000,0.000,0.000,0.000,0.000,0.000,0.998,0.998,0.000,0.000
0.2150,1.00000,0.99988,0.99988,0.00200,-0.00197,1.55955,-0.00002,-0.00350,-0.00350,0.03239,-0.03252,-0.18382,0.00000,0.00000,0.00000,0.00000,0.00000,0.00000,-1.00000,-0.99988,-0.99988,-0.00200,0.00197,-1.55955,"[0.998, 0.000, 0.000, 0.000, 0.998, 0.000]",0.998,0.998,0.000,0.000,0.000,0.000,0.000,0.000,0.998,0.998,0.000,0.000
0.2200,1.00000,0.99986,0.99986,0.00215,-0.00213,1.55868,-0.00002,-0.00375,-0.00375,0.02862,-0.02878,-0.16257,0.00000,0.00000,0.00000,0.00000,0.00000,0.00000,-1.00000,-0.99986,-0.99986,-0.00215,0.00213,-1.55868,"[0.998, 0.000, 0.000, 0.000, 0.998, 0.000]",0.998,0.998,0.000,0.000,0.000,0.000,0.000,0.000,0.998,0.998,0.000,0.000
0.2250,1.00000,0.99984,0.99984,0.00229,-0.00226,1.55792,-0.00002,-0.00400,-0.00400,0.02485,-0.02505,-0.14132,0.00000,0.00000,0.00000,0.00000,0.00000,0.00000,-1.00000,-0.99984,-0.99984,-0.00229,0.00226,-1.55792,"[0.998, 0.000, 0.000, 0.000, 0.998, 0.000]",0.998,0.998,0.000,0.000,0.000,0.000,0.000,0.000,0.998,0.998,0.000,0.000
0.2300,1.00000,0.99982,0.99982,0.00240,-0.00237,1.55727,-0.00003,-0.00425,-0.00425,0.02108,-0.02132,-0.12008,0.00000,0.00000,0.00000,0.00000,0.00000,0.00000,-1.00000,-0.99982,-0.99982,-0.00240,0.00237,-1.55727,"[0.998, 0.000, 0.000, 0.000, 0.998, 0.000]",0.998,0.998,0.000,0.000,0.000,0.000,0.000,0.000,0.998,0.998,0.000,0.000
0.2350,1.00000,0.99980,0.99980,0.00250,-0.00247,1.55672,-0.00003,-0.00450,-0.00450,0.01732,-0.01758,-0.09883,0.00000,0.00000,0.00000,0.00000,0.00000,0.00000,-1.00000,-0.99980,-0.99980,-0.00250,0.00247,-1.55672,"[0.998, 0.000, 0.000, 0.000, 0.998, 0.000]",0.998,0.998,0.000,0.000,0.000,0.000,0.000,0.000,0.998,0.998,0.000,0.000
0.2400,1.00000,0.99977,0.99977,0.00258,-0.00255,1.55628,-0.00003,-0.00474,-0.00476,0.01355,-0.01385,-0.07759,0.00000,0.00000,0.00000,0.00000,0.00000,0.00000,-1.00000,-0.99977,-0.99977,-0.00258,0.00255,-1.55628,"[0.998, 0.000, 0.000, 0.000, 0.998, 0.000]",0.998,0.998,0.000,0.000,0.000,0.000,0.000,0.000,0.998,0.998,0.000,0.000
0.2450,1.00000,0.99975,0.99975,0.00264,-0.00261,1.55594,-0.00004,-0.00499,-0.00501,0.00978,-0.01011,-0.05634,0.00000,0.00000,0.00000,0.00000,0.00000,0.00000,-1.00000,-0.99975,-0.99975,-0.00264,0.00261,-1.55594,"[0.998, 0.000, 0.000, 0.000, 0.998, 0.000]",0.998,0.998,0.000,0.000,0.000,0.000,0.000,0.000,0.998,0.998,0.000,0.000
0.2500,1.00000,0.99972,0.99972,0.00269,-0.00266,1.55562,-0.00004,-0.00524,-0.00526,0.01271,-0.01305,-0.07295,0.00000,0.00000,0.00000,0.00000,0.00000,0.00000,-1.00000,-0.99972,-0.99972,-0.00269,0.00266,-1.55562,"[0.998, 0.000, 0.000, 0.000, 0.998, 0.000]",0.998,0.998,0.000,0.000,0.000,0.000,0.000,0.000,0.998,0.998,0.000,0.000
0.2550,1.00000,0.99970,0.99970,0.00277,-0.00273,1.55521,-0.00005,-0.00549,-0.00551,0.01563,-0.01599,-0.08956,0.00000,0.00000,0.00000,0.00000,0.00000,0.00000,-1.00000,-0.99970,-0.99970,-0.00277,0.00273,-1.55521,"[0.998, 0.000, 0.000, 0.000, 0.998, 0.000]",0.998,0.998,0.000,0.000,0.000,0.000,0.000,0.000,0.998,0.998,0.000,0.000
0.2600,1.00000,0.99967,0.99967,0.00285,-0.00282,1.55472,-0.00005,-0.00574,-0.00576,0.01856,-0.01893,-0.10616,0.00000,0.00000,0.00000,0.00000,0.00000,0.00000,-1.00000,-0.99967,-0.99967,-0.00285,0.00282,-1.55472,"[0.998, 0.000, 0.000, 0.000, 0.998, 0.000]",0.998,0.998,0.000,0.000,0.000,0.000,0.000,0.000,0.998,0.998,0.000,0.000
0.2650,1.00000,0.99964,0.99964,0.00295,-0.00292,1.55415,-0.00006,-0.00599,-0.00601,0.02148,-0.02187,-0.12277,0.00000,0.00000,0.00000,0.00000,0.00000,0.00000,-1.00000,-0.99964,-0.99964,-0.00295,0.00292,-1.55415,"[0.998, 0.000, 0.000, 0.000, 0.998, 0.000]",0.998,0.998,0.000,0.000,0.000,0.000,0.000,0.000,0.998,0.998,0.000,0.000
0.2700,1.00000,0.99961,0.99961,0.00307,-0.00304,1.55350,-0.00006,-0.00624,-0.00626,0.02441,-0.02481,-0.13938,0.00000,0.00000,0.00000,0.00000,0.00000,0.00000,-1.00000,-0.99961,-0.99961,-0.00307,0.00304,-1.55350,"[0.998, 0.000, 0.000, 0.000, 0.998, 0.000]",0.998,0.998,0.000,0.000,0.000,0.000,0.000,0.000,0.998,0.998,0.000,0.000
0.2750,1.00000,0.99958,0.99958,0.00320,-0.00316,1.55276,-0.00007,-0.00649,-0.00651,0.02733,-0.02775,-0.15599,0.00000,0.00000,0.00000,0.00000,0.00000,0.00000,-1.00000,-0.99958,-0.99958,-0.00320,0.00316,-1.55276,"[0.998, 0.000, 0.000, 0.000, 0.998, 0.000]",0.998,0.998,0.000,0.000,0.000,0.000,0.000,0.000,0.998,0.998,0.000,0.000
0.2800,1.00000,0.99954,0.99954,0.00335,-0.00331,1.55194,-0.00007,-0.00674,-0.00676,0.03026,-0.03069,-0.17259,0.00000,0.00000,0.00000,0.00000,0.00000,0.00000,-1.00000,-0.99954,-0.99954,-0.00335,0.00331,-1.55194,"[0.998, 0.000, 0.000, 0.000, 0.998, 0.000]",0.998,0.998,0.000,0.000,0.000,0.000,0.000,0.000,0.998,0.998,0.000,0.000
0.2850,1.00000,0.99951,0.99951,0.00351,-0.00347,1.55103,-0.00008,-0.00699,-0.00701,0.03318,-0.03363,-0.18920,0.00000,0.00000,0.00000,0.00000,0.00000,0.00000,-1.00000,-0.99951,-0.99951,-0.00351,0.00347,-1.55103,"[0.998, 0.000, 0.000, 0.000, 0.998, 0.000]",0.998,0.998,0.000,0.000,0.000,0.000,0.000,0.000,0.998,0.998,0.000,0.000
0.2900,1.00000,0.99947,0.99947,0.00369,-0.00364,1.55004,-0.00008,-0.00724,-0.00726,0.03611,-0.03656,-0.20581,0.00000,0.00000,0.00000,0.00000,0.00000,0.00000,-1.00000,-0.99947,-0.99947,-0.00369,0.00364,-1.55004,"[0.998, 0.000, 0.000, 0.000, 0.998, 0.000]",0.998,0.998,0.000,0.000,0.000,0.000,0.000,0.000,0.998,0.998,0.000,0.000
0.2950,1.00000,0.99944,0.99944,0.00388,-0.00382,1.54897,-0.00009,-0.00749,-0.00751,0.03903,-0.03950,-0.22242,0.00000,0.00000,0.00000,0.00000,0.00000,0.00000,-1.00000,-0.99944,-0.99944,-0.00388,0.00382,-1.54897,"[0.998, 0.000, 0.000, 0.000, 0.998, 0.000]",0.998,0.998,0.000,0.000,0.000,0.000,0.000,0.000,0.998,0.998,0.000,0.000
0.3000,1.00000,0.99940,0.99940,0.00407,-0.00401,1.54789,-0.00010,-0.00773,-0.00776,0.03670,-0.03719,-0.20925,0.00000,0.00000,0.00000,0.00000,0.00000,0.00000,-1.00000,-0.99940,-0.99940,-0.00407,0.00401,-1.54789,"[0.998, 0.000, 0.000, 0.000, 0.998, 0.000]",0.998,0.998,0.000,0.000,0.000,0.000,0.000,0.000,0.998,0.998,0.000,0.000
0.3050,0.99999,0.99936,0.99936,0.00425,-0.00419,1.54688,-0.00010,-0.00798,-0.00802,0.03436,-0.03488,-0.19608,0.00000,0.00000,0.00000,0.00000,0.00000,0.00000,-0.99999,-0.99936,-0.99936,-0.00425,0.00419,-1.54688,"[0.998, 0.000, 0.000, 0.000, 0.998, 0.000]",0.998,0.998,0.000,0.000,0.000,0.000,0.000,0.000,0.998,0.998,0.000,0.000
0.3100,0.99999,0.99932,0.99932,0.00442,-0.00435,1.54593,-0.00011,-0.00823,-0.00827,0.03202,-0.03257,-0.18292,0.00000,0.00000,0.00000,0.00000,0.00000,0.00000,-0.99999,-0.99932,-0.99932,-0.00442,0.00435,-1.54593,"[0.998, 0.000, 0.000, 0.000, 0.998, 0.000]",0.998,0.998,0.000,0.000,0.000,0.000,0.000,0.000,0.998,0.998,0.000,0.000
0.3150,0.99999,0.99928,0.99928,0.00458,-0.00450,1.54505,-0.00012,-0.00848,-0.00852,0.02969,-0.03025,-0.16975,0.00000,0.00000,0.00000,0.00000,0.00000,0.00000,-0.99999,-0.99928,-0.99928,-0.00458,0.00450,-1.54505,"[0.998, 0.000, 0.000, 0.000, 0.998, 0.000]",0.998,0.998,0.000,0.000,0.000,0.000,0.000,0.000,0.998,0.998,0.000,0.000
0.3200,0.99999,0.99924,0.99923,0.00473,-0.00465,1.54423,-0.00012,-0.00873,-0.00877,0.02735,-0.02794,-0.15658,0.00000,0.00000,0.00000,0.00000,0.00000,0.00000,-0.99999,-0.99924,-0.99923,-0.00473,0.00465,-1.54423,"[0.998, 0.000, 0.000, 0.000, 0.998, 0.000]",0.998,0.998,0.000,0.000,0.000,0.000,0.000,0.000,0.998,0.998,0.000,0.000
0.3250,0.99999,0.99919,0.99919,0.00486,-0.00478,1.54348,-0.00013,-0.00898,-0.00902,0.02501,-0.02563,-0.14342,0.00000,0.00000,0.00000,0.00000,0.00000,0.00000,-0.99999,-0.99919,-0.99919,-0.00486,0.00478,-1.54348,"[0.998, 0.000, 0.000, 0.000, 0.998, 0.000]",0.998,0.998,0.000,0.000,0.000,0.000,0.000,0.000,0.998,0.998,0.000,0.000
0.3300,0.99999,0.99915,0.99914,0.00499,-0.00490,1.54279,-0.00014,-0.00923,-0.00927,0.02268,-0.02332,-0.13025,0.00000,0.00000,0.00000,0.00000,0.00000,0.00000,-0.99999,-0.99915,-0.99914,-0.00499,0.00490,-1.54279,"[0.998, 0.000, 0.000, 0.000, 0.998, 0.000]",0.998,0.998,0.000,0.000,0.000,0.000,0.000,0.000,0.998,0.998,0.000,0.000
0.3350,0.99999,0.99910,0.99910,0.00510,-0.00500,1.54218,-0.00015,-0.00948,-0.00952,0.02034,-0.02100,-0.11709,0.00000,0.00000,0.00000,0.00000,0.00000,0.00000,-0.99999,-0.99910,-0.99910,-0.00510,0.00500,-1.54218,"[0.998, 0.000, 0.000, 0.000, 0.998, 0.000]",0.998,0.998,0.000,0.000,0.000,0.000,0.000,0.000,0.998,0.998,0.000,0.000
0.3400,0.99999,0.99905,0.99905,0.00520,-0.00510,1.54162,-0.00016,-0.00972,-0.00977,0.01801,-0.01869,-0.10392,0.00000,0.00000,0.00000,0.00000,0.00000,0.00000,-0.99999,-0.99905,-0.99905,-0.00520,0.00510,-1.54162,"[0.998, 0.000, 0.000, 0.000, 0.998, 0.000]",0.998,0.998,0.000,0.000,0.000,0.000,0.000,0.000,0.998,0.998,0.000,0.000
0.3450,0.99999,0.99900,0.99900,0.00528,-0.00518,1.54114,-0.00017,-0.00997,-0.01002,0.01567,-0.01638,-0.09075,0.00000,0.00000,0.00000,0.00000,0.00000,0.00000,-0.99999,-0.99900,-0.99900,-0.00528,0.00518,-1.54114,"[0.998, 0.000, 0.000, 0.000, 0.998, 0.000]",0.998,0.998,0.000,0.000,0.000,0.000,0.000,0.000,0.998,0.998,0.000,0.000
0.3500,0.99999,0.99895,0.99895,0.00537,-0.00527,1.54066,-0.00017,-0.01022,-0.01028,0.01747,-0.01820,-0.10101,0.00000,0.00000,0.00000,0.00000,0.00000,0.00000,-0.99999,-0.99895,-0.99895,-0.00537,0.00527,-1.54066,"[0.998, 0.000, 0.000, 0.000, 0.998, 0.000]",0.998,0.998,0.000,0.000,0.000,0.000,0.000,0.000,0.998,0.998,0.000,0.000
0.3550,0.99999,0.99890,0.99890,0.00546,-0.00536,1.54012,-0.00018,-0.01047,-0.01053,0.01927,-0.02002,-0.11126,0.00000,0.00000,0.00000,0.00000,0.00000,0.00000,-0.99999,-0.99890,-0.99890,-0.00546,0.00536,-1.54012,"[0.998, 0.000, 0.000, 0.000, 0.998, 0.000]",0.998,0.998,0.000,0.000,0.000,0.000,0.000,0.000,0.998,0.998,0.000,0.000
0.3600,0.99999,0.99885,0.99884,0.00557,-0.00546,1.53954,-0.00019,-0.01072,-0.01078,0.02107,-0.02184,-0.12151,0.00000,0.00000,0.00000,0.00000,0.00000,0.00000,-0.99999,-0.99885,-0.99884,-0.00557,0.00546,-1.53954,"[0.998, 0.000, 0.000, 0.000, 0.998, 0.000]",0.998,0.998,0.000,0.000,0.000,0.000,0.000,0.000,0.998,0.998,0.000,0.000
0.3650,0.99999,0.99879,0.99879,0.00568,-0.00557,1.53891,-0.00020,-0.01097,-0.01103,0.02287,-0.02366,-0.13176,0.00000,0.00000,0.00000,0.00000,0.00000,0.00000,-0.99999,-0.99879,-0.99879,-0.00568,0.00557,-1.53891,"[0.998, 0.000, 0.000, 0.000, 0.998, 0.000]",0.998,0.998,0.000,0.000,0.000,0.000,0.000,0.000,0.998,0.998,0.000,0.000
0.3700,0.99998,0.99874,0.99873,0.00580,-0.00569,1.53822,-0.00021,-0.01122,-0.01128,0.02467,-0.02548,-0.14202,0.00000,0.00000,0.00000,0.00000,0.00000,0.00000,-0.99998,-0.99874,-0.99873,-0.00580,0.00569,-1.53822,"[0.998, 0.000, 0.000, 0.000, 0.998, 0.000]",0.998,0.998,0.000,0.000,0.000,0.000,0.000,0.000,0.998,0.998,0.000,0.000
0.3750,0.99998,0.99868,0.99868,0.00593,-0.00582,1.53749,-0.00022,-0.01146,-0.01153,0.02647,-0.02730,-0.15227,0.00000,0.00000,0.00000,0.00000,0.00000,0.00000,-0.99998,-0.99868,-0.99868,-0.00593,0.00582,-1.53749,"[0.998, 0.000, 0.000, 0.000, 0.998, 0.000]",0.998,0.998,0.000,0.000,0.000,0.000,0.000,0.000,0.998,0.998,0.000,0.000
0.3800,0.99998,0.99862,0.99862,0.00608,-0.00596,1.53670,-0.00023,-0.01171,-0.01178,0.02827,-0.02912,-0.16252,0.00000,0.00000,0.00000,0.00000,0.00000,0.00000,-0.99998,-0.99862,-0.99862,-0.00608,0.00596,-1.53670,"[0.998, 0.000, 0.000, 0.000, 0.998, 0.000]",0.998,0.998,0.000,0.000,0.000,0.000,0.000,0.000,0.998,0.998,0.000,0.000
0.3850,0.99998,0.99856,0.99856,0.00623,-0.00610,1.53586,-0.00024,-0.01196,-0.01204,0.03007,-0.03094,-0.17277,0.00000,0.00000,0.00000,0.00000,0.00000,0.00000,-0.99998,-0.99856,-0.99856,-0.00623,0.00610,-1.53586,"[0.998, 0.000, 0.000, 0.000, 0.998, 0.000]",0.998,0.998,0.000,0.000,0.000,0.000,0.000,0.000,0.998,0.998,0.000,0.000
0.3900,0.99998,0.99850,0.99850,0.00639,-0.00625,1.53497,-0.00025,-0.01221,-0.01229,0.03186,-0.03276,-0.18302,0.00000,0.00000,0.00000,0.00000,0.00000,0.00000,-0.99998,-0.99850,-0.99850,-0.00639,0.00625,-1.53497,"[0.998, 0.000, 0.000, 0.000, 0.998, 0.000]",0.998,0.998,0.000,0.000,0.000,0.000,0.000,0.000,0.998,0.998,0.000,0.000
0.3950,0.99998,0.99844,0.99843,0.00656,-0.00642,1.53403,-0.00026,-0.01246,-0.01254,0.03366,-0.03458,-0.19328,0.00000,0.00000,0.00000,0.00000,0.00000,0.00000,-0.99998,-0.99844,-0.99843,-0.00656,0.00642,-1.53403,"[0.998, 0.000, 0.000, 0.000, 0.998, 0.000]",0.998,0.998,0.000,0.000,0.000,0.000,0.000,0.000,0.998,0.998,0.000,0.000
0.4000,0.99998,0.99838,0.99837,0.00673,-0.00658,1.53308,-0.00027,-0.01271,-0.01279,0.03221,-0.03315,-0.18511,0.00000,0.00000,0.00000,0.00000,0.00000,0.00000,-0.99998,-0.99838,-0.99837,-0.00673,0.00658,-1.53308,"[0.998, 0.000, 0.000, 0.000, 0.998, 0.000]",0.998,0.998,0.000,0.000,0.000,0.000,0.000,0.000,0.998,0.998,0.000,0.000
0.4050,0.99998,0.99831,0.99831,0.00689,-0.00674,1.53217,-0.00028,-0.01295,-0.01304,0.03076,-0.03172,-0.17694,0.00000,0.00000,0.00000,0.00000,0.00000,0.00000,-0.99998,-0.99831,-0.99831,-0.00689,0.00674,-1.53217,"[0.998, 0.000, 0.000, 0.000, 0.998, 0.000]",0.998,0.998,0.000,0.000,0.000,0.000,0.000,0.000,0.998,0.998,0.000,0.000
0.4100,0.99997,0.99825,0.99824,0.00705,-0.00688,1.53131,-0.00029,-0.01320,-0.01329,0.02931,-0.03029,-0.16877,0.00000,0.00000,0.00000,0.00000,0.00000,0.00000,-0.99997,-0.99825,-0.99824,-0.00705,0.00688,-1.53131,"[0.998, 0.000, 0.000, 0.000, 0.998, 0.000]",0.998,0.998,0.000,0.000,0.000,0.000,0.000,0.000,0.998,0.998,0.000,0.000
0.4150,0.99997,0.99818,0.99817,0.00720,-0.00703,1.53048,-0.00031,-0.01345,-0.01355,0.02786,-0.02886,-0.16061,0.00000,0.00000,0.00000,0.00000,0.00000,0.00000,-0.99997,-0.99818,-0.99817,-0.00720,0.00703,-1.53048,"[0.998, 0.000, 0.000, 0.000, 0.998, 0.000]",0.998,0.998,0.000,0.000,0.000,0.000,0.000,0.000,0.998,0.998,0.000,0.000
0.4200,0.99997,0.99811,0.99811,0.00734,-0.00716,1.52970,-0.00032,-0.01370,-0.01380,0.02640,-0.02742,-0.15244,0.00000,0.00000,0.00000,0.00000,0.00000,0.00000,-0.99997,-0.99811,-0.99811,-0.00734,0.00716,-1.52970,"[0.998, 0.000, 0.000, 0.000, 0.998, 0.000]",0.998,0.998,0.000,0.000,0.000,0.000,0.000,0.000,0.998,0.998,0.000,0.000
0.4250,0.99997,0.99804,0.99804,0.00747,-0.00729,1.52896,-0.00033,-0.01395,-0.01405,0.02495,-0.02599,-0.14427,0.00000,0.00000,0.00000,0.00000,0.00000,0.00000,-0.99997,-0.99804,-0.99804,-0.00747,0.00729,-1.52896,"[0.998, 0.000, 0.000, 0.000, 0.998, 0.000]",0.998,0.998,0.000,0.000,0.000,0.000,0.000,0.000,0.998,0.998,0.000,0.000
0.4300,0.99997,0.99797,0.99796,0.00760,-0.00741,1.52826,-0.00034,-0.01419,-0.01430,0.02350,-0.02456,-0.13611,0.00000,0.00000,0.00000,0.00000,0.00000,0.00000,-0.99997,-0.99797,-0.99796,-0.00760,0.00741,-1.52826,"[0.998, 0.000, 0.000, 0.000, 0.998, 0.000]",0.998,0.998,0.000,0.000,0.000,0.000,0.000,0.000,0.998,0.998,0.000,0.000
0.4350,0.99997,0.99790,0.99789,0.00772,-0.00753,1.52759,-0.00035,-0.01444,-0.01455,0.02205,-0.02313,-0.12794,0.00000,0.00000,0.00000,0.00000,0.00000,0.00000,-0.99997,-0.99790,-0.99789,-0.00772,0.00753,-1.52759,"[0.998, 0.000, 0.000, 0.000, 0.998, 0.000]",0.998,0.998,0.000,0.000,0.000,0.000,0.000,0.000,0.998,0.998,0.000,0.000
0.4400,0.99996,0.99783,0.99782,0.00783,-0.00763,1.52697,-0.00037,-0.01469,-0.01480,0.02060,-0.02170,-0.11977,0.00000,0.00000,0.00000,0.00000,0.00000,0.00000,-0.99996,-0.99783,-0.99782,-0.00783,0.00763,-1.52697,"[0.998, 0.000, 0.000, 0.000, 0.998, 0.000]",0.998,0.998,0.000,0.000,0.000,0.000,0.000,0.000,0.998,0.998,0.000,0.000
0.4450,0.99996,0.99776,0.99774,0.00793,-0.00773,1.52640,-0.00038,-0.01494,-0.01506,0.01915,-0.02026,-0.11160,0.00000,0.00000,0.00000,0.00000,0.00000,0.00000,-0.99996,-0.99776,-0.99774,-0.00793,0.00773,-1.52640,"[0.998, 0.000, 0.000, 0.000, 0.998, 0.000]",0.998,0.998,0.000,0.000,0.000,0.000,0.000,0.000,0.998,0.998,0.000,0.000
0.4500,0.99996,0.99768,0.99767,0.00803,-0.00783,1.52582,-0.00039,-0.01518,-0.01531,0.02025,-0.02139,-0.11792,0.00000,0.00000,0.00000,0.00000,0.00000,0.00000,-0.99996,-0.99768,-0.99767,-0.00803,0.00783,-1.52582,"[0.998, 0.000, 0.000, 0.000, 0.998, 0.000]",0.998,0.998,0.000,0.000,0.000,0.000,0.000,0.000,0.998,0.998,0.000,0.000
0.4550,0.99996,0.99760,0.99759,0.00814,-0.00794,1.52521,-0.00041,-0.01543,-0.01556,0.02135,-0.02252,-0.12424,0.00000,0.00000,0.00000,0.00000,0.00000,0.00000,-0.99996,-0.99760,-0.99759,-0.00814,0.00794,-1.52521,"[0.998, 0.000, 0.000, 0.000, 0.998, 0.000]",0.998,0.998,0.000,0.000,0.000,0.000,0.000,0.000,0.998,0.998,0.000,0.000
0.4600,0.99996,0.99753,0.99751,0.00826,-0.00805,1.52458,-0.00042,-0.01568,-0.01581,0.02246,-0.02365,-0.13056,0.00000,0.00000,0.00000,0.00000,0.00000,0.00000,-0.99996,-0.99753,-0.99751,-0.00826,0.00805,-1.52458,"[0.998, 0.000, 0.000, 0.000, 0.998, 0.000]",0.998,0.998,0.000,0.000,0.000,0.000,0.000,0.000,0.998,0.998,0.000,0.000
0.4650,0.99995,0.99745,0.99743,0.00838,-0.00816,1.52391,-0.00043,-0.01593,-0.01606,0.02356,-0.02478,-0.13689,0.00000,0.00000,0.00000,0.00000,0.00000,0.00000,-0.99995,-0.99745,-0.99743,-0.00838,0.00816,-1.52391,"[0.998, 0.000, 0.000, 0.000, 0.998, 0.000]",0.998,0.998,0.000,0.000,0.000,0.000,0.000,0.000,0.998,0.998,0.000,0.000
0.4700,0.99995,0.99737,0.99735,0.00850,-0.00828,1.52321,-0.00045,-0.01618,-0.01632,0.02467,-0.02590,-0.14321,0.00000,0.00000,0.00000,0.00000,0.00000,0.00000,-0.99995,-0.99737,-0.99735,-0.00850,0.00828,-1.52321,"[0.998, 0.000, 0.000, 0.000, 0.998, 0.000]",0.998,0.998,0.000,0.000,0.000,0.000,0.000,0.000,0.998,0.998,0.000,0.000
0.4750,0.99995,0.99729,0.99727,0.00864,-0.00841,1.52247,-0.00046,-0.01642,-0.01657,0.02577,-0.02703,-0.14953,0.00000,0.00000,0.00000,0.00000,0.00000,0.00000,-0.99995,-0.99729,-0.99727,-0.00864,0.00841,-1.52247,"[0.998, 0.000, 0.000, 0.000, 0.998, 0.000]",0.998,0.998,0.000,0.000,0.000,0.000,0.000,0.000,0.998,0.998,0.000,0.000
0.4800,0.99995,0.99720,0.99719,0.00877,-0.00854,1.52171,-0.00047,-0.01667,-0.01682,0.02687,-0.02816,-0.15585,0.00000,0.00000,0.00000,0.00000,0.00000,0.00000,-0.99995,-0.99720,-0.99719,-0.00877,0.00854,-1.52171,"[0.998, 0.000, 0.000, 0.000, 0.998, 0.000]",0.998,0.998,0.000,0.000,0.000,0.000,0.000,0.000,0.998,0.998,0.000,0.000
0.4850,0.99995,0.99712,0.99710,0.00892,-0.00868,1.52091,-0.00049,-0.01692,-0.01707,0.02798,-0.02929,-0.16217,0.00000,0.00000,0.00000,0.00000,0.00000,0.00000,-0.99995,-0.99712,-0.99710,-0.00892,0.00868,-1.52091,"[0.998, 0.000, 0.000, 0.000, 0.998, 0.000]",0.998,0.998,0.000,0.000,0.000,0.000,0.000,0.000,0.998,0.998,0.000,0.000
0.4900,0.99994,0.99703,0.99702,0.00907,-0.00882,1.52008,-0.00050,-0.01717,-0.01732,0.02908,-0.03041,-0.16849,0.00000,0.00000,0.00000,0.00000,0.00000,0.00000,-0.99994,-0.99703,-0.99702,-0.00907,0.00882,-1.52008,"[0.998, 0.000, 0.000, 0.000, 0.998, 0.000]",0.998,0.998,0.000,0.000,0.000,0.000,0.000,0.000,0.998,0.998,0.000,0.000
0.4950,0.99994,0.99695,0.99693,0.00922,-0.00897,1.51922,-0.00052,-0.01741,-0.01758,0.03019,-0.03154,-0.17481,0.00000,0.00000,0.00000,0.00000,0.00000,0.00000,-0.99994,-0.99695,-0.99693,-0.00922,0.00897,-1.51922,"[0.998, 0.000, 0.000, 0.000, 0.998, 0.000]",0.998,0.998,0.000,0.000,0.000,0.000,0.000,0.000,0.998,0.998,0.000,0.000
0.5000,0.99994,0.99686,0.99684,0.00938,-0.00911,1.51836,-0.00053,-0.01766,-0.01783,0.02928,-0.03065,-0.16973,0.00000,0.00000,0.00000,0.00000,0.00000,0.00000,-0.99994,-0.99686,-0.99684,-0.00938,0.00911,-1.51836,"[0.998, 0.000, 0.000, 0.000, 0.998, 0.000]",0.998,0.998,0.000,0.000,0.000,0.000,0.000,0.000,0.998,0.998,0.000,0.000
0.5050,0.99994,0.99677,0.99675,0.00953,-0.00926,1.51752,-0.00055,-0.01791,-0.01808,0.02837,-0.02977,-0.16466,0.00000,0.00000,0.00000,0.00000,0.00000,0.00000,-0.99994,-0.99677,-0.99675,-0.00953,0.00926,-1.51752,"[0.998, 0.000, 0.000, 0.000, 0.998, 0.000]",0.998,0.998,0.000,0.000,0.000,0.000,0.000,0.000,0.998,0.998,0.000,0.000
0.5100,0.99993,0.99668,0.99666,0.00968,-0.00940,1.51671,-0.00056,-0.01815,-0.01833,0.02746,-0.02888,-0.15959,0.00000,0.00000,0.00000,0.00000,0.00000,0.00000,-0.99993,-0.99668,-0.99666,-0.00968,0.00940,-1.51671,"[0.998, 0.000, 0.000, 0.000, 0.998, 0.000]",0.998,0.998,0.000,0.000,0.000,0.000,0.000,0.000,0.998,0.998,0.000,0.000
0.5150,0.99993,0.99659,0.99657,0.00982,-0.00953,1.51593,-0.00058,-0.01840,-0.01859,0.02656,-0.02799,-0.15451,0.00000,0.00000,0.00000,0.00000,0.00000,0.00000,-0.99993,-0.99659,-0.99657,-0.00982,0.00953,-1.51593,"[0.998, 0.000, 0.000, 0.000, 0.998, 0.000]",0.998,0.998,0.000,0.000,0.000,0.000,0.000,0.000,0.998,0.998,0.000,0.000
0.5200,0.99993,0.99650,0.99647,0.00996,-0.00966,1.51516,-0.00060,-0.01865,-0.01884,0.02565,-0.02710,-0.14944,0.00000,0.00000,0.00000,0.00000,0.00000,0.00000,-0.99993,-0.99650,-0.99647,-0.00996,0.00966,-1.51516,"[0.998, 0.000, 0.000, 0.000, 0.998, 0.000]",0.998,0.998,0.000,0.000,0.000,0.000,0.000,0.000,0.998,0.998,0.000,0.000
0.5250,0.99992,0.99640,0.99638,0.01009,-0.00979,1.51443,-0.00061,-0.01890,-0.01909,0.02474,-0.02621,-0.14436,0.00000,0.00000,0.00000,0.00000,0.00000,0.00000,-0.99992,-0.99640,-0.99638,-0.01009,0.00979,-1.51443,"[0.998, 0.000, 0.000, 0.000, 0.998, 0.000]",0.998,0.998,0.000,0.000,0.000,0.000,0.000,0.000,0.998,0.998,0.000,0.000
0.5300,0.99992,0.99631,0.99628,0.01022,-0.00991,1.51372,-0.00063,-0.01914,-0.01934,0.02383,-0.02532,-0.13929,0.00000,0.00000,0.00000,0.00000,0.00000,0.00000,-0.99992,-0.99631,-0.99628,-0.01022,0.00991,-1.51372,"[0.998, 0.000, 0.000, 0.000, 0.998, 0.000]",0.998,0.998,0.000,0.000,0.000,0.000,0.000,0.000,0.998,0.998,0.000,0.000
0.5350,0.99992,0.99621,0.99619,0.01035,-0.01003,1.51303,-0.00064,-0.01939,-0.01960,0.02293,-0.02444,-0.13421,0.00000,0.00000,0.00000,0.00000,0.00000,0.00000,-0.99992,-0.99621,-0.99619,-0.01035,0.01003,-1.51303,"[0.998, 0.000, 0.000, 0.000, 0.998, 0.000]",0.998,0.998,0.000,0.000,0.000,0.000,0.000,0.000,0.998,0.998,0.000,0.000
0.5400,0.99991,0.99611,0.99609,0.01046,-0.01014,1.51237,-0.00066,-0.01964,-0.01985,0.02202,-0.02355,-0.12914,0.00000,0.00000,0.00000,0.00000,0.00000,0.00000,-0.99991,-0.99611,-0.99609,-0.01046,0.01014,-1.51237,"[0.998, 0.000, 0.000, 0.000, 0.998, 0.000]",0.998,0.998,0.000,0.000,0.000,0.000,0.000,0.000,0.998,0.998,0.000,0.000
0.5450,0.99991,0.99601,0.99599,0.01058,-0.01025,1.51174,-0.00068,-0.01988,-0.02010,0.02111,-0.02266,-0.12406,0.00000,0.00000,0.00000,0.00000,0.00000,0.00000,-0.99991,-0.99601,-0.99599,-0.01058,0.01025,-1.51174,"[0.998, 0.000, 0.000, 0.000, 0.998, 0.000]",0.998,0.998,0.000,0.000,0.000,0.000,0.000,0.000,0.998,0.998,0.000,0.000
0.5500,0.99991,0.99591,0.99589,0.01069,-0.01036,1.51111,-0.00070,-0.02013,-0.02035,0.02178,-0.02335,-0.12795,0.00000,0.00000,0.00000,0.00000,0.00000,0.00000,-0.99991,-0.99591,-0.99589,-0.01069,0.01036,-1.51111,"[0.998, 0.000, 0.000, 0.000, 0.999, 0.000]",0.998,0.998,0.000,0.000,0.000,0.000,0.000,0.000,0.999,0.999,0.000,0.000
0.5550,0.99990,0.99581,0.99578,0.01081,-0.01047,1.51046,-0.00071,-0.02038,-0.02061,0.02246,-0.02405,-0.13184,0.00000,0.00000,0.00000,0.00000,0.00000,0.00000,-0.99990,-0.99581,-0.99578,-0.01081,0.01047,-1.51046,"[0.998, 0.000, 0.000, 0.000, 0.999, 0.000]",0.998,0.998,0.000,0.000,0.000,0.000,0.000,0.000,0.999,0.999,0.000,0.000
0.5600,0.99990,0.99571,0.99568,0.01093,-0.01058,1.50979,-0.00073,-0.02062,-0.02086,0.02313,-0.02475,-0.13573,0.00000,0.00000,0.00000,0.00000,0.00000,0.00000,-0.99990,-0.99571,-0.99568,-0.01093,0.01058,-1.50979,"[0.998, 0.000, 0.000, 0.000, 0.999, 0.000]",0.998,0.998,0.000,0.000,0.000,0.000,0.000,0.000,0.999,0.999,0.000,0.000
0.5650,0.99990,0.99561,0.99557,0.01106,-0.01070,1.50910,-0.00075,-0.02087,-0.02111,0.02380,-0.02544,-0.13962,0.00000,0.00000,0.00000,0.00000,0.00000,0.00000,-0.99990,-0.99561,-0.99557,-0.01106,0.01070,-1.50910,"[0.998, 0.000, 0.000, 0.000, 0.999, 0.000]",0.998,0.998,0.000,0.000,0.000,0.000,0.000,0.000,0.999,0.999,0.000,0.000
0.5700,0.99989,0.99550,0.99547,0.01118,-0.01082,1.50839,-0.00077,-0.02112,-0.02136,0.02447,-0.02614,-0.14351,0.00000,0.00000,0.00000,0.00000,0.00000,0.00000,-0.99989,-0.99550,-0.99547,-0.01118,0.01082,-1.50839,"[0.998, 0.000, 0.000, 0.000, 0.999, 0.000]",0.998,0.998,0.000,0.000,0.000,0.000,0.000,0.000,0.999,0.999,0.000,0.000
0.5750,0.99989,0.99540,0.99536,0.01132,-0.01095,1.50766,-0.00079,-0.02136,-0.02162,0.02514,-0.02683,-0.14740,0.00000,0.00000,0.00000,0.00000,0.00000,0.00000,-0.99989,-0.99540,-0.99536,-0.01132,0.01095,-1.50766,"[0.998, 0.000, 0.000, 0.000, 0.999, 0.000]",0.998,0.998,0.000,0.000,0.000,0.000,0.000,0.000,0.999,0.999,0.000,0.000
0.5800,0.99988,0.99529,0.99525,0.01145,-0.01107,1.50691,-0.00080,-0.02161,-0.02187,0.02581,-0.02753,-0.15129,0.00000,0.00000,0.00000,0.00000,0.00000,0.00000,-0.99988,-0.99529,-0.99525,-0.01145,0.01107,-1.50691,"[0.998, 0.000, 0.000, 0.000, 0.999, 0.000]",0.998,0.998,0.000,0.000,0.000,0.000,0.000,0.000,0.999,0.999,0.000,0.000
0.5850,0.99988,0.99518,0.99514,0.01159,-0.01120,1.50614,-0.00082,-0.02186,-0.02212,0.02648,-0.02823,-0.15518,0.00000,0.00000,0.00000,0.00000,0.00000,0.00000,-0.99988,-0.99518,-0.99514,-0.01159,0.01120,-1.50614,"[0.998, 0.000, 0.000, 0.000, 0.999, 0.000]",0.998,0.998,0.000,0.000,0.000,0.000,0.000,0.000,0.999,0.999,0.000,0.000
0.5900,0.99988,0.99507,0.99503,0.01173,-0.01134,1.50536,-0.00084,-0.02210,-0.02237,0.02715,-0.02892,-0.15906,0.00000,0.00000,0.00000,0.00000,0.00000,0.00000,-0.99988,-0.99507,-0.99503,-0.01173,0.01134,-1.50536,"[0.998, 0.000, 0.000, 0.000, 0.999, 0.000]",0.998,0.998,0.000,0.000,0.000,0.000,0.000,0.000,0.999,0.999,0.000,0.000
0.5950,0.99987,0.99496,0.99492,0.01188,-0.01147,1.50455,-0.00086,-0.02235,-0.02263,0.02783,-0.02962,-0.16295,0.00000,0.00000,0.00000,0.00000,0.00000,0.00000,-0.99987,-0.99496,-0.99492,-0.01188,0.01147,-1.50455,"[0.998, 0.000, 0.000, 0.000, 0.999, 0.000]",0.998,0.998,0.000,0.000,0.000,0.000,0.000,0.000,0.999,0.999,0.000,0.000
0.6000,0.99987,0.99485,0.99480,0.01203,-0.01161,1.50374,-0.00088,-0.02260,-0.02288,0.02725,-0.02907,-0.15979,0.00000,0.00000,0.00000,0.00000,0.00000,0.00000,-0.99987,-0.99485,-0.99480,-0.01203,0.01161,-1.50374,"[0.998, 0.000, 0.000, 0.000, 0.998, 0.000]",0.998,0.998,0.000,0.000,0.000,0.000,0.000,0.000,0.998,0.998,0.000,0.000
0.6050,0.99986,0.99473,0.99469,0.01217,-0.01175,1.50295,-0.00090,-0.02284,-0.02313,0.02668,-0.02851,-0.15663,0.00000,0.00000,0.00000,0.00000,0.00000,0.00000,-0.99986,-0.99473,-0.99469,-0.01217,0.01175,-1.50295,"[0.998, 0.000, 0.000, 0.000, 0.998, 0.000]",0.998,0.998,0.000,0.000,0.000,0.000,0.000,0.000,0.998,0.998,0.000,0.000
0.6100,0.99986,0.99462,0.99457,0.01231,-0.01188,1.50217,-0.00092,-0.02309,-0.02339,0.02611,-0.02796,-0.15347,0.00000,0.00000,0.00000,0.00000,0.00000,0.00000,-0.99986,-0.99462,-0.99457,-0.01231,0.01188,-1.50217,"[0.998, 0.000, 0.000, 0.000, 0.998, 0.000]",0.998,0.998,0.000,0.000,0.000,0.000,0.000,0.000,0.998,0.998,0.000,0.000
0.6150,0.99985,0.99450,0.99446,0.01245,-0.01201,1.50141,-0.00094,-0.02333,-0.02364,0.02554,-0.02741,-0.15031,0.00000,0.00000,0.00000,0.00000,0.00000,0.00000,-0.99985,-0.99450,-0.99446,-0.01245,0.01201,-1.50141,"[0.998, 0.000, 0.000, 0.000, 0.998, 0.000]",0.998,0.998,0.000,0.000,0.000,0.000,0.000,0.000,0.998,0.998,0.000,0.000
0.6200,0.99985,0.99438,0.99434,0.01259,-0.01213,1.50066,-0.00096,-0.02358,-0.02389,0.02497,-0.02686,-0.14715,0.00000,0.00000,0.00000,0.00000,0.00000,0.00000,-0.99985,-0.99438,-0.99434,-0.01259,0.01213,-1.50066,"[0.998, 0.000, 0.000, 0.000, 0.998, 0.000]",0.998,0.998,0.000,0.000,0.000,0.000,0.000,0.000,0.998,0.998,0.000,0.000
0.6250,0.99984,0.99427,0.99422,0.01272,-0.01226,1.49993,-0.00098,-0.02383,-0.02414,0.02440,-0.02631,-0.14399,0.00000,0.00000,0.00000,0.00000,0.00000,0.00000,-0.99984,-0.99427,-0.99422,-0.01272,0.01226,-1.49993,"[0.998, 0.000, 0.000, 0.000, 0.998, 0.000]",0.998,0.998,0.000,0.000,0.000,0.000,0.000,0.000,0.998,0.998,0.000,0.000
0.6300,0.99984,0.99415,0.99410,0.01285,-0.01238,1.49922,-0.00100,-0.02407,-0.02440,0.02383,-0.02576,-0.14083,0.00000,0.00000,0.00000,0.00000,0.00000,0.00000,-0.99984,-0.99415,-0.99410,-0.01285,0.01238,-1.49922,"[0.998, 0.000, 0.000, 0.000, 0.998, 0.000]",0.998,0.998,0.000,0.000,0.000,0.000,0.000,0.000,0.998,0.998,0.000,0.000
0.6350,0.99983,0.99403,0.99397,0.01297,-0.01250,1.49852,-0.00102,-0.02432,-0.02465,0.02326,-0.02521,-0.13767,0.00000,0.00000,0.00000,0.00000,0.00000,0.00000,-0.99983,-0.99403,-0.99397,-0.01297,0.01250,-1.49852,"[0.998, 0.000, 0.000, 0.000, 0.998, 0.000]",0.998,0.998,0.000,0.000,0.000,0.000,0.000,0.000,0.998,0.998,0.000,0.000
0.6400,0.99983,0.99390,0.99385,0.01310,-0.01261,1.49784,-0.00104,-0.02457,-0.02490,0.02269,-0.02466,-0.13450,0.00000,0.00000,0.00000,0.00000,0.00000,0.00000,-0.99983,-0.99390,-0.99385,-0.01310,0.01261,-1.49784,"[0.998, 0.000, 0.000, 0.000, 0.998, 0.000]",0.998,0.998,0.000,0.000,0.000,0.000,0.000,0.000,0.998,0.998,0.000,0.000
0.6450,0.99982,0.99378,0.99372,0.01322,-0.01272,1.49717,-0.00106,-0.02481,-0.02516,0.02212,-0.02410,-0.13134,0.00000,0.00000,0.00000,0.00000,0.00000,0.00000,-0.99982,-0.99378,-0.99372,-0.01322,0.01272,-1.49717,"[0.998, 0.000, 0.000, 0.000, 0.998, 0.000]",0.998,0.998,0.000,0.000,0.000,0.000,0.000,0.000,0.998,0.998,0.000,0.000
0.6500,0.99982,0.99366,0.99360,0.01334,-0.01284,1.49651,-0.00108,-0.02506,-0.02541,0.02253,-0.02453,-0.13373,0.00000,0.00000,0.00000,0.00000,0.00000,0.00000,-0.99982,-0.99366,-0.99360,-0.01334,0.01284,-1.49651,"[0.998, 0.000, 0.000, 0.000, 0.998, 0.000]",0.998,0.998,0.000,0.000,0.000,0.000,0.000,0.000,0.998,0.998,0.000,0.000
0.6550,0.99981,0.99353,0.99347,0.01346,-0.01295,1.49583,-0.00111,-0.02530,-0.02566,0.02293,-0.02496,-0.13611,0.00000,0.00000,0.00000,0.00000,0.00000,0.00000,-0.99981,-0.99353,-0.99347,-0.01346,0.01295,-1.49583,"[0.998, 0.000, 0.000, 0.000, 0.998, 0.000]",0.998,0.998,0.000,0.000,0.000,0.000,0.000,0.000,0.998,0.998,0.000,0.000
0.6600,0.99981,0.99340,0.99334,0.01359,-0.01307,1.49515,-0.00113,-0.02555,-0.02592,0.02334,-0.02539,-0.13850,0.00000,0.00000,0.00000,0.00000,0.00000,0.00000,-0.99981,-0.99340,-0.99334,-0.01359,0.01307,-1.49515,"[0.998, 0.000, 0.000, 0.000, 0.998, 0.000]",0.998,0.998,0.000,0.000,0.000,0.000,0.000,0.000,0.998,0.998,0.000,0.000
0.6650,0.99980,0.99327,0.99321,0.01371,-0.01319,1.49445,-0.00115,-0.02579,-0.02617,0.02374,-0.02582,-0.14088,0.00000,0.00000,0.00000,0.00000,0.00000,0.00000,-0.99980,-0.99327,-0.99321,-0.01371,0.01319,-1.49445,"[0.998, 0.000, 0.000, 0.000, 0.998, 0.000]",0.998,0.998,0.000,0.000,0.000,0.000,0.000,0.000,0.998,0.998,0.000,0.000
0.6700,0.99980,0.99314,0.99308,0.01384,-0.01331,1.49373,-0.00117,-0.02604,-0.02642,0.02415,-0.02625,-0.14326,0.00000,0.00000,0.00000,0.00000,0.00000,0.00000,-0.99980,-0.99314,-0.99308,-0.01384,0.01331,-1.49373,"[0.998, 0.000, 0.000, 0.000, 0.998, 0.000]",0.998,0.998,0.000,0.000,0.000,0.000,0.000,0.000,0.998,0.998,0.000,0.000
0.6750,0.99979,0.99301,0.99295,0.01397,-0.01343,1.49301,-0.00119,-0.02629,-0.02668,0.02455,-0.02668,-0.14565,0.00000,0.00000,0.00000,0.00000,0.00000,0.00000,-0.99979,-0.99301,-0.99295,-0.01397,0.01343,-1.49301,"[0.998, 0.000, 0.000, 0.000, 0.998, 0.000]",0.998,0.998,0.000,0.000,0.000,0.000,0.000,0.000,0.998,0.998,0.000,0.000
0.6800,0.99978,0.99288,0.99281,0.01411,-0.01355,1.49227,-0.00122,-0.02653,-0.02693,0.02496,-0.02711,-0.14803,0.00000,0.00000,0.00000,0.00000,0.00000,0.00000,-0.99978,-0.99288,-0.99281,-0.01411,0.01355,-1.49227,"[0.998, 0.000, 0.000, 0.000, 0.998, 0.000]",0.998,0.998,0.000,0.000,0.000,0.000,0.000,0.000,0.998,0.998,0.000,0.000
0.6850,0.99978,0.99275,0.99268,0.01424,-0.01368,1.49153,-0.00124,-0.02678,-0.02718,0.02536,-0.02754,-0.15042,0.00000,0.00000,0.00000,0.00000,0.00000,0.00000,-0.99978,-0.99275,-0.99268,-0.01424,0.01368,-1.49153,"[0.998, 0.000, 0.000, 0.000, 0.998, 0.000]",0.998,0.998,0.000,0.000,0.000,0.000,0.000,0.000,0.998,0.998,0.000,0.000
0.6900,0.99977,0.99261,0.99254,0.01438,-0.01381,1.49077,-0.00126,-0.02702,-0.02744,0.02577,-0.02797,-0.15280,0.00000,0.00000,0.00000,0.00000,0.00000,0.00000,-0.99977,-0.99261,-0.99254,-0.01438,0.01381,-1.49077,"[0.998, 0.000, 0.000, 0.000, 0.998, 0.000]",0.998,0.998,0.000,0.000,0.000,0.000,0.000,0.000,0.998,0.998,0.000,0.000
0.6950,0.99977,0.99248,0.99240,0.01452,-0.01394,1.48999,-0.00129,-0.02727,-0.02769,0.02617,-0.02840,-0.15519,0.00000,0.00000,0.00000,0.00000,0.00000,0.00000,-0.99977,-0.99248,-0.99240,-0.01452,0.01394,-1.48999,"[0.998, 0.000, 0.000, 0.000, 0.998, 0.000]",0.998,0.998,0.000,0.000,0.000,0.000,0.000,0.000,0.998,0.998,0.000,0.000
0.7000,0.99976,0.99234,0.99226,0.01466,-0.01407,1.48922,-0.00131,-0.02751,-0.02794,0.02581,-0.02806,-0.15321,0.00000,0.00000,0.00000,0.00000,0.00000,0.00000,-0.99976,-0.99234,-0.99226,-0.01466,0.01407,-1.48922,"[0.998, 0.000, 0.000, 0.000, 0.998, 0.000]",0.998,0.998,0.000,0.000,0.000,0.000,0.000,0.000,0.998,0.998,0.000,0.000
0.7050,0.99975,0.99220,0.99212,0.01480,-0.01420,1.48846,-0.00133,-0.02776,-0.02820,0.02545,-0.02772,-0.15123,0.00000,0.00000,0.00000,0.00000,0.00000,0.00000,-0.99975,-0.99220,-0.99212,-0.01480,0.01420,-1.48846,"[0.998, 0.000, 0.000, 0.000, 0.998, 0.000]",0.998,0.998,0.000,0.000,0.000,0.000,0.000,0.000,0.998,0.998,0.000,0.000
0.7100,0.99975,0.99206,0.99198,0.01494,-0.01432,1.48770,-0.00136,-0.02800,-0.02845,0.02508,-0.02737,-0.14925,0.00000,0.00000,0.00000,0.00000,0.00000,0.00000,-0.99975,-0.99206,-0.99198,-0.01494,0.01432,-1.48770,"[0.998, 0.000, 0.000, 0.000, 0.998, 0.000]",0.998,0.998,0.000,0.000,0.000,0.000,0.000,0.000,0.998,0.998,0.000,0.000
0.7150,0.99974,0.99192,0.99184,0.01507,-0.01445,1.48696,-0.00138,-0.02825,-0.02870,0.02472,-0.02703,-0.14728,0.00000,0.00000,0.00000,0.00000,0.00000,0.00000,-0.99974,-0.99192,-0.99184,-0.01507,0.01445,-1.48696,"[0.998, 0.000, 0.000, 0.000, 0.998, 0.000]",0.998,0.998,0.000,0.000,0.000,0.000,0.000,0.000,0.998,0.998,0.000,0.000
0.7200,0.99973,0.99178,0.99169,0.01521,-0.01457,1.48623,-0.00141,-0.02849,-0.02896,0.02436,-0.02669,-0.14530,0.00000,0.00000,0.00000,0.00000,0.00000,0.00000,-0.99973,-0.99178,-0.99169,-0.01521,0.01457,-1.48623,"[0.998, 0.000, 0.000, 0.000, 0.998, 0.000]",0.998,0.998,0.000,0.000,0.000,0.000,0.000,0.000,0.998,0.998,0.000,0.000
0.7250,0.99973,0.99164,0.99155,0.01534,-0.01469,1.48550,-0.00143,-0.02874,-0.02921,0.02400,-0.02634,-0.14332,0.00000,0.00000,0.00000,0.00000,0.00000,0.00000,-0.99973,-0.99164,-0.99155,-0.01534,0.01469,-1.48550,"[0.998, 0.000, 0.000, 0.000, 0.998, 0.000]",0.998,0.998,0.000,0.000,0.000,0.000,0.000,0.000,0.998,0.998,0.000,0.000
0.7300,0.99972,0.99149,0.99140,0.01547,-0.01481,1.48479,-0.00146,-0.02898,-0.02946,0.02363,-0.02600,-0.14135,0.00000,0.00000,0.00000,0.00000,0.00000,0.00000,-0.99972,-0.99149,-0.99140,-0.01547,0.01481,-1.48479,"[0.998, 0.000, 0.000, 0.000, 0.998, 0.000]",0.998,0.998,0.000,0.000,0.000,0.000,0.000,0.000,0.998,0.998,0.000,0.000
0.7350,0.99971,0.99135,0.99125,0.01560,-0.01493,1.48409,-0.00148,-0.02923,-0.02972,0.02327,-0.02566,-0.13937,0.00000,0.00000,0.00000,0.00000,0.00000,0.00000,-0.99971,-0.99135,-0.99125,-0.01560,0.01493,-1.48409,"[0.998, 0.000, 0.000, 0.000, 0.998, 0.000]",0.998,0.998,0.000,0.000,0.000,0.000,0.000,0.000,0.998,0.998,0.000,0.000
0.7400,0.99970,0.99120,0.99111,0.01572,-0.01505,1.48339,-0.00151,-0.02947,-0.02997,0.02291,-0.02532,-0.13739,0.00000,0.00000,0.00000,0.00000,0.00000,0.00000,-0.99970,-0.99120,-0.99111,-0.01572,0.01505,-1.48339,"[0.998, 0.000, 0.000, 0.000, 0.998, 0.000]",0.998,0.998,0.000,0.000,0.000,0.000,0.000,0.000,0.998,0.998,0.000,0.000
0.7450,0.99970,0.99105,0.99096,0.01585,-0.01516,1.48271,-0.00153,-0.02972,-0.03023,0.02255,-0.02497,-0.13542,0.00000,0.00000,0.00000,0.00000,0.00000,0.00000,-0.99970,-0.99105,-0.99096,-0.01585,0.01516,-1.48271,"[0.998, 0.000, 0.000, 0.000, 0.998, 0.000]",0.998,0.998,0.000,0.000,0.000,0.000,0.000,0.000,0.998,0.998,0.000,0.000
0.7500,0.99969,0.99090,0.99080,0.01597,-0.01528,1.48203,-0.00156,-0.02996,-0.03048,0.02279,-0.02524,-0.13687,0.00000,0.00000,0.00000,0.00000,0.00000,0.00000,-0.99969,-0.99090,-0.99080,-0.01597,0.01528,-1.48203,"[0.998, 0.000, 0.000, 0.000, 0.999, 0.000]",0.998,0.998,0.000,0.000,0.000,0.000,0.000,0.000,0.999,0.999,0.000,0.000
0.7550,0.99968,0.99075,0.99065,0.01609,-0.01539,1.48134,-0.00158,-0.03021,-0.03073,0.02303,-0.02550,-0.13832,0.00000,0.00000,0.00000,0.00000,0.00000,0.00000,-0.99968,-0.99075,-0.99065,-0.01609,0.01539,-1.48134,"[0.998, 0.000, 0.000, 0.000, 0.999, 0.000]",0.998,0.998,0.000,0.000,0.000,0.000,0.000,0.000,0.999,0.999,0.000,0.000
0.7600,0.99967,0.99060,0.99050,0.01622,-0.01551,1.48064,-0.00161,-0.03045,-0.03099,0.02327,-0.02577,-0.13978,0.00000,0.00000,0.00000,0.00000,0.00000,0.00000,-0.99967,-0.99060,-0.99050,-0.01622,0.01551,-1.48064,"[0.998, 0.000, 0.000, 0.000, 0.999, 0.000]",0.998,0.998,0.000,0.000,0.000,0.000,0.000,0.000,0.999,0.999,0.000,0.000
0.7650,0.99966,0.99045,0.99034,0.01635,-0.01563,1.47993,-0.00164,-0.03070,-0.03124,0.02351,-0.02603,-0.14123,0.00000,0.00000,0.00000,0.00000,0.00000,0.00000,-0.99966,-0.99045,-0.99034,-0.01635,0.01563,-1.47993,"[0.998, 0.000, 0.000, 0.000, 0.999, 0.000]",0.998,0.998,0.000,0.000,0.000,0.000,0.000,0.000,0.999,0.999,0.000,0.000
0.7700,0.99966,0.99029,0.99018,0.01648,-0.01575,1.47922,-0.00166,-0.03094,-0.03149,0.02375,-0.02630,-0.14268,0.00000,0.00000,0.00000,0.00000,0.00000,0.00000,-0.99966,-0.99029,-0.99018,-0.01648,0.01575,-1.47922,"[0.998, 0.000, 0.000, 0.000, 0.999, 0.000]",0.998,0.998,0.000,0.000,0.000,0.000,0.000,0.000,0.999,0.999,0.000,0.000
0.7750,0.99965,0.99014,0.99003,0.01661,-0.01587,1.47850,-0.00169,-0.03119,-0.03175,0.02399,-0.02656,-0.14414,0.00000,0.00000,0.00000,0.00000,0.00000,0.00000,-0.99965,-0.99014,-0.99003,-0.01661,0.01587,-1.47850,"[0.998, 0.000, 0.000, 0.000, 0.999, 0.000]",0.998,0.998,0.000,0.000,0.000,0.000,0.000,0.000,0.999,0.999,0.000,0.000
0.7800,0.99964,0.98998,0.98987,0.01674,-0.01599,1.47778,-0.00172,-0.03143,-0.03200,0.02423,-0.02683,-0.14559,0.00000,0.00000,0.00000,0.00000,0.00000,0.00000,-0.99964,-0.98998,-0.98987,-0.01674,0.01599,-1.47778,"[0.998, 0.000, 0.000, 0.000, 0.999, 0.000]",0.998,0.998,0.000,0.000,0.000,0.000,0.000,0.000,0.999,0.999,0.000,0.000
0.7850,0.99963,0.98983,0.98971,0.01687,-0.01611,1.47704,-0.00174,-0.03168,-0.03226,0.02447,-0.02709,-0.14704,0.00000,0.00000,0.00000,0.00000,0.00000,0.00000,-0.99963,-0.98983,-0.98971,-0.01687,0.01611,-1.47704,"[0.998, 0.000, 0.000, 0.000, 0.999, 0.000]",0.998,0.998,0.000,0.000,0.000,0.000,0.000,0.000,0.999,0.999,0.000,0.000
0.7900,0.99962,0.98967,0.98954,0.01701,-0.01623,1.47630,-0.00177,-0.03192,-0.03251,0.02471,-0.02735,-0.14850,0.00000,0.00000,0.00000,0.00000,0.00000,0.00000,-0.99962,-0.98967,-0.98954,-0.01701,0.01623,-1.47630,"[0.998, 0.000, 0.000, 0.000, 0.999, 0.000]",0.998,0.998,0.000,0.000,0.000,0.000,0.000,0.000,0.999,0.999,0.000,0.000
0.7950,0.99961,0.98951,0.98938,0.01715,-0.01636,1.47555,-0.00180,-0.03217,-0.03276,0.02495,-0.02762,-0.14995,0.00000,0.00000,0.00000,0.00000,0.00000,0.00000,-0.99961,-0.98951,-0.98938,-0.01715,0.01636,-1.47555,"[0.998, 0.000, 0.000, 0.000, 0.999, 0.000]",0.998,0.998,0.000,0.000,0.000,0.000,0.000,0.000,0.999,0.999,0.000,0.000
0.8000,0.99960,0.98934,0.98922,0.01728,-0.01648,1.47480,-0.00182,-0.03241,-0.03302,0.02472,-0.02741,-0.14870,0.00000,0.00000,0.00000,0.00000,0.00000,0.00000,-0.99960,-0.98934,-0.98922,-0.01728,0.01648,-1.47480,"[0.998, 0.000, 0.000, 0.000, 0.999, 0.000]",0.998,0.998,0.000,0.000,0.000,0.000,0.000,0.000,0.999,0.999,0.000,0.000
0.8050,0.99959,0.98918,0.98905,0.01742,-0.01661,1.47406,-0.00185,-0.03265,-0.03327,0.02448,-0.02719,-0.14746,0.00000,0.00000,0.00000,0.00000,0.00000,0.00000,-0.99959,-0.98918,-0.98905,-0.01742,0.01661,-1.47406,"[0.998, 0.000, 0.000, 0.000, 0.999, 0.000]",0.998,0.998,0.000,0.000,0.000,0.000,0.000,0.000,0.999,0.999,0.000,0.000
0.8100,0.99958,0.98902,0.98888,0.01755,-0.01673,1.47332,-0.00188,-0.03290,-0.03353,0.02425,-0.02698,-0.14622,0.00000,0.00000,0.00000,0.00000,0.00000,0.00000,-0.99958,-0.98902,-0.98888,-0.01755,0.01673,-1.47332,"[0.998, 0.000, 0.000, 0.000, 0.999, 0.000]",0.998,0.998,0.000,0.000,0.000,0.000,0.000,0.000,0.999,0.999,0.000,0.000
0.8150,0.99958,0.98885,0.98871,0.01768,-0.01685,1.47259,-0.00191,-0.03314,-0.03378,0.02401,-0.02676,-0.14497,0.00000,0.00000,0.00000,0.00000,0.00000,0.00000,-0.99958,-0.98885,-0.98871,-0.01768,0.01685,-1.47259,"[0.998, 0.000, 0.000, 0.000, 0.999, 0.000]",0.998,0.998,0.000,0.000,0.000,0.000,0.000,0.000,0.999,0.999,0.000,0.000
0.8200,0.99957,0.98869,0.98855,0.01782,-0.01697,1.47187,-0.00194,-0.03339,-0.03403,0.02378,-0.02655,-0.14373,0.00000,0.00000,0.00000,0.00000,0.00000,0.00000,-0.99957,-0.98869,-0.98855,-0.01782,0.01697,-1.47187,"[0.998, 0.000, 0.000, 0.000, 0.999, 0.000]",0.998,0.998,0.000,0.000,0.000,0.000,0.000,0.000,0.999,0.999,0.000,0.000
0.8250,0.99956,0.98852,0.98837,0.01795,-0.01709,1.47115,-0.00197,-0.03363,-0.03429,0.02354,-0.02634,-0.14248,0.00000,0.00000,0.00000,0.00000,0.00000,0.00000,-0.99956,-0.98852,-0.98837,-0.01795,0.01709,-1.47115,"[0.998, 0.000, 0.000, 0.000, 0.999, 0.000]",0.998,0.998,0.000,0.000,0.000,0.000,0.000,0.000,0.999,0.999,0.000,0.000
0.8300,0.99955,0.98835,0.98820,0.01808,-0.01721,1.47044,-0.00199,-0.03388,-0.03454,0.02331,-0.02612,-0.14124,0.00000,0.00000,0.00000,0.00000,0.00000,0.00000,-0.99955,-0.98835,-0.98820,-0.01808,0.01721,-1.47044,"[0.998, 0.000, 0.000, 0.000, 0.999, 0.000]",0.998,0.998,0.000,0.000,0.000,0.000,0.000,0.000,0.999,0.999,0.000,0.000
0.8350,0.99954,0.98818,0.98803,0.01820,-0.01733,1.46973,-0.00202,-0.03412,-0.03480,0.02308,-0.02591,-0.13999,0.00000,0.00000,0.00000,0.00000,0.00000,0.00000,-0.99954,-0.98818,-0.98803,-0.01820,0.01733,-1.46973,"[0.998, 0.000, 0.000, 0.000, 0.999, 0.000]",0.998,0.998,0.000,0.000,0.000,0.000,0.000,0.000,0.999,0.999,0.000,0.000
0.8400,0.99953,0.98801,0.98785,0.01833,-0.01744,1.46904,-0.00205,-0.03436,-0.03505,0.02284,-0.02569,-0.13875,0.00000,0.00000,0.00000,0.00000,0.00000,0.00000,-0.99953,-0.98801,-0.98785,-0.01833,0.01744,-1.46904,"[0.998, 0.000, 0.000, 0.000, 0.999, 0.000]",0.998,0.998,0.000,0.000,0.000,0.000,0.000,0.000,0.999,0.999,0.000,0.000
0.8450,0.99952,0.98784,0.98768,0.01846,-0.01756,1.46834,-0.00208,-0.03461,-0.03531,0.02261,-0.02548,-0.13750,0.00000,0.00000,0.00000,0.00000,0.00000,0.00000,-0.99952,-0.98784,-0.98768,-0.01846,0.01756,-1.46834,"[0.998, 0.000, 0.000, 0.000, 0.999, 0.000]",0.998,0.998,0.000,0.000,0.000,0.000,0.000,0.000,0.999,0.999,0.000,0.000
0.8500,0.99950,0.98766,0.98750,0.01858,-0.01767,1.46765,-0.00211,-0.03485,-0.03556,0.02274,-0.02564,-0.13839,0.00000,0.00000,0.00000,0.00000,0.00000,0.00000,-0.99950,-0.98766,-0.98750,-0.01858,0.01767,-1.46765,"[1.000, 0.000, 0.000, 0.000, 1.000, 0.000]",1.000,1.000,0.000,0.000,0.000,0.000,0.000,0.000,1.000,1.000,0.000,0.000
0.8550,0.99949,0.98749,0.98732,0.01871,-0.01779,1.46695,-0.00214,-0.03509,-0.03581,0.02288,-0.02580,-0.13927,0.00000,0.00000,0.00000,0.00000,0.00000,0.00000,-0.99949,-0.98749,-0.98732,-0.01871,0.01779,-1.46695,"[1.000, 0.000, 0.000, 0.000, 1.000, 0.000]",1.000,1.000,0.000,0.000,0.000,0.000,0.000,0.000,1.000,1.000,0.000,0.000
0.8600,0.99948,0.98731,0.98714,0.01884,-0.01790,1.46625,-0.00217,-0.03534,-0.03607,0.02302,-0.02596,-0.14015,0.00000,0.00000,0.00000,0.00000,0.00000,0.00000,-0.99948,-0.98731,-0.98714,-0.01884,0.01790,-1.46625,"[1.000, 0.000, 0.000, 0.000, 1.000, 0.000]",1.000,1.000,0.000,0.000,0.000,0.000,0.000,0.000,1.000,1.000,0.000,0.000
0.8650,0.99947,0.98713,0.98696,0.01896,-0.01802,1.46555,-0.00220,-0.03558,-0.03632,0.02315,-0.02612,-0.14103,0.00000,0.00000,0.00000,0.00000,0.00000,0.00000,-0.99947,-0.98713,-0.98696,-0.01896,0.01802,-1.46555,"[1.000, 0.000, 0.000, 0.000, 1.000, 0.000]",1.000,1.000,0.000,0.000,0.000,0.000,0.000,0.000,1.000,1.000,0.000,0.000
0.8700,0.99946,0.98696,0.98678,0.01909,-0.01814,1.46484,-0.00223,-0.03583,-0.03658,0.02329,-0.02628,-0.14191,0.00000,0.00000,0.00000,0.00000,0.00000,0.00000,-0.99946,-0.98696,-0.98678,-0.01909,0.01814,-1.46484,"[1.000, 0.000, 0.000, 0.000, 1.000, 0.000]",1.000,1.000,0.000,0.000,0.000,0.000,0.000,0.000,1.000,1.000,0.000,0.000
0.8750,0.99945,0.98678,0.98660,0.01922,-0.01826,1.46412,-0.00226,-0.03607,-0.03683,0.02343,-0.02644,-0.14279,0.00000,0.00000,0.00000,0.00000,0.00000,0.00000,-0.99945,-0.98678,-0.98660,-0.01922,0.01826,-1.46412,"[1.000, 0.000, 0.000, 0.000, 1.000, 0.000]",1.000,1.000,0.000,0.000,0.000,0.000,0.000,0.000,1.000,1.000,0.000,0.000
0.8800,0.99944,0.98660,0.98641,0.01935,-0.01838,1.46340,-0.00229,-0.03631,-0.03709,0.02356,-0.02660,-0.14367,0.00000,0.00000,0.00000,0.00000,0.00000,0.00000,-0.99944,-0.98660,-0.98641,-0.01935,0.01838,-1.46340,"[1.000, 0.000, 0.000, 0.000, 1.000, 0.000]",1.000,1.000,0.000,0.000,0.000,0.000,0.000,0.000,1.000,1.000,0.000,0.000
0.8850,0.99943,0.98641,0.98623,0.01948,-0.01850,1.46268,-0.00233,-0.03656,-0.03734,0.02370,-0.02677,-0.14456,0.00000,0.00000,0.00000,0.00000,0.00000,0.00000,-0.99943,-0.98641,-0.98623,-0.01948,0.01850,-1.46268,"[1.000, 0.000, 0.000, 0.000, 1.000, 0.000]",1.000,1.000,0.000,0.000,0.000,0.000,0.000,0.000,1.000,1.000,0.000,0.000
0.8900,0.99942,0.98623,0.98604,0.01962,-0.01862,1.46195,-0.00236,-0.03680,-0.03760,0.02384,-0.02693,-0.14544,0.00000,0.00000,0.00000,0.00000,0.00000,0.00000,-0.99942,-0.98623,-0.98604,-0.01962,0.01862,-1.46195,"[1.000, 0.000, 0.000, 0.000, 1.000, 0.000]",1.000,1.000,0.000,0.000,0.000,0.000,0.000,0.000,1.000,1.000,0.000,0.000
0.8950,0.99940,0.98605,0.98585,0.01975,-0.01874,1.46122,-0.00239,-0.03704,-0.03785,0.02397,-0.02709,-0.14632,0.00000,0.00000,0.00000,0.00000,0.00000,0.00000,-0.99940,-0.98605,-0.98585,-0.01975,0.01874,-1.46122,"[1.000, 0.000, 0.000, 0.000, 1.000, 0.000]",1.000,1.000,0.000,0.000,0.000,0.000,0.000,0.000,1.000,1.000,0.000,0.000
0.9000,0.99939,0.98586,0.98566,0.01988,-0.01886,1.46049,-0.00242,-0.03729,-0.03810,0.02383,-0.02697,-0.14558,0.00000,0.00000,0.00000,0.00000,0.00000,0.00000,-0.99939,-0.98586,-0.98566,-0.01988,0.01886,-1.46049,"[1.000, 0.000, 0.000, 0.000, 1.000, 0.000]",1.000,1.000,0.000,0.000,0.000,0.000,0.000,0.000,1.000,1.000,0.000,0.000
0.9050,0.99938,0.98567,0.98547,0.02002,-0.01898,1.45976,-0.00245,-0.03753,-0.03836,0.02369,-0.02684,-0.14483,0.00000,0.00000,0.00000,0.00000,0.00000,0.00000,-0.99938,-0.98567,-0.98547,-0.02002,0.01898,-1.45976,"[1.000, 0.000, 0.000, 0.000, 1.000, 0.000]",1.000,1.000,0.000,0.000,0.000,0.000,0.000,0.000,1.000,1.000,0.000,0.000
0.9100,0.99937,0.98548,0.98528,0.02015,-0.01910,1.45904,-0.00248,-0.03777,-0.03861,0.02354,-0.02672,-0.14409,0.00000,0.00000,0.00000,0.00000,0.00000,0.00000,-0.99937,-0.98548,-0.98528,-0.02015,0.01910,-1.45904,"[1.000, 0.000, 0.000, 0.000, 1.000, 0.000]",1.000,1.000,0.000,0.000,0.000,0.000,0.000,0.000,1.000,1.000,0.000,0.000
