Step,MPC_Start_Time,Control_Time,Actual_Time_Interval,CONTROL_DT,Mission_Phase,Waypoint_Number,Telemetry_X_mm,Telemetry_Y_mm,Telemetry_Z_mm,Telemetry_Roll_deg,Telemetry_Pitch_deg,Telemetry_Yaw_deg,Current_X,Current_Y,Current_Z,Current_Roll,Current_Pitch,Current_Yaw,Current_VX,Current_VY,Current_VZ,Current_WX,Current_WY,Current_WZ,Target_X,Target_Y,Target_Z,Target_Roll,Target_Pitch,Target_Yaw,Target_VX,Target_VY,Target_VZ,Target_WX,Target_WY,Target_WZ,Error_X,Error_Y,Error_Z,Error_Roll,Error_Pitch,Error_Yaw,Error_VX,Error_VY,Error_VZ,Error_WX,Error_WY,Error_WZ,MPC_Computation_Time,MPC_Status,MPC_Solver,MPC_Solver_Time_Limit,MPC_Solve_Time,MPC_Time_Limit_Exceeded,MPC_Fallback_Used,MPC_Objective,MPC_Iterations,MPC_Optimality_Gap,Command_Vector,Command_Hex,Command_Sent_Time,Total_Active_Thrusters,Thruster_Switches,RW_Torque_X,RW_Torque_Y,RW_Torque_Z,Total_MPC_Loop_Time,Timing_Violation
0,0.0450,0.0450,0.0500,0.050,APPROACHING,0,1000.00,1000.00,1000.00,0.00,0.00,90.00,1.00000,1.00000,1.00000,0.00000,0.00000,1.57080,0.00000,0.00000,0.00000,0.00000,0.00000,0.00000,0.00000,0.00000,0.00000,0.00000,0.00000,0.00000,0.00000,0.00000,0.00000,0.00000,0.00000,0.00000,1.00000,1.00000,1.00000,0.00000,0.00000,-1.57080,0.00000,0.00000,0.00000,0.00000,0.00000,0.00000,0.0000,,,,0.0321,,,,,,"[1.000, 1.000, 1.000, 1.000, 0.000, 0.000, 0.000, 0.001]",0x11110000,0.0450,4,0,0.100000,-0.100000,-0.100000,0.0000,NO
1,0.0950,0.0950,0.0500,0.050,APPROACHING,0,999.89,999.89,1000.00,0.09,-0.09,89.91,0.99989,0.99989,1.00000,0.00149,-0.00149,1.56931,-0.00433,-0.00436,-0.00000,0.05945,-0.05945,-0.05944,0.00000,0.00000,0.00000,0.00000,0.00000,0.00000,0.00000,0.00000,0.00000,0.00000,0.00000,0.00000,0.99989,0.99989,1.00000,-0.00149,0.00149,-1.56931,0.00433,0.00436,0.00000,-0.05945,0.05945,0.05944,0.0000,,,,0.0199,,,,,,"[1.000, 1.000, 1.000, 1.000, 0.000, 0.000, 0.000, 0.000]",0x11110000,0.0950,4,0,0.100000,-0.100000,-0.099848,0.0000,NO
2,0.1450,0.1450,0.0500,0.050,APPROACHING,0,999.57,999.56,1000.00,0.34,-0.34,89.66,0.99957,0.99956,1.00000,0.00596,-0.00593,1.56484,-0.00867,-0.00871,-0.00000,0.11891,-0.11891,-0.11878,0.00000,0.00000,0.00000,0.00000,0.00000,0.00000,0.00000,0.00000,0.00000,0.00000,0.00000,0.00000,0.99957,0.99956,1.00000,-0.00596,0.00593,-1.56484,0.00867,0.00871,0.00000,-0.11891,0.11891,0.11878,0.0000,,,,0.0159,,,,,,"[1.000, 1.000, 1.000, 1.000, 0.000, 0.000, 0.000, 0.000]",0x11110000,0.1450,4,0,-0.047691,0.037371,-0.099841,0.0000,NO
3,0.1950,0.1950,0.0500,0.050,APPROACHING,0,999.02,999.02,1000.00,0.65,-0.64,89.23,0.99902,0.99902,1.00000,0.01127,-0.01125,1.55737,-0.01304,-0.01303,-0.00000,0.09053,-0.09671,-0.17812,0.00000,0.00000,0.00000,0.00000,0.00000,0.00000,0.00000,0.00000,0.00000,0.00000,0.00000,0.00000,0.99902,0.99902,1.00000,-0.01127,0.01125,-1.55737,0.01304,0.01303,0.00000,-0.09053,0.09671,0.17812,0.0000,,,,0.0119,,,,,,"[1.000, 0.999, 1.000, 0.999, 0.001, 0.000, 0.001, 0.000]",0x11110000,0.1950,4,0,0.023576,-0.025453,-0.099815,0.0000,NO
4,0.2450,0.2450,0.0500,0.050,APPROACHING,0,998.26,998.26,1000.00,0.93,-0.94,88.63,0.99826,0.99826,1.00000,0.01629,-0.01632,1.54691,-0.01745,-0.01731,-0.00000,0.10454,-0.11185,-0.23745,0.00000,0.00000,0.00000,0.00000,0.00000,0.00000,0.00000,0.00000,0.00000,0.00000,0.00000,0.00000,0.99826,0.99826,1.00000,-0.01629,0.01632,-1.54691,0.01745,0.01731,0.00000,-0.10454,0.11185,0.23745,0.0000,,,,0.0096,,,,,,"[1.000, 0.999, 1.000, 0.999, 0.001, 0.000, 0.001, 0.000]",0x11110000,0.2450,4,0,-0.024913,0.017737,-0.099864,0.0000,NO
5,0.2950,0.2950,0.0500,0.050,APPROACHING,0,997.28,997.29,1000.00,1.23,-1.23,87.86,0.99728,0.99729,1.00000,0.02140,-0.02140,1.53345,-0.02190,-0.02154,-0.00000,0.08970,-0.10133,-0.29680,0.00000,0.00000,0.00000,0.00000,0.00000,0.00000,0.00000,0.00000,0.00000,0.00000,0.00000,0.00000,0.99728,0.99729,1.00000,-0.02140,0.02140,-1.53345,0.02190,0.02154,0.00000,-0.08970,0.10133,0.29680,0.0000,,,,0.0077,,,,,,"[1.000, 0.999, 0.999, 0.999, 0.001, 0.000, 0.001, 0.001]",0x11110000,0.2950,4,0,0.008328,-0.011778,-0.099955,0.0000,NO
6,0.3450,0.3450,0.0500,0.050,APPROACHING,0,996.07,996.11,1000.00,1.51,-1.50,86.92,0.99607,0.99611,1.00000,0.02640,-0.02625,1.51700,-0.02642,-0.02570,-0.00000,0.09464,-0.10834,-0.35621,0.00000,0.00000,0.00000,0.00000,0.00000,0.00000,0.00000,0.00000,0.00000,0.00000,0.00000,0.00000,0.99607,0.99611,1.00000,-0.02640,0.02625,-1.51700,0.02642,0.02570,0.00000,-0.09464,0.10834,0.35621,0.0000,,,,0.0065,,,,,,"[0.999, 0.999, 0.999, 0.999, 0.001, 0.001, 0.001, 0.001]",0x11110000,0.3450,4,0,-0.014224,0.008518,-0.099991,0.0000,NO
7,0.3950,0.3950,0.0500,0.050,APPROACHING,0,994.64,994.72,1000.00,1.80,-1.77,85.80,0.99464,0.99472,1.00000,0.03148,-0.03098,1.49755,-0.03101,-0.02979,-0.00000,0.08617,-0.10330,-0.41564,0.00000,0.00000,0.00000,0.00000,0.00000,0.00000,0.00000,0.00000,0.00000,0.00000,0.00000,0.00000,0.99464,0.99472,1.00000,-0.03148,0.03098,-1.49755,0.03101,0.02979,0.00000,-0.08617,0.10330,0.41564,0.0000,,,,0.0065,,,,,,"[0.999, 0.999, 0.999, 0.999, 0.001, 0.001, 0.001, 0.001]",0x11110000,0.3950,4,0,0.001326,-0.005324,-0.100000,0.0000,NO
8,0.4450,0.4450,0.0500,0.050,APPROACHING,0,992.97,993.13,1000.00,2.09,-2.03,84.52,0.99297,0.99313,1.00000,0.03655,-0.03546,1.47511,-0.03568,-0.03378,0.00000,0.08694,-0.10648,-0.47507,0.00000,0.00000,0.00000,0.00000,0.00000,0.00000,0.00000,0.00000,0.00000,0.00000,0.00000,0.00000,0.99297,0.99313,1.00000,-0.03655,0.03546,-1.47511,0.03568,0.03378,-0.00000,-0.08694,0.10648,0.47507,0.0000,,,,0.0077,,,,,,"[1.000, 1.000, 1.000, 1.000, 0.000, 0.000, 0.000, 0.000]",0x11110000,0.4450,4,0,-0.007547,0.000900,-0.099998,0.0000,NO
9,0.4950,0.4950,0.0500,0.050,APPROACHING,0,991.07,991.35,1000.00,2.39,-2.28,83.06,0.99107,0.99135,1.00000,0.04175,-0.03978,1.44966,-0.04045,-0.03766,0.00001,0.08244,-0.10596,-0.53450,0.00000,0.00000,0.00000,0.00000,0.00000,0.00000,0.00000,0.00000,0.00000,0.00000,0.00000,0.00000,0.99107,0.99135,1.00000,-0.04175,0.03978,-1.44966,0.04045,0.03766,-0.00001,-0.08244,0.10596,0.53450,0.0000,,,,0.0021,,,,,,"[1.000, 1.000, 1.000, 1.000, 0.000, 0.000, 0.000, 0.000]",0x11110000,0.4950,4,0,-0.004763,0.000586,-0.036736,0.0000,NO
10,0.5450,0.5450,0.0500,0.050,APPROACHING,0,988.92,989.37,1000.00,2.69,-2.51,81.48,0.98892,0.98937,1.00000,0.04695,-0.04385,1.42216,-0.04532,-0.04141,0.00001,0.07960,-0.10562,-0.55633,0.00000,0.00000,0.00000,0.00000,0.00000,0.00000,0.00000,0.00000,0.00000,0.00000,0.00000,0.00000,0.98892,0.98937,1.00000,-0.04695,0.04385,-1.42216,0.04532,0.04141,-0.00001,-0.07960,0.10562,0.55633,0.0000,,,,0.0021,,,,,,"[1.000, 1.000, 1.000, 1.000, 0.000, 0.000, 0.000, 0.000]",0x11110000,0.5450,4,0,-0.003988,0.000569,0.008459,0.0000,NO
11,0.5950,0.5950,0.0500,0.050,APPROACHING,0,986.53,987.21,1000.00,2.99,-2.74,79.88,0.98653,0.98721,1.00000,0.05215,-0.04775,1.39421,-0.05028,-0.04502,0.00003,0.07723,-0.10529,-0.55128,0.00000,0.00000,0.00000,0.00000,0.00000,0.00000,0.00000,0.00000,0.00000,0.00000,0.00000,0.00000,0.98653,0.98721,1.00000,-0.05215,0.04775,-1.39421,0.05028,0.04502,-0.00003,-0.07723,0.10529,0.55128,0.0000,,,,0.0021,,,,,,"[1.000, 1.000, 1.000, 1.000, 0.000, 0.000, 0.000, 0.000]",0x11110000,0.5950,4,0,-0.004199,0.000644,0.021751,0.0000,NO
12,0.6450,0.6450,0.0500,0.050,APPROACHING,0,983.89,984.87,1000.00,3.28,-2.95,78.31,0.98389,0.98487,1.00000,0.05731,-0.05150,1.36669,-0.05535,-0.04850,0.00005,0.07474,-0.10490,-0.53833,0.00000,0.00000,0.00000,0.00000,0.00000,0.00000,0.00000,0.00000,0.00000,0.00000,0.00000,0.00000,0.98389,0.98487,1.00000,-0.05731,0.05150,-1.36669,0.05535,0.04850,-0.00005,-0.07474,0.10490,0.53833,0.0000,,,,0.0053,,,,,,"[1.000, 1.000, 1.000, 1.000, 0.000, 0.000, 0.000, 0.000]",0x11110000,0.6450,4,0,-0.004801,0.001140,0.019725,0.0000,NO
13,0.6950,0.6950,0.0500,0.050,APPROACHING,0,981.00,982.36,1000.01,3.58,-3.16,76.76,0.98100,0.98236,1.00001,0.06241,-0.05513,1.33976,-0.06051,-0.05184,0.00007,0.07189,-0.10423,-0.52659,0.00000,0.00000,0.00000,0.00000,0.00000,0.00000,0.00000,0.00000,0.00000,0.00000,0.00000,0.00000,0.98100,0.98236,1.00001,-0.06241,0.05513,-1.33976,0.06051,0.05184,-0.00007,-0.07189,0.10423,0.52659,0.0000,,,,0.0021,,,,,,"[1.000, 1.000, 1.000, 1.000, 0.000, 0.000, 0.000, 0.000]",0x11110000,0.6950,4,0,-0.004526,0.000786,0.014731,0.0000,NO
14,0.7450,0.7450,0.0500,0.050,APPROACHING,0,977.84,979.69,1000.01,3.86,-3.36,75.25,0.97784,0.97969,1.00001,0.06744,-0.05862,1.31333,-0.06575,-0.05504,0.00011,0.06920,-0.10376,-0.51781,0.00000,0.00000,0.00000,0.00000,0.00000,0.00000,0.00000,0.00000,0.00000,0.00000,0.00000,0.00000,0.97784,0.97969,1.00001,-0.06744,0.05862,-1.31333,0.06575,0.05504,-0.00011,-0.06920,0.10376,0.51781,0.0000,,,,0.0021,,,,,,"[1.000, 1.000, 1.000, 1.000, 0.000, 0.000, 0.000, 0.000]",0x11110000,0.7450,4,0,-0.004355,0.000673,0.013219,0.0000,NO
15,0.7950,0.7950,0.0500,0.050,APPROACHING,0,974.42,976.86,1000.02,4.15,-3.55,73.76,0.97442,0.97686,1.00002,0.07241,-0.06199,1.28729,-0.07108,-0.05810,0.00015,0.06661,-0.10336,-0.50993,0.00000,0.00000,0.00000,0.00000,0.00000,0.00000,0.00000,0.00000,0.00000,0.00000,0.00000,0.00000,0.97442,0.97686,1.00002,-0.07241,0.06199,-1.28729,0.07108,0.05810,-0.00015,-0.06661,0.10336,0.50993,0.0000,,,,0.0021,,,,,,"[1.000, 1.000, 1.000, 1.000, 0.000, 0.000, 0.000, 0.000]",0x11110000,0.7950,4,0,-0.004248,0.000724,0.013578,0.0000,NO
16,0.8450,0.8450,0.0500,0.050,APPROACHING,0,970.73,973.88,1000.03,4.43,-3.74,72.29,0.97073,0.97388,1.00003,0.07731,-0.06525,1.26163,-0.07648,-0.06103,0.00019,0.06409,-0.10294,-0.50184,0.00000,0.00000,0.00000,0.00000,0.00000,0.00000,0.00000,0.00000,0.00000,0.00000,0.00000,0.00000,0.97073,0.97388,1.00003,-0.07731,0.06525,-1.26163,0.07648,0.06103,-0.00019,-0.06409,0.10294,0.50184,0.0000,,,,0.0042,,,,,,"[1.000, 1.000, 1.000, 1.000, 0.000, 0.000, 0.000, 0.000]",0x11110000,0.8450,4,0,-0.004258,0.000902,0.014215,0.0000,NO
17,0.8950,0.8950,0.0500,0.050,APPROACHING,0,966.77,970.76,1000.04,4.71,-3.92,70.84,0.96677,0.97076,1.00004,0.08214,-0.06838,1.23636,-0.08195,-0.06382,0.00024,0.06156,-0.10240,-0.49337,0.00000,0.00000,0.00000,0.00000,0.00000,0.00000,0.00000,0.00000,0.00000,0.00000,0.00000,0.00000,0.96677,0.97076,1.00004,-0.08214,0.06838,-1.23636,0.08195,0.06382,-0.00024,-0.06156,0.10240,0.49337,0.0000,,,,0.0021,,,,,,"[1.000, 1.000, 1.000, 1.000, 0.000, 0.000, 0.000, 0.000]",0x11110000,0.8950,4,0,-0.004047,0.000886,0.014279,0.0000,NO
18,0.9450,0.9450,0.0500,0.050,APPROACHING,0,962.53,967.50,1000.05,4.98,-4.09,69.41,0.96253,0.96750,1.00005,0.08689,-0.07141,1.21150,-0.08749,-0.06648,0.00030,0.05915,-0.10188,-0.48486,0.00000,0.00000,0.00000,0.00000,0.00000,0.00000,0.00000,0.00000,0.00000,0.00000,0.00000,0.00000,0.96253,0.96750,1.00005,-0.08689,0.07141,-1.21150,0.08749,0.06648,-0.00030,-0.05915,0.10188,0.48486,0.0000,,,,0.0021,,,,,,"[1.000, 1.000, 1.000, 1.000, 0.000, 0.000, 0.000, 0.000]",0x11110000,0.9450,4,0,-0.003899,0.000922,0.014368,0.0000,NO
19,0.9950,0.9950,0.0500,0.050,APPROACHING,0,958.02,964.11,1000.07,5.25,-4.26,68.01,0.95802,0.96411,1.00007,0.09157,-0.07433,1.18705,-0.09309,-0.06900,0.00037,0.05683,-0.10133,-0.47630,0.00000,0.00000,0.00000,0.00000,0.00000,0.00000,0.00000,0.00000,0.00000,0.00000,0.00000,0.00000,0.95802,0.96411,1.00007,-0.09157,0.07433,-1.18705,0.09309,0.06900,-0.00037,-0.05683,0.10133,0.47630,0.0000,,,,0.0043,,,,,,"[1.000, 1.000, 1.000, 1.000, 0.000, 0.000, 0.000, 0.000]",0x11110000,0.9950,4,0,-0.003917,0.001092,0.014586,0.0000,NO
20,1.0450,1.0450,0.0500,0.050,APPROACHING,0,953.22,960.60,1000.09,5.51,-4.42,66.64,0.95322,0.96060,1.00009,0.09617,-0.07714,1.16301,-0.09876,-0.07138,0.00044,0.05451,-0.10068,-0.46761,0.00000,0.00000,0.00000,0.00000,0.00000,0.00000,0.00000,0.00000,0.00000,0.00000,0.00000,0.00000,0.95322,0.96060,1.00009,-0.09617,0.07714,-1.16301,0.09876,0.07138,-0.00044,-0.05451,0.10068,0.46761,0.0000,,,,0.0021,,,,,,"[1.000, 1.000, 1.000, 1.000, 0.000, 0.000, 0.000, 0.000]",0x11110000,1.0450,4,0,-0.003680,0.001034,0.014101,0.0000,NO
21,1.0950,1.0950,0.0500,0.050,APPROACHING,0,948.14,956.98,1000.11,5.77,-4.58,65.28,0.94814,0.95698,1.00011,0.10069,-0.07986,1.13939,-0.10447,-0.07363,0.00053,0.05232,-0.10007,-0.45921,0.00000,0.00000,0.00000,0.00000,0.00000,0.00000,0.00000,0.00000,0.00000,0.00000,0.00000,0.00000,0.94814,0.95698,1.00011,-0.10069,0.07986,-1.13939,0.10447,0.07363,-0.00053,-0.05232,0.10007,0.45921,0.0000,,,,0.0065,,,,,,"[1.000, 1.000, 1.000, 1.000, 0.000, 0.000, 0.000, 0.000]",0x11110000,1.0950,4,0,-0.003619,0.001152,0.014233,0.0000,NO
22,1.1450,1.1450,0.0500,0.050,APPROACHING,0,942.78,953.24,1000.14,6.02,-4.73,63.95,0.94278,0.95324,1.00014,0.10514,-0.08248,1.11617,-0.11024,-0.07575,0.00062,0.05017,-0.09938,-0.45073,0.00000,0.00000,0.00000,0.00000,0.00000,0.00000,0.00000,0.00000,0.00000,0.00000,0.00000,0.00000,0.94278,0.95324,1.00014,-0.10514,0.08248,-1.11617,0.11024,0.07575,-0.00062,-0.05017,0.09938,0.45073,0.0000,,,,0.0042,,,,,,"[1.000, 1.000, 1.000, 1.000, 0.000, 0.000, 0.000, 0.000]",0x11110000,1.1450,4,0,-0.003454,0.001156,0.013941,0.0000,NO
23,1.1950,1.1950,0.0500,0.050,APPROACHING,0,937.12,949.40,1000.17,6.27,-4.87,62.64,0.93712,0.94940,1.00017,0.10951,-0.08501,1.09336,-0.11605,-0.07774,0.00071,0.04812,-0.09870,-0.44243,0.00000,0.00000,0.00000,0.00000,0.00000,0.00000,0.00000,0.00000,0.00000,0.00000,0.00000,0.00000,0.93712,0.94940,1.00017,-0.10951,0.08501,-1.09336,0.11605,0.07774,-0.00071,-0.04812,0.09870,0.44243,0.0000,,,,0.0021,,,,,,"[1.000, 1.000, 1.000, 1.000, 0.000, 0.000, 0.000, 0.000]",0x11110000,1.1950,4,0,-0.003302,0.001171,0.013663,0.0000,NO
24,1.2450,1.2450,0.0500,0.050,APPROACHING,0,931.17,945.47,1000.21,6.52,-5.01,61.36,0.93117,0.94547,1.00021,0.11379,-0.08746,1.07095,-0.12190,-0.07960,0.00082,0.04616,-0.09800,-0.43429,0.00000,0.00000,0.00000,0.00000,0.00000,0.00000,0.00000,0.00000,0.00000,0.00000,0.00000,0.00000,0.93117,0.94547,1.00021,-0.11379,0.08746,-1.07095,0.12190,0.07960,-0.00082,-0.04616,0.09800,0.43429,0.0000,,,,0.0032,,,,,,"[1.000, 1.000, 1.000, 1.000, 0.000, 0.000, 0.000, 0.000]",0x11110000,1.2450,4,0,-0.003212,0.001290,0.013816,0.0000,NO
25,1.2950,1.2950,0.0500,0.050,APPROACHING,0,924.93,941.44,1000.25,6.76,-5.15,60.10,0.92493,0.94144,1.00025,0.11800,-0.08982,1.04893,-0.12780,-0.08133,0.00093,0.04425,-0.09724,-0.42605,0.00000,0.00000,0.00000,0.00000,0.00000,0.00000,0.00000,0.00000,0.00000,0.00000,0.00000,0.00000,0.92493,0.94144,1.00025,-0.11800,0.08982,-1.04893,0.12780,0.08133,-0.00093,-0.04425,0.09724,0.42605,0.0000,,,,0.0043,,,,,,"[1.000, 1.000, 1.000, 1.000, 0.000, 0.000, 0.000, 0.000]",0x11110000,1.2950,4,0,-0.003118,0.001363,0.013720,0.0000,NO
26,1.3450,1.3450,0.0500,0.050,APPROACHING,0,918.39,937.34,1000.30,7.00,-5.28,58.86,0.91839,0.93734,1.00030,0.12213,-0.09210,1.02732,-0.13373,-0.08294,0.00105,0.04239,-0.09643,-0.41788,0.00000,0.00000,0.00000,0.00000,0.00000,0.00000,0.00000,0.00000,0.00000,0.00000,0.00000,0.00000,0.91839,0.93734,1.00030,-0.12213,0.09210,-1.02732,0.13373,0.08294,-0.00105,-0.04239,0.09643,0.41788,0.0000,,,,0.0054,,,,,,"[1.000, 1.000, 1.000, 1.000, 0.000, 0.000, 0.000, 0.000]",0x11110000,1.3450,4,0,-0.002989,0.001385,0.013465,0.0000,NO
27,1.3950,1.3950,0.0500,0.050,APPROACHING,0,911.55,933.15,1000.36,7.23,-5.40,57.65,0.91155,0.93315,1.00036,0.12618,-0.09430,1.00610,-0.13969,-0.08442,0.00118,0.04062,-0.09561,-0.40986,0.00000,0.00000,0.00000,0.00000,0.00000,0.00000,0.00000,0.00000,0.00000,0.00000,0.00000,0.00000,0.91155,0.93315,1.00036,-0.12618,0.09430,-1.00610,0.13969,0.08442,-0.00118,-0.04062,0.09561,0.40986,0.0000,,,,0.0021,,,,,,"[1.000, 1.000, 1.000, 1.000, 0.000, 0.000, 0.000, 0.000]",0x11110000,1.3950,4,0,-0.002860,0.001385,0.013047,0.0000,NO
28,1.4450,1.4450,0.0500,0.050,APPROACHING,0,904.42,928.90,1000.42,7.46,-5.52,56.45,0.90442,0.92890,1.00042,0.13015,-0.09643,0.98526,-0.14568,-0.08578,0.00131,0.03892,-0.09478,-0.40208,0.00000,0.00000,0.00000,0.00000,0.00000,0.00000,0.00000,0.00000,0.00000,0.00000,0.00000,0.00000,0.90442,0.92890,1.00042,-0.13015,0.09643,-0.98526,0.14568,0.08578,-0.00131,-0.03892,0.09478,0.40208,0.0000,,,,0.0021,,,,,,"[1.000, 1.000, 1.000, 1.000, 0.000, 0.000, 0.000, 0.000]",0x11110000,1.4450,4,0,-0.002751,0.001450,0.012910,0.0000,NO
29,1.4950,1.4950,0.0500,0.050,APPROACHING,0,896.99,924.58,1000.49,7.68,-5.64,55.28,0.89699,0.92458,1.00049,0.13405,-0.09848,0.96480,-0.15170,-0.08701,0.00145,0.03728,-0.09392,-0.39439,0.00000,0.00000,0.00000,0.00000,0.00000,0.00000,0.00000,0.00000,0.00000,0.00000,0.00000,0.00000,0.89699,0.92458,1.00049,-0.13405,0.09848,-0.96480,0.15170,0.08701,-0.00145,-0.03728,0.09392,0.39439,0.0000,,,,0.0021,,,,,,"[1.000, 1.000, 1.000, 1.000, 0.000, 0.000, 0.000, 0.000]",0x11110000,1.4950,4,0,-0.002647,0.001522,0.012822,0.0000,NO
30,1.5450,1.5450,0.0500,0.050,APPROACHING,0,889.25,920.20,1000.57,7.90,-5.76,54.13,0.88925,0.92020,1.00057,0.13787,-0.10046,0.94472,-0.15774,-0.08813,0.00160,0.03571,-0.09302,-0.38675,0.00000,0.00000,0.00000,0.00000,0.00000,0.00000,0.00000,0.00000,0.00000,0.00000,0.00000,0.00000,0.88925,0.92020,1.00057,-0.13787,0.10046,-0.94472,0.15774,0.08813,-0.00160,-0.03571,0.09302,0.38675,0.0000,,,,0.0033,,,,,,"[1.000, 1.000, 1.000, 1.000, 0.000, 0.000, 0.000, 0.000]",0x11110000,1.5450,4,0,-0.002548,0.001652,0.012936,0.0000,NO
31,1.5950,1.5950,0.0500,0.050,APPROACHING,0,881.21,915.77,1000.65,8.11,-5.87,53.00,0.88121,0.91577,1.00065,0.14161,-0.10238,0.92502,-0.16380,-0.08913,0.00176,0.03420,-0.09204,-0.37904,0.00000,0.00000,0.00000,0.00000,0.00000,0.00000,0.00000,0.00000,0.00000,0.00000,0.00000,0.00000,0.88121,0.91577,1.00065,-0.14161,0.10238,-0.92502,0.16380,0.08913,-0.00176,-0.03420,0.09204,0.37904,0.0000,,,,0.0054,,,,,,"[1.000, 1.000, 0.000, 0.000, 0.000, 0.000, 1.000, 1.000]",0x11000011,1.5950,4,4,-0.002436,0.001683,0.013170,0.0000,NO
32,1.6450,1.6450,0.0500,0.050,APPROACHING,0,873.05,911.15,1000.71,8.32,-5.97,51.89,0.87305,0.91115,1.00071,0.14528,-0.10423,0.90569,-0.16266,-0.09538,0.00064,0.03275,-0.09104,-0.37144,0.00000,0.00000,0.00000,0.00000,0.00000,0.00000,0.00000,0.00000,0.00000,0.00000,0.00000,0.00000,0.87305,0.91115,1.00071,-0.14528,0.10423,-0.90569,0.16266,0.09538,-0.00064,-0.03275,0.09104,0.37144,0.0000,,,,0.0021,,,,,,"[1.000, 1.000, 0.000, 0.000, 0.000, 0.000, 1.000, 1.000]",0x11000011,1.6450,4,0,-0.002349,0.001606,0.012629,0.0000,NO
33,1.6950,1.6950,0.0500,0.050,APPROACHING,0,864.94,906.23,1000.72,8.53,-6.07,50.81,0.86494,0.90623,1.00072,0.14887,-0.10601,0.88673,-0.16165,-0.10165,-0.00051,0.03135,-0.09008,-0.36415,0.00000,0.00000,0.00000,0.00000,0.00000,0.00000,0.00000,0.00000,0.00000,0.00000,0.00000,0.00000,0.86494,0.90623,1.00072,-0.14887,0.10601,-0.88673,0.16165,0.10165,0.00051,-0.03135,0.09008,0.36415,0.0000,,,,0.0021,,,,,,"[1.000, 1.000, 0.000, 0.000, 0.000, 0.000, 1.000, 1.000]",0x11000011,1.6950,4,0,-0.002301,0.001587,0.012421,0.0000,NO
34,1.7450,1.7450,0.0500,0.050,APPROACHING,0,856.88,900.99,1000.66,8.73,-6.17,49.74,0.85688,0.90099,1.00066,0.15239,-0.10774,0.86813,-0.16075,-0.10793,-0.00168,0.02999,-0.08914,-0.35700,0.00000,0.00000,0.00000,0.00000,0.00000,0.00000,0.00000,0.00000,0.00000,0.00000,0.00000,0.00000,0.85688,0.90099,1.00066,-0.15239,0.10774,-0.86813,0.16075,0.10793,0.00168,-0.02999,0.08914,0.35700,0.0000,,,,0.0021,,,,,,"[1.000, 1.000, 0.000, 0.000, 0.000, 0.000, 1.000, 1.000]",0x11000011,1.7450,4,0,-0.002268,0.001581,0.012313,0.0000,NO
35,1.7950,1.7950,0.0500,0.050,APPROACHING,0,848.87,895.44,1000.55,8.93,-6.27,48.69,0.84887,0.89544,1.00055,0.15583,-0.10940,0.84988,-0.15996,-0.11422,-0.00288,0.02864,-0.08820,-0.34990,0.00000,0.00000,0.00000,0.00000,0.00000,0.00000,0.00000,0.00000,0.00000,0.00000,0.00000,0.00000,0.84887,0.89544,1.00055,-0.15583,0.10940,-0.84988,0.15996,0.11422,0.00288,-0.02864,0.08820,0.34990,0.0000,,,,0.0033,,,,,,"[1.000, 1.000, 0.000, 0.000, 0.000, 0.000, 1.000, 1.000]",0x11000011,1.7950,4,0,-0.002258,0.001611,0.012400,0.0000,NO
36,1.8450,1.8450,0.0500,0.050,APPROACHING,0,840.89,889.57,1000.37,9.12,-6.36,47.67,0.84089,0.88957,1.00037,0.15920,-0.11102,0.83198,-0.15929,-0.12052,-0.00410,0.02730,-0.08724,-0.34276,0.00000,0.00000,0.00000,0.00000,0.00000,0.00000,0.00000,0.00000,0.00000,0.00000,0.00000,0.00000,0.84089,0.88957,1.00037,-0.15920,0.11102,-0.83198,0.15929,0.12052,0.00410,-0.02730,0.08724,0.34276,0.0000,,,,0.0022,,,,,,"[1.000, 1.000, 0.000, 0.000, 0.000, 0.000, 1.000, 1.000]",0x11000011,1.8450,4,0,-0.002187,0.001541,0.011957,0.0000,NO
37,1.8950,1.8950,0.0500,0.050,APPROACHING,0,832.94,883.38,1000.14,9.31,-6.45,46.66,0.83294,0.88338,1.00014,0.16249,-0.11259,0.81443,-0.15873,-0.12682,-0.00534,0.02600,-0.08633,-0.33588,0.00000,0.00000,0.00000,0.00000,0.00000,0.00000,0.00000,0.00000,0.00000,0.00000,0.00000,0.00000,0.83294,0.88338,1.00014,-0.16249,0.11259,-0.81443,0.15873,0.12682,0.00534,-0.02600,0.08633,0.33588,0.0000,,,,0.0043,,,,,,"[1.000, 1.000, 0.000, 0.000, 0.000, 0.000, 1.000, 1.000]",0x11000011,1.8950,4,0,-0.002160,0.001542,0.011896,0.0000,NO
38,1.9450,1.9450,0.0500,0.050,APPROACHING,0,825.01,876.88,999.84,9.49,-6.54,45.68,0.82501,0.87688,0.99984,0.16570,-0.11411,0.79722,-0.15828,-0.13313,-0.00661,0.02471,-0.08541,-0.32903,0.00000,0.00000,0.00000,0.00000,0.00000,0.00000,0.00000,0.00000,0.00000,0.00000,0.00000,0.00000,0.82501,0.87688,0.99984,-0.16570,0.11411,-0.79722,0.15828,0.13313,0.00661,-0.02471,0.08541,0.32903,0.0000,,,,0.0043,,,,,,"[1.000, 1.000, 0.000, 0.000, 0.000, 0.000, 1.000, 1.000]",0x11000011,1.9450,4,0,-0.002129,0.001527,0.011765,0.0000,NO
39,1.9950,1.9950,0.0500,0.050,APPROACHING,0,817.11,870.07,999.47,9.67,-6.62,44.71,0.81711,0.87007,0.99947,0.16884,-0.11558,0.78034,-0.15794,-0.13945,-0.00789,0.02345,-0.08451,-0.32227,0.00000,0.00000,0.00000,0.00000,0.00000,0.00000,0.00000,0.00000,0.00000,0.00000,0.00000,0.00000,0.81711,0.87007,0.99947,-0.16884,0.11558,-0.78034,0.15794,0.13945,0.00789,-0.02345,0.08451,0.32227,0.0000,,,,0.0021,,,,,,"[1.000, 1.000, 0.000, 0.000, 0.000, 0.000, 1.000, 1.000]",0x11000011,1.9950,4,0,-0.002054,0.001463,0.011342,0.0000,NO
40,2.0450,2.0450,0.0500,0.050,APPROACHING,0,809.22,862.94,999.05,9.85,-6.70,43.76,0.80922,0.86294,0.99905,0.17190,-0.11702,0.76380,-0.15770,-0.14576,-0.00920,0.02223,-0.08364,-0.31575,0.00000,0.00000,0.00000,0.00000,0.00000,0.00000,0.00000,0.00000,0.00000,0.00000,0.00000,0.00000,0.80922,0.86294,0.99905,-0.17190,0.11702,-0.76380,0.15770,0.14576,0.00920,-0.02223,0.08364,0.31575,0.0000,,,,0.0044,,,,,,"[1.000, 1.000, 0.000, 0.000, 0.000, 0.000, 1.000, 1.000]",0x11000011,2.0450,4,0,-0.002049,0.001480,0.011392,0.0000,NO
41,2.0950,2.0950,0.0500,0.050,APPROACHING,0,801.33,855.49,998.55,10.02,-6.79,42.83,0.80133,0.85549,0.99855,0.17489,-0.11842,0.74758,-0.15757,-0.15207,-0.01053,0.02101,-0.08276,-0.30920,0.00000,0.00000,0.00000,0.00000,0.00000,0.00000,0.00000,0.00000,0.00000,0.00000,0.00000,0.00000,0.80133,0.85549,0.99855,-0.17489,0.11842,-0.74758,0.15757,0.15207,0.01053,-0.02101,0.08276,0.30920,0.0000,,,,0.0033,,,,,,"[1.000, 1.000, 0.000, 0.000, 0.000, 0.000, 1.000, 1.000]",0x11000011,2.0950,4,0,-0.001992,0.001432,0.011062,0.0000,NO
42,2.1450,2.1450,0.0500,0.050,APPROACHING,0,793.46,847.73,997.99,10.19,-6.86,41.92,0.79346,0.84773,0.99799,0.17780,-0.11979,0.73168,-0.15753,-0.15838,-0.01187,0.01983,-0.08191,-0.30285,0.00000,0.00000,0.00000,0.00000,0.00000,0.00000,0.00000,0.00000,0.00000,0.00000,0.00000,0.00000,0.79346,0.84773,0.99799,-0.17780,0.11979,-0.73168,0.15753,0.15838,0.01187,-0.01983,0.08191,0.30285,0.0000,,,,0.0032,,,,,,"[1.000, 1.000, 0.000, 0.000, 0.000, 0.000, 1.000, 1.000]",0x11000011,2.1450,4,0,-0.001957,0.001409,0.010882,0.0000,NO
43,2.1950,2.1950,0.0500,0.050,APPROACHING,0,785.58,839.66,997.37,10.35,-6.94,41.03,0.78558,0.83966,0.99737,0.18063,-0.12113,0.71610,-0.15759,-0.16469,-0.01324,0.01866,-0.08107,-0.29661,0.00000,0.00000,0.00000,0.00000,0.00000,0.00000,0.00000,0.00000,0.00000,0.00000,0.00000,0.00000,0.78558,0.83966,0.99737,-0.18063,0.12113,-0.71610,0.15759,0.16469,0.01324,-0.01866,0.08107,0.29661,0.0000,,,,0.0032,,,,,,"[1.000, 1.000, 0.000, 0.000, 0.000, 0.000, 1.000, 1.000]",0x11000011,2.1950,4,0,-0.001927,0.001388,0.010723,0.0000,NO
44,2.2450,2.2450,0.0500,0.050,APPROACHING,0,777.70,831.26,996.67,10.51,-7.02,40.15,0.77770,0.83126,0.99667,0.18339,-0.12244,0.70082,-0.15775,-0.17099,-0.01462,0.01752,-0.08024,-0.29046,0.00000,0.00000,0.00000,0.00000,0.00000,0.00000,0.00000,0.00000,0.00000,0.00000,0.00000,0.00000,0.77770,0.83126,0.99667,-0.18339,0.12244,-0.70082,0.15775,0.17099,0.01462,-0.01752,0.08024,0.29046,0.0000,,,,0.0054,,,,,,"[1.000, 1.000, 0.000, 0.000, 0.000, 0.000, 1.000, 1.000]",0x11000011,2.2450,4,0,-0.002058,0.001513,0.010566,0.0000,NO
45,2.2950,2.2950,0.0500,0.050,APPROACHING,0,769.80,822.56,995.90,10.66,-7.09,39.30,0.76980,0.82256,0.99590,0.18608,-0.12372,0.68585,-0.15801,-0.17728,-0.01602,0.01630,-0.07935,-0.28441,0.00000,0.00000,0.00000,0.00000,0.00000,0.00000,0.00000,0.00000,0.00000,0.00000,0.00000,0.00000,0.76980,0.82256,0.99590,-0.18608,0.12372,-0.68585,0.15801,0.17728,0.01602,-0.01630,0.07935,0.28441,0.0000,,,,0.0044,,,,,,"[1.000, 1.000, 0.000, 0.000, 0.000, 0.000, 1.000, 1.000]",0x11000011,2.2950,4,0,-0.002021,0.001484,0.010347,0.0000,NO
46,2.3450,2.3450,0.0500,0.050,APPROACHING,0,761.89,813.54,995.07,10.81,-7.16,38.46,0.76189,0.81354,0.99507,0.18868,-0.12498,0.67117,-0.15835,-0.18357,-0.01744,0.01510,-0.07846,-0.27849,0.00000,0.00000,0.00000,0.00000,0.00000,0.00000,0.00000,0.00000,0.00000,0.00000,0.00000,0.00000,0.76189,0.81354,0.99507,-0.18868,0.12498,-0.67117,0.15835,0.18357,0.01744,-0.01510,0.07846,0.27849,0.0000,,,,0.0021,,,,,,"[1.000, 1.000, 0.000, 0.000, 0.000, 0.000, 1.000, 1.000]",0x11000011,2.3450,4,0,-0.001950,0.001431,0.010030,0.0000,NO
47,2.3950,2.3950,0.0500,0.050,APPROACHING,0,753.97,804.20,994.16,10.96,-7.23,37.63,0.75397,0.80420,0.99416,0.19121,-0.12621,0.65679,-0.15879,-0.18984,-0.01888,0.01394,-0.07761,-0.27275,0.00000,0.00000,0.00000,0.00000,0.00000,0.00000,0.00000,0.00000,0.00000,0.00000,0.00000,0.00000,0.75397,0.80420,0.99416,-0.19121,0.12621,-0.65679,0.15879,0.18984,0.01888,-0.01394,0.07761,0.27275,0.0000,,,,0.0033,,,,,,"[1.000, 1.000, 0.000, 0.000, 0.000, 0.000, 1.000, 1.000]",0x11000011,2.3950,4,0,-0.001971,0.001439,0.010003,0.0000,NO
48,2.4450,2.4450,0.0500,0.050,APPROACHING,0,746.01,794.55,993.18,11.10,-7.30,36.82,0.74601,0.79455,0.99318,0.19366,-0.12741,0.64269,-0.15931,-0.19611,-0.02033,0.01277,-0.07676,-0.26703,0.00000,0.00000,0.00000,0.00000,0.00000,0.00000,0.00000,0.00000,0.00000,0.00000,0.00000,0.00000,0.74601,0.79455,0.99318,-0.19366,0.12741,-0.64269,0.15931,0.19611,0.02033,-0.01277,0.07676,0.26703,0.0000,,,,0.0022,,,,,,"[1.000, 1.000, 0.000, 0.000, 0.000, 0.000, 1.000, 1.000]",0x11000011,2.4450,4,0,-0.001921,0.001403,0.009726,0.0000,NO
49,2.4950,2.4950,0.0500,0.050,APPROACHING,0,738.03,784.59,992.13,11.23,-7.37,36.03,0.73803,0.78459,0.99213,0.19603,-0.12860,0.62888,-0.15992,-0.20236,-0.02180,0.01162,-0.07593,-0.26148,0.00000,0.00000,0.00000,0.00000,0.00000,0.00000,0.00000,0.00000,0.00000,0.00000,0.00000,0.00000,0.73803,0.78459,0.99213,-0.19603,0.12860,-0.62888,0.15992,0.20236,0.02180,-0.01162,0.07593,0.26148,0.0000,,,,0.0043,,,,,,"[1.000, 1.000, 0.000, 0.000, 0.000, 0.000, 1.000, 1.000]",0x11000011,2.4950,4,0,-0.001980,0.001427,0.009771,0.0000,NO
50,2.5450,2.5450,0.0500,0.050,APPROACHING,0,730.02,774.32,991.00,11.36,-7.44,35.26,0.73002,0.77432,0.99100,0.19833,-0.12977,0.61534,-0.16062,-0.20860,-0.02328,0.01045,-0.07508,-0.25589,0.00000,0.00000,0.00000,0.00000,0.00000,0.00000,0.00000,0.00000,0.00000,0.00000,0.00000,0.00000,0.73002,0.77432,0.99100,-0.19833,0.12977,-0.61534,0.16062,0.20860,0.02328,-0.01045,0.07508,0.25589,0.0000,,,,0.0022,,,,,,"[1.000, 1.000, 0.000, 0.000, 0.000, 0.000, 1.000, 1.000]",0x11000011,2.5450,4,0,-0.001887,0.001367,0.009373,0.0000,NO
51,2.5950,2.5950,0.0500,0.050,APPROACHING,0,721.97,763.73,989.80,11.49,-7.50,34.50,0.72197,0.76373,0.98980,0.20055,-0.13092,0.60208,-0.16140,-0.21483,-0.02478,0.00933,-0.07427,-0.25055,0.00000,0.00000,0.00000,0.00000,0.00000,0.00000,0.00000,0.00000,0.00000,0.00000,0.00000,0.00000,0.72197,0.76373,0.98980,-0.20055,0.13092,-0.60208,0.16140,0.21483,0.02478,-0.00933,0.07427,0.25055,0.0000,,,,0.0032,,,,,,"[1.000, 1.000, 0.000, 0.000, 0.000, 0.000, 1.000, 1.000]",0x11000011,2.5950,4,0,-0.001908,0.001361,0.009282,0.0000,NO
52,2.6450,2.6450,0.0500,0.050,APPROACHING,0,713.88,752.83,988.52,11.61,-7.57,33.75,0.71388,0.75283,0.98852,0.20269,-0.13205,0.58908,-0.16225,-0.22104,-0.02630,0.00819,-0.07346,-0.24526,0.00000,0.00000,0.00000,0.00000,0.00000,0.00000,0.00000,0.00000,0.00000,0.00000,0.00000,0.00000,0.71388,0.75283,0.98852,-0.20269,0.13205,-0.58908,0.16225,0.22104,0.02630,-0.00819,0.07346,0.24526,0.0000,,,,0.0032,,,,,,"[1.000, 1.000, 0.000, 0.000, 0.000, 0.000, 1.000, 1.000]",0x11000011,2.6450,4,0,-0.001861,0.001328,0.009034,0.0000,NO
53,2.6950,2.6950,0.0500,0.050,APPROACHING,0,705.74,741.63,987.17,11.73,-7.63,33.02,0.70574,0.74163,0.98717,0.20476,-0.13318,0.57635,-0.16319,-0.22724,-0.02783,0.00709,-0.07267,-0.24011,0.00000,0.00000,0.00000,0.00000,0.00000,0.00000,0.00000,0.00000,0.00000,0.00000,0.00000,0.00000,0.70574,0.74163,0.98717,-0.20476,0.13318,-0.57635,0.16319,0.22724,0.02783,-0.00709,0.07267,0.24011,0.0000,,,,0.0021,,,,,,"[1.000, 1.000, 0.000, 0.000, 0.000, 0.000, 1.000, 1.000]",0x11000011,2.6950,4,0,-0.001860,0.001310,0.008889,0.0000,NO
54,2.7450,2.7450,0.0500,0.050,APPROACHING,0,697.56,730.11,985.74,11.85,-7.69,32.31,0.69756,0.73011,0.98574,0.20675,-0.13429,0.56387,-0.16420,-0.23342,-0.02937,0.00598,-0.07189,-0.23505,0.00000,0.00000,0.00000,0.00000,0.00000,0.00000,0.00000,0.00000,0.00000,0.00000,0.00000,0.00000,0.69756,0.73011,0.98574,-0.20675,0.13429,-0.56387,0.16420,0.23342,0.02937,-0.00598,0.07189,0.23505,0.0000,,,,0.0033,,,,,,"[1.000, 1.000, 0.000, 0.000, 0.000, 0.000, 1.000, 1.000]",0x11000011,2.7450,4,0,-0.001925,0.001312,0.008885,0.0000,NO
55,2.7950,2.7950,0.0500,0.050,APPROACHING,0,689.32,718.28,984.23,11.96,-7.76,31.61,0.68932,0.71828,0.98423,0.20866,-0.13539,0.55165,-0.16529,-0.23958,-0.03093,0.00484,-0.07111,-0.23000,0.00000,0.00000,0.00000,0.00000,0.00000,0.00000,0.00000,0.00000,0.00000,0.00000,0.00000,0.00000,0.68932,0.71828,0.98423,-0.20866,0.13539,-0.55165,0.16529,0.23958,0.03093,-0.00484,0.07111,0.23000,0.0000,,,,0.0044,,,,,,"[1.000, 1.000, 0.000, 0.000, 0.000, 0.000, 1.000, 1.000]",0x11000011,2.7950,4,0,-0.001911,0.001287,0.008710,0.0000,NO
56,2.8450,2.8450,0.0500,0.050,APPROACHING,0,681.03,706.15,982.65,12.06,-7.82,30.92,0.68103,0.70615,0.98265,0.21050,-0.13648,0.53967,-0.16645,-0.24573,-0.03250,0.00370,-0.07035,-0.22505,0.00000,0.00000,0.00000,0.00000,0.00000,0.00000,0.00000,0.00000,0.00000,0.00000,0.00000,0.00000,0.68103,0.70615,0.98265,-0.21050,0.13648,-0.53967,0.16645,0.24573,0.03250,-0.00370,0.07035,0.22505,0.0000,,,,0.0043,,,,,,"[1.000, 1.000, 0.000, 0.000, 0.000, 0.000, 1.000, 1.000]",0x11000011,2.8450,4,0,-0.001869,0.001249,0.008455,0.0000,NO
57,2.8950,2.8950,0.0500,0.050,APPROACHING,0,672.68,693.71,980.98,12.16,-7.88,30.25,0.67268,0.69371,0.98098,0.21226,-0.13757,0.52794,-0.16768,-0.25187,-0.03408,0.00259,-0.06960,-0.22025,0.00000,0.00000,0.00000,0.00000,0.00000,0.00000,0.00000,0.00000,0.00000,0.00000,0.00000,0.00000,0.67268,0.69371,0.98098,-0.21226,0.13757,-0.52794,0.16768,0.25187,0.03408,-0.00259,0.06960,0.22025,0.0000,,,,0.0032,,,,,,"[1.000, 1.000, 0.000, 0.000, 0.000, 0.000, 1.000, 1.000]",0x11000011,2.8950,4,0,-0.001847,0.001219,0.008249,0.0000,NO
58,2.9450,2.9450,0.0500,0.050,APPROACHING,0,664.26,680.97,979.24,12.26,-7.94,29.59,0.66426,0.68097,0.97924,0.21394,-0.13865,0.51645,-0.16899,-0.25798,-0.03568,0.00149,-0.06888,-0.21557,0.00000,0.00000,0.00000,0.00000,0.00000,0.00000,0.00000,0.00000,0.00000,0.00000,0.00000,0.00000,0.66426,0.68097,0.97924,-0.21394,0.13865,-0.51645,0.16899,0.25798,0.03568,-0.00149,0.06888,0.21557,0.0000,,,,0.0054,,,,,,"[1.000, 1.000, 0.000, 0.000, 0.000, 0.000, 1.000, 1.000]",0x11000011,2.9450,4,0,-0.001906,0.001204,0.008200,0.0000,NO
59,2.9950,2.9950,0.0500,0.050,APPROACHING,0,655.78,667.91,977.41,12.35,-8.01,28.95,0.65578,0.66791,0.97741,0.21555,-0.13972,0.50520,-0.17036,-0.26408,-0.03729,0.00036,-0.06816,-0.21092,0.00000,0.00000,0.00000,0.00000,0.00000,0.00000,0.00000,0.00000,0.00000,0.00000,0.00000,0.00000,0.65578,0.66791,0.97741,-0.21555,0.13972,-0.50520,0.17036,0.26408,0.03729,-0.00036,0.06816,0.21092,0.0000,,,,0.0044,,,,,,"[1.000, 1.000, 0.000, 0.000, 0.000, 0.000, 1.000, 1.000]",0x11000011,2.9950,4,0,-0.001863,0.001167,0.007962,0.0000,NO
60,3.0450,3.0450,0.0500,0.050,APPROACHING,0,647.22,654.56,975.51,12.44,-8.07,28.31,0.64722,0.65456,0.97551,0.21708,-0.14079,0.49417,-0.17179,-0.27015,-0.03891,-0.00075,-0.06747,-0.20642,0.00000,0.00000,0.00000,0.00000,0.00000,0.00000,0.00000,0.00000,0.00000,0.00000,0.00000,0.00000,0.64722,0.65456,0.97551,-0.21708,0.14079,-0.49417,0.17179,0.27015,0.03891,0.00075,0.06747,0.20642,0.0000,,,,0.0021,,,,,,"[1.000, 1.000, 0.000, 0.000, 0.000, 0.000, 1.000, 1.000]",0x11000011,3.0450,4,0,-0.001815,0.001135,0.007736,0.0000,NO
61,3.0950,3.0950,0.0500,0.050,APPROACHING,0,638.60,640.90,973.52,12.52,-8.13,27.69,0.63860,0.64090,0.97352,0.21854,-0.14186,0.48337,-0.17329,-0.27621,-0.04054,-0.00183,-0.06680,-0.20205,0.00000,0.00000,0.00000,0.00000,0.00000,0.00000,0.00000,0.00000,0.00000,0.00000,0.00000,0.00000,0.63860,0.64090,0.97352,-0.21854,0.14186,-0.48337,0.17329,0.27621,0.04054,0.00183,0.06680,0.20205,0.0000,,,,0.0032,,,,,,"[1.000, 1.000, 0.000, 0.000, 0.000, 0.000, 1.000, 1.000]",0x11000011,3.0950,4,0,-0.001848,0.001107,0.007604,0.0000,NO
62,3.1450,3.1450,0.0500,0.050,APPROACHING,0,629.89,626.94,971.45,12.60,-8.19,27.09,0.62989,0.62694,0.97145,0.21992,-0.14293,0.47278,-0.17486,-0.28225,-0.04218,-0.00292,-0.06614,-0.19775,0.00000,0.00000,0.00000,0.00000,0.00000,0.00000,0.00000,0.00000,0.00000,0.00000,0.00000,0.00000,0.62989,0.62694,0.97145,-0.21992,0.14293,-0.47278,0.17486,0.28225,0.04218,0.00292,0.06614,0.19775,0.0000,,,,0.0032,,,,,,"[1.000, 1.000, 0.000, 0.000, 0.000, 0.000, 1.000, 1.000]",0x11000011,3.1450,4,0,-0.001971,0.001080,0.007614,0.0000,NO
63,3.1950,3.1950,0.0500,0.050,APPROACHING,0,621.11,612.67,969.30,12.68,-8.25,26.49,0.62111,0.61267,0.96930,0.22123,-0.14401,0.46241,-0.17648,-0.28828,-0.04383,-0.00410,-0.06550,-0.19345,0.00000,0.00000,0.00000,0.00000,0.00000,0.00000,0.00000,0.00000,0.00000,0.00000,0.00000,0.00000,0.62111,0.61267,0.96930,-0.22123,0.14401,-0.46241,0.17648,0.28828,0.04383,0.00410,0.06550,0.19345,0.0000,,,,0.0021,,,,,,"[1.000, 1.000, 0.000, 0.000, 0.000, 0.000, 1.000, 1.000]",0x11000011,3.1950,4,0,-0.001891,0.001048,0.007356,0.0000,NO
64,3.2450,3.2450,0.0500,0.050,APPROACHING,0,612.24,598.11,967.07,12.75,-8.31,25.91,0.61224,0.59811,0.96707,0.22246,-0.14508,0.45225,-0.17817,-0.29428,-0.04549,-0.00522,-0.06488,-0.18931,0.00000,0.00000,0.00000,0.00000,0.00000,0.00000,0.00000,0.00000,0.00000,0.00000,0.00000,0.00000,0.61224,0.59811,0.96707,-0.22246,0.14508,-0.45225,0.17817,0.29428,0.04549,0.00522,0.06488,0.18931,0.0000,,,,0.0032,,,,,,"[1.000, 1.000, 0.000, 0.000, 0.000, 0.000, 1.000, 1.000]",0x11000011,3.2450,4,0,-0.001980,0.001009,0.007275,0.0000,NO
65,3.2950,3.2950,0.0500,0.050,APPROACHING,0,603.29,583.25,964.76,12.81,-8.37,25.34,0.60329,0.58325,0.96476,0.22361,-0.14616,0.44230,-0.17991,-0.30026,-0.04717,-0.00640,-0.06428,-0.18521,0.00000,0.00000,0.00000,0.00000,0.00000,0.00000,0.00000,0.00000,0.00000,0.00000,0.00000,0.00000,0.60329,0.58325,0.96476,-0.22361,0.14616,-0.44230,0.17991,0.30026,0.04717,0.00640,0.06428,0.18521,0.0000,,,,0.0033,,,,,,"[1.000, 1.000, 0.000, 0.000, 0.000, 0.000, 1.000, 1.000]",0x11000011,3.2950,4,0,-0.001983,0.000974,0.007114,0.0000,NO
66,3.3450,3.3450,0.0500,0.050,APPROACHING,0,594.25,568.08,962.35,12.87,-8.44,24.78,0.59425,0.56808,0.96235,0.22469,-0.14724,0.43256,-0.18171,-0.30622,-0.04885,-0.00757,-0.06370,-0.18121,0.00000,0.00000,0.00000,0.00000,0.00000,0.00000,0.00000,0.00000,0.00000,0.00000,0.00000,0.00000,0.59425,0.56808,0.96235,-0.22469,0.14724,-0.43256,0.18171,0.30622,0.04885,0.00757,0.06370,0.18121,0.0000,,,,0.0032,,,,,,"[1.000, 1.000, 0.000, 0.000, 0.000, 0.000, 1.000, 1.000]",0x11000011,3.3450,4,0,-0.001999,0.000935,0.006959,0.0000,NO
67,3.3950,3.3950,0.0500,0.050,APPROACHING,0,585.12,552.62,959.87,12.93,-8.50,24.24,0.58512,0.55262,0.95987,0.22568,-0.14833,0.42301,-0.18357,-0.31217,-0.05054,-0.00876,-0.06314,-0.17730,0.00000,0.00000,0.00000,0.00000,0.00000,0.00000,0.00000,0.00000,0.00000,0.00000,0.00000,0.00000,0.58512,0.55262,0.95987,-0.22568,0.14833,-0.42301,0.18357,0.31217,0.05054,0.00876,0.06314,0.17730,0.0000,,,,0.0032,,,,,,"[1.000, 1.000, 0.000, 0.000, 0.000, 0.000, 1.000, 1.000]",0x11000011,3.3950,4,0,-0.002033,0.000894,0.006818,0.0000,NO
68,3.4450,3.4450,0.0500,0.050,APPROACHING,0,575.89,536.87,957.30,12.98,-8.56,23.70,0.57589,0.53687,0.95730,0.22660,-0.14943,0.41365,-0.18548,-0.31809,-0.05224,-0.00997,-0.06261,-0.17347,0.00000,0.00000,0.00000,0.00000,0.00000,0.00000,0.00000,0.00000,0.00000,0.00000,0.00000,0.00000,0.57589,0.53687,0.95730,-0.22660,0.14943,-0.41365,0.18548,0.31809,0.05224,0.00997,0.06261,0.17347,0.0000,,,,0.0033,,,,,,"[1.000, 1.000, 0.000, 0.000, 0.000, 0.000, 1.000, 1.000]",0x11000011,3.4450,4,0,-0.002076,0.000850,0.006675,0.0000,NO
69,3.4950,3.4950,0.0500,0.050,APPROACHING,0,566.57,520.82,954.65,13.03,-8.63,23.18,0.56657,0.52082,0.95465,0.22744,-0.15053,0.40449,-0.18744,-0.32399,-0.05395,-0.01120,-0.06211,-0.16973,0.00000,0.00000,0.00000,0.00000,0.00000,0.00000,0.00000,0.00000,0.00000,0.00000,0.00000,0.00000,0.56657,0.52082,0.95465,-0.22744,0.15053,-0.40449,0.18744,0.32399,0.05395,0.01120,0.06211,0.16973,0.0000,,,,0.0022,,,,,,"[1.000, 1.000, 0.000, 0.000, 0.000, 0.000, 1.000, 1.000]",0x11000011,3.4950,4,0,-0.002046,0.000817,0.006479,0.0000,NO
70,3.5450,3.5450,0.0500,0.050,APPROACHING,0,557.15,504.47,951.91,13.08,-8.69,22.66,0.55715,0.50447,0.95191,0.22820,-0.15165,0.39551,-0.18946,-0.32988,-0.05567,-0.01242,-0.06162,-0.16610,0.00000,0.00000,0.00000,0.00000,0.00000,0.00000,0.00000,0.00000,0.00000,0.00000,0.00000,0.00000,0.55715,0.50447,0.95191,-0.22820,0.15165,-0.39551,0.18946,0.32988,0.05567,0.01242,0.06162,0.16610,0.0000,,,,0.0032,,,,,,"[1.000, 1.000, 0.000, 0.000, 0.000, 0.000, 1.000, 1.000]",0x11000011,3.5450,4,0,-0.002237,0.000742,0.006436,0.0000,NO
71,3.5950,3.5950,0.0500,0.050,APPROACHING,0,547.62,487.83,949.08,13.11,-8.75,22.16,0.54762,0.48783,0.94908,0.22888,-0.15278,0.38671,-0.19152,-0.33574,-0.05740,-0.01375,-0.06118,-0.16251,0.00000,0.00000,0.00000,0.00000,0.00000,0.00000,0.00000,0.00000,0.00000,0.00000,0.00000,0.00000,0.54762,0.48783,0.94908,-0.22888,0.15278,-0.38671,0.19152,0.33574,0.05740,0.01375,0.06118,0.16251,0.0000,,,,0.0044,,,,,,"[1.000, 1.000, 0.000, 0.000, 0.000, 0.000, 1.000, 1.000]",0x11000011,3.5950,4,0,-0.002315,0.000689,0.006340,0.0000,NO
72,3.6450,3.6450,0.0500,0.050,APPROACHING,0,537.99,470.90,946.17,13.15,-8.82,21.66,0.53799,0.47090,0.94617,0.22948,-0.15392,0.37809,-0.19364,-0.34158,-0.05913,-0.01513,-0.06077,-0.15896,0.00000,0.00000,0.00000,0.00000,0.00000,0.00000,0.00000,0.00000,0.00000,0.00000,0.00000,0.00000,0.53799,0.47090,0.94617,-0.22948,0.15392,-0.37809,0.19364,0.34158,0.05913,0.01513,0.06077,0.15896,0.0000,,,,0.0043,,,,,,"[1.000, 1.000, 0.027, 0.028, 0.000, 0.000, 0.915, 0.914]",0x11000011,3.6450,6,4,-0.002278,0.000654,0.005959,0.0000,NO
73,3.6950,3.6950,0.0500,0.050,APPROACHING,0,528.22,453.77,943.19,13.18,-8.89,21.18,0.52822,0.45377,0.94319,0.22999,-0.15508,0.36963,-0.19748,-0.34354,-0.05990,-0.01648,-0.06038,-0.15602,0.00000,0.00000,0.00000,0.00000,0.00000,0.00000,0.00000,0.00000,0.00000,0.00000,0.00000,0.00000,0.52822,0.45377,0.94319,-0.22999,0.15508,-0.36963,0.19748,0.34354,0.05990,0.01648,0.06038,0.15602,0.0000,,,,0.0033,,,,,,"[1.000, 1.000, 0.029, 0.025, 0.000, 0.000, 0.865, 0.858]",0x11000011,3.6950,6,2,-0.002340,0.000610,0.006620,0.0000,NO
74,3.7450,3.7450,0.0500,0.050,APPROACHING,0,518.25,436.54,940.18,13.20,-8.95,20.70,0.51825,0.43654,0.94018,0.23042,-0.15625,0.36133,-0.20134,-0.34546,-0.06067,-0.01787,-0.06002,-0.15267,0.00000,0.00000,0.00000,0.00000,0.00000,0.00000,0.00000,0.00000,0.00000,0.00000,0.00000,0.00000,0.51825,0.43654,0.94018,-0.23042,0.15625,-0.36133,0.20134,0.34546,0.06067,0.01787,0.06002,0.15267,0.0000,,,,0.0032,,,,,,"[1.000, 1.000, 0.167, 0.165, 0.000, 0.000, 0.665, 0.652]",0x11000011,3.7450,6,4,-0.002379,0.000585,0.006626,0.0000,NO
75,3.7950,3.7950,0.0500,0.050,APPROACHING,0,508.08,419.22,937.12,13.22,-9.02,20.24,0.50808,0.41922,0.93712,0.23076,-0.15744,0.35320,-0.20522,-0.34736,-0.06144,-0.01929,-0.05968,-0.14933,0.00000,0.00000,0.00000,0.00000,0.00000,0.00000,0.00000,0.00000,0.00000,0.00000,0.00000,0.00000,0.50808,0.41922,0.93712,-0.23076,0.15744,-0.35320,0.20522,0.34736,0.06144,0.01929,0.05968,0.14933,0.0000,,,,0.0032,,,,,,"[1.000, 1.000, 0.518, 0.525, 0.000, 0.000, 0.234, 0.207]",0x11110000,3.7950,6,4,-0.002413,0.000560,0.006218,0.0000,NO
76,3.8450,3.8450,0.0500,0.050,APPROACHING,0,497.72,401.81,934.03,13.24,-9.09,19.78,0.49772,0.40181,0.93403,0.23101,-0.15864,0.34522,-0.20911,-0.34922,-0.06223,-0.02072,-0.05934,-0.14623,0.00000,0.00000,0.00000,0.00000,0.00000,0.00000,0.00000,0.00000,0.00000,0.00000,0.00000,0.00000,0.49772,0.40181,0.93403,-0.23101,0.15864,-0.34522,0.20911,0.34922,0.06223,0.02072,0.05934,0.14623,0.0000,,,,0.0032,,,,,,"[1.000, 1.000, 1.000, 1.000, 0.000, 0.000, 0.000, 0.000]",0x11110000,3.8450,4,4,-0.002456,0.000530,0.006689,0.0000,NO
77,3.8950,3.8950,0.0500,0.050,APPROACHING,0,487.13,384.41,930.93,13.25,-9.16,19.33,0.48713,0.38441,0.93093,0.23118,-0.15987,0.33743,-0.21472,-0.34674,-0.06194,-0.02218,-0.05903,-0.14223,0.00000,0.00000,0.00000,0.00000,0.00000,0.00000,0.00000,0.00000,0.00000,0.00000,0.00000,0.00000,0.48713,0.38441,0.93093,-0.23118,0.15987,-0.33743,0.21472,0.34674,0.06194,0.02218,0.05903,0.14223,0.0000,,,,0.0033,,,,,,"[1.000, 1.000, 1.000, 1.000, 0.000, 0.000, 0.000, 0.000]",0x11110000,3.8950,4,0,-0.002471,0.000520,0.005013,0.0000,NO
78,3.9450,3.9450,0.0500,0.050,APPROACHING,0,476.25,367.13,927.84,13.25,-9.23,18.90,0.47625,0.36713,0.92784,0.23125,-0.16112,0.32980,-0.22032,-0.34422,-0.06166,-0.02365,-0.05872,-0.13923,0.00000,0.00000,0.00000,0.00000,0.00000,0.00000,0.00000,0.00000,0.00000,0.00000,0.00000,0.00000,0.47625,0.36713,0.92784,-0.23125,0.16112,-0.32980,0.22032,0.34422,0.06166,0.02365,0.05872,0.13923,0.0000,,,,0.0032,,,,,,"[1.000, 1.000, 1.000, 1.000, 0.000, 0.000, 0.000, 0.000]",0x11110000,3.9450,4,0,-0.002447,0.000532,0.004737,0.0000,NO
79,3.9950,3.9950,0.0500,0.050,APPROACHING,0,465.10,349.99,924.76,13.25,-9.30,18.47,0.46510,0.34999,0.92476,0.23124,-0.16240,0.32233,-0.22590,-0.34166,-0.06138,-0.02510,-0.05841,-0.13640,0.00000,0.00000,0.00000,0.00000,0.00000,0.00000,0.00000,0.00000,0.00000,0.00000,0.00000,0.00000,0.46510,0.34999,0.92476,-0.23124,0.16240,-0.32233,0.22590,0.34166,0.06138,0.02510,0.05841,0.13640,0.0000,,,,0.0021,,,,,,"[1.000, 1.000, 1.000, 1.000, 0.000, 0.000, 0.000, 0.000]",0x11110000,3.9950,4,0,-0.002346,0.000551,0.004698,0.0000,NO
80,4.0450,4.0450,0.0500,0.050,APPROACHING,0,453.66,332.97,921.70,13.24,-9.38,18.05,0.45366,0.33297,0.92170,0.23114,-0.16368,0.31499,-0.23146,-0.33906,-0.06111,-0.02650,-0.05808,-0.13359,0.00000,0.00000,0.00000,0.00000,0.00000,0.00000,0.00000,0.00000,0.00000,0.00000,0.00000,0.00000,0.45366,0.33297,0.92170,-0.23114,0.16368,-0.31499,0.23146,0.33906,0.06111,0.02650,0.05808,0.13359,0.0000,,,,0.0033,,,,,,"[1.000, 1.000, 1.000, 1.000, 0.000, 0.000, 0.000, 0.000]",0x11110000,4.0450,4,0,-0.002503,0.000523,0.004743,0.0000,NO
81,4.0950,4.0950,0.0500,0.050,APPROACHING,0,441.95,316.08,918.65,13.23,-9.45,17.64,0.44195,0.31608,0.91865,0.23095,-0.16499,0.30780,-0.23700,-0.33642,-0.06084,-0.02799,-0.05777,-0.13075,0.00000,0.00000,0.00000,0.00000,0.00000,0.00000,0.00000,0.00000,0.00000,0.00000,0.00000,0.00000,0.44195,0.31608,0.91865,-0.23095,0.16499,-0.30780,0.23700,0.33642,0.06084,0.02799,0.05777,0.13075,0.0000,,,,0.0021,,,,,,"[0.662, 0.671, 1.000, 1.000, 0.329, 0.314, 0.000, 0.000]",0x11110000,4.0950,6,4,-0.002376,0.000542,0.004458,0.0000,NO
82,4.1450,4.1450,0.0500,0.050,APPROACHING,0,430.07,299.36,915.63,13.22,-9.53,17.23,0.43007,0.29936,0.91563,0.23068,-0.16632,0.30077,-0.23821,-0.33239,-0.05983,-0.02940,-0.05745,-0.12730,0.00000,0.00000,0.00000,0.00000,0.00000,0.00000,0.00000,0.00000,0.00000,0.00000,0.00000,0.00000,0.43007,0.29936,0.91563,-0.23068,0.16632,-0.30077,0.23821,0.33239,0.05983,0.02940,0.05745,0.12730,0.0000,,,,0.0022,,,,,,"[0.316, 0.338, 1.000, 1.000, 0.661, 0.636, 0.000, 0.000]",0x00111100,4.1450,6,4,-0.002409,0.000522,0.003327,0.0000,NO
83,4.1950,4.1950,0.0500,0.050,APPROACHING,0,418.13,282.84,912.67,13.20,-9.61,16.84,0.41813,0.28284,0.91267,0.23031,-0.16767,0.29389,-0.23940,-0.32834,-0.05882,-0.03083,-0.05714,-0.12451,0.00000,0.00000,0.00000,0.00000,0.00000,0.00000,0.00000,0.00000,0.00000,0.00000,0.00000,0.00000,0.41813,0.28284,0.91267,-0.23031,0.16767,-0.29389,0.23940,0.32834,0.05882,0.03083,0.05714,0.12451,0.0000,,,,0.0021,,,,,,"[0.000, 0.000, 1.000, 1.000, 1.000, 1.000, 0.000, 0.000]",0x00111100,4.1950,4,4,-0.002491,0.000481,0.002781,0.0000,NO
84,4.2450,4.2450,0.0500,0.050,APPROACHING,0,406.23,266.56,909.77,13.17,-9.68,16.45,0.40623,0.26656,0.90977,0.22987,-0.16903,0.28713,-0.23644,-0.32306,-0.05708,-0.03231,-0.05685,-0.12244,0.00000,0.00000,0.00000,0.00000,0.00000,0.00000,0.00000,0.00000,0.00000,0.00000,0.00000,0.00000,0.40623,0.26656,0.90977,-0.22987,0.16903,-0.28713,0.23644,0.32306,0.05708,0.03231,0.05685,0.12244,0.0000,,,,0.0022,,,,,,"[0.000, 0.000, 1.000, 1.000, 1.000, 1.000, 0.000, 0.000]",0x00111100,4.2450,4,0,-0.002585,0.000424,0.003402,0.0000,NO
85,4.2950,4.2950,0.0500,0.050,APPROACHING,0,394.49,250.54,906.96,13.14,-9.76,16.07,0.39449,0.25054,0.90696,0.22934,-0.17042,0.28049,-0.23345,-0.31779,-0.05533,-0.03385,-0.05660,-0.12000,0.00000,0.00000,0.00000,0.00000,0.00000,0.00000,0.00000,0.00000,0.00000,0.00000,0.00000,0.00000,0.39449,0.25054,0.90696,-0.22934,0.17042,-0.28049,0.23345,0.31779,0.05533,0.03385,0.05660,0.12000,0.0000,,,,0.0022,,,,,,"[0.000, 0.000, 1.000, 1.000, 1.000, 1.000, 0.000, 0.000]",0x00111100,4.2950,4,0,-0.002688,0.000355,0.003657,0.0000,NO
86,4.3450,4.3450,0.0500,0.050,APPROACHING,0,382.89,234.78,904.24,13.10,-9.84,15.70,0.38289,0.23478,0.90424,0.22871,-0.17182,0.27397,-0.23043,-0.31255,-0.05359,-0.03545,-0.05639,-0.11740,0.00000,0.00000,0.00000,0.00000,0.00000,0.00000,0.00000,0.00000,0.00000,0.00000,0.00000,0.00000,0.38289,0.23478,0.90424,-0.22871,0.17182,-0.27397,0.23043,0.31255,0.05359,0.03545,0.05639,0.11740,0.0000,,,,0.0054,,,,,,"[1.000, 1.000, 1.000, 1.000, 0.000, 0.000, 0.000, 0.000]",0x11110000,4.3450,4,4,-0.003133,0.000197,0.004282,0.0000,NO
87,4.3950,4.3950,0.0500,0.050,APPROACHING,0,371.23,219.22,901.56,13.06,-9.93,15.33,0.37123,0.21922,0.90156,0.22799,-0.17325,0.26758,-0.23586,-0.30968,-0.05337,-0.03731,-0.05627,-0.11484,0.00000,0.00000,0.00000,0.00000,0.00000,0.00000,0.00000,0.00000,0.00000,0.00000,0.00000,0.00000,0.37123,0.21922,0.90156,-0.22799,0.17325,-0.26758,0.23586,0.30968,0.05337,0.03731,0.05627,0.11484,0.0000,,,,0.0033,,,,,,"[0.557, 0.568, 1.000, 1.000, 0.411, 0.393, 0.000, 0.000]",0x11110000,4.3950,6,4,-0.002894,0.000256,0.003730,0.0000,NO
88,4.4450,4.4450,0.0500,0.050,APPROACHING,0,359.41,203.84,898.92,13.02,-10.01,14.97,0.35941,0.20384,0.89892,0.22716,-0.17471,0.26133,-0.23692,-0.30560,-0.05237,-0.03903,-0.05612,-0.11182,0.00000,0.00000,0.00000,0.00000,0.00000,0.00000,0.00000,0.00000,0.00000,0.00000,0.00000,0.00000,0.35941,0.20384,0.89892,-0.22716,0.17471,-0.26133,0.23692,0.30560,0.05237,0.03903,0.05612,0.11182,0.0000,,,,0.0021,,,,,,"[0.081, 0.109, 1.000, 1.000, 0.881, 0.847, 0.000, 0.000]",0x00111100,4.4450,6,4,-0.002849,0.000270,0.002513,0.0000,NO
89,4.4950,4.4950,0.0500,0.050,APPROACHING,0,347.54,188.66,896.33,12.96,-10.10,14.62,0.34754,0.18866,0.89633,0.22624,-0.17620,0.25522,-0.23795,-0.30151,-0.05137,-0.04072,-0.05596,-0.10952,0.00000,0.00000,0.00000,0.00000,0.00000,0.00000,0.00000,0.00000,0.00000,0.00000,0.00000,0.00000,0.34754,0.18866,0.89633,-0.22624,0.17620,-0.25522,0.23795,0.30151,0.05137,0.04072,0.05596,0.10952,0.0000,,,,0.0021,,,,,,"[0.000, 0.000, 1.000, 1.000, 1.000, 1.000, 0.000, 0.000]",0x00111100,4.4950,4,4,-0.003061,0.000215,0.002193,0.0000,NO
90,4.5450,4.5450,0.0500,0.050,APPROACHING,0,335.72,173.72,893.80,12.90,-10.18,14.28,0.33572,0.17372,0.89380,0.22521,-0.17770,0.24920,-0.23481,-0.29634,-0.04961,-0.04254,-0.05584,-0.10779,0.00000,0.00000,0.00000,0.00000,0.00000,0.00000,0.00000,0.00000,0.00000,0.00000,0.00000,0.00000,0.33572,0.17372,0.89380,-0.22521,0.17770,-0.24920,0.23481,0.29634,0.04961,0.04254,0.05584,0.10779,0.0000,,,,0.0022,,,,,,"[0.000, 0.000, 1.000, 1.000, 1.000, 1.000, 0.000, 0.000]",0x00111100,4.5450,4,0,-0.003328,0.000141,0.002789,0.0000,NO
91,4.5950,4.5950,0.0500,0.050,APPROACHING,0,324.06,159.03,891.36,12.84,-10.27,13.94,0.32406,0.15903,0.89136,0.22409,-0.17923,0.24328,-0.23163,-0.29119,-0.04785,-0.04452,-0.05575,-0.10572,0.00000,0.00000,0.00000,0.00000,0.00000,0.00000,0.00000,0.00000,0.00000,0.00000,0.00000,0.00000,0.32406,0.15903,0.89136,-0.22409,0.17923,-0.24328,0.23163,0.29119,0.04785,0.04452,0.05575,0.10572,0.0000,,,,0.0021,,,,,,"[0.000, 0.000, 1.000, 1.000, 1.000, 1.000, 0.000, 0.000]",0x00111100,4.5950,4,0,-0.003597,0.000067,0.002998,0.0000,NO
92,4.6450,4.6450,0.0500,0.050,APPROACHING,0,312.56,144.60,889.02,12.77,-10.36,13.61,0.31256,0.14460,0.88902,0.22285,-0.18079,0.23747,-0.22843,-0.28606,-0.04609,-0.04666,-0.05571,-0.10351,0.00000,0.00000,0.00000,0.00000,0.00000,0.00000,0.00000,0.00000,0.00000,0.00000,0.00000,0.00000,0.31256,0.14460,0.88902,-0.22285,0.18079,-0.23747,0.22843,0.28606,0.04609,0.04666,0.05571,0.10351,0.0000,,,,0.0021,,,,,,"[0.000, 0.000, 1.000, 1.000, 1.000, 1.000, 0.000, 0.000]",0x00111100,4.6450,4,0,-0.003871,0.000007,0.002897,0.0000,NO
93,4.6950,4.6950,0.0500,0.050,APPROACHING,0,301.22,130.42,886.76,12.69,-10.45,13.28,0.30122,0.13042,0.88676,0.22149,-0.18238,0.23177,-0.22520,-0.28094,-0.04432,-0.04896,-0.05571,-0.10137,0.00000,0.00000,0.00000,0.00000,0.00000,0.00000,0.00000,0.00000,0.00000,0.00000,0.00000,0.00000,0.30122,0.13042,0.88676,-0.22149,0.18238,-0.23177,0.22520,0.28094,0.04432,0.04896,0.05571,0.10137,0.0000,,,,0.0021,,,,,,"[0.000, 0.000, 1.000, 1.000, 1.000, 1.000, 0.000, 0.000]",0x00111100,4.6950,4,0,-0.004170,-0.000038,0.002702,0.0000,NO
94,4.7450,4.7450,0.0500,0.050,APPROACHING,0,290.04,116.50,884.58,12.61,-10.54,12.96,0.29004,0.11650,0.88458,0.22000,-0.18400,0.22617,-0.22195,-0.27585,-0.04256,-0.05144,-0.05573,-0.09934,0.00000,0.00000,0.00000,0.00000,0.00000,0.00000,0.00000,0.00000,0.00000,0.00000,0.00000,0.00000,0.29004,0.11650,0.88458,-0.22000,0.18400,-0.22617,0.22195,0.27585,0.04256,0.05144,0.05573,0.09934,0.0000,,,,0.0021,,,,,,"[0.000, 0.000, 1.000, 1.000, 1.000, 1.000, 0.000, 0.000]",0x00111100,4.7450,4,0,-0.004510,-0.000067,0.002519,0.0000,NO
95,4.7950,4.7950,0.0500,0.050,APPROACHING,0,279.02,102.84,882.50,12.51,-10.64,12.64,0.27902,0.10284,0.88250,0.21837,-0.18565,0.22067,-0.21866,-0.27077,-0.04079,-0.05412,-0.05578,-0.09743,0.00000,0.00000,0.00000,0.00000,0.00000,0.00000,0.00000,0.00000,0.00000,0.00000,0.00000,0.00000,0.27902,0.10284,0.88250,-0.21837,0.18565,-0.22067,0.21866,0.27077,0.04079,0.05412,0.05578,0.09743,0.0000,,,,0.0021,,,,,,"[0.000, 0.000, 1.000, 1.000, 1.000, 1.000, 0.000, 0.000]",0x00111100,4.7950,4,0,-0.004897,-0.000077,0.002360,0.0000,NO
96,4.8450,4.8450,0.0500,0.050,APPROACHING,0,268.17,89.42,880.50,12.41,-10.73,12.33,0.26817,0.08942,0.88050,0.21660,-0.18733,0.21526,-0.21535,-0.26571,-0.03902,-0.05703,-0.05582,-0.09560,0.00000,0.00000,0.00000,0.00000,0.00000,0.00000,0.00000,0.00000,0.00000,0.00000,0.00000,0.00000,0.26817,0.08942,0.88050,-0.21660,0.18733,-0.21526,0.21535,0.26571,0.03902,0.05703,0.05582,0.09560,0.0000,,,,0.0021,,,,,,"[0.000, 0.000, 1.000, 1.000, 1.000, 1.000, 0.000, 0.000]",0x00111100,4.8450,4,0,-0.005335,-0.000061,0.002210,0.0000,NO
97,4.8950,4.8950,0.0500,0.050,APPROACHING,0,257.49,76.27,878.60,12.30,-10.83,12.03,0.25749,0.07627,0.87860,0.21466,-0.18905,0.20994,-0.21202,-0.26066,-0.03726,-0.06020,-0.05586,-0.09387,0.00000,0.00000,0.00000,0.00000,0.00000,0.00000,0.00000,0.00000,0.00000,0.00000,0.00000,0.00000,0.25749,0.07627,0.87860,-0.21466,0.18905,-0.20994,0.21202,0.26066,0.03726,0.06020,0.05586,0.09387,0.0000,,,,0.0021,,,,,,"[0.000, 0.000, 1.000, 1.000, 1.000, 1.000, 0.000, 0.000]",0x00111100,4.8950,4,0,-0.005826,-0.000009,0.002052,0.0000,NO
98,4.9450,4.9450,0.0500,0.050,APPROACHING,0,246.97,63.36,876.78,12.18,-10.93,11.73,0.24697,0.06336,0.87678,0.21255,-0.19079,0.20471,-0.20866,-0.25563,-0.03549,-0.06366,-0.05587,-0.09223,0.00000,0.00000,0.00000,0.00000,0.00000,0.00000,0.00000,0.00000,0.00000,0.00000,0.00000,0.00000,0.24697,0.06336,0.87678,-0.21255,0.19079,-0.20471,0.20866,0.25563,0.03549,0.06366,0.05587,0.09223,0.0000,,,,0.0021,,,,,,"[0.000, 0.000, 1.000, 1.000, 1.000, 1.000, 0.000, 0.000]",0x00111100,4.9450,4,0,-0.006373,0.000088,0.001883,0.0000,NO
99,4.9950,4.9950,0.0500,0.050,APPROACHING,0,236.62,50.70,875.05,12.05,-11.03,11.43,0.23662,0.05070,0.87505,0.21026,-0.19256,0.19956,-0.20528,-0.25061,-0.03373,-0.06745,-0.05581,-0.09069,0.00000,0.00000,0.00000,0.00000,0.00000,0.00000,0.00000,0.00000,0.00000,0.00000,0.00000,0.00000,0.23662,0.05070,0.87505,-0.21026,0.19256,-0.19956,0.20528,0.25061,0.03373,0.06745,0.05581,0.09069,0.0000,,,,0.0021,,,,,,"[0.000, 0.000, 1.000, 1.000, 1.000, 1.000, 0.000, 0.000]",0x00111100,4.9950,4,0,-0.006978,0.000245,0.001703,0.0000,NO
100,5.0450,5.0450,0.0500,0.050,APPROACHING,0,226.44,38.30,873.41,11.90,-11.14,11.14,0.22644,0.03830,0.87341,0.20775,-0.19435,0.19448,-0.20187,-0.24561,-0.03197,-0.07160,-0.05567,-0.08926,0.00000,0.00000,0.00000,0.00000,0.00000,0.00000,0.00000,0.00000,0.00000,0.00000,0.00000,0.00000,0.22644,0.03830,0.87341,-0.20775,0.19435,-0.19448,0.20187,0.24561,0.03197,0.07160,0.05567,0.08926,0.0000,,,,0.0021,,,,,,"[0.000, 0.000, 1.000, 1.000, 1.000, 1.000, 0.000, 0.000]",0x00111100,5.0450,4,0,-0.007638,0.000477,0.001515,0.0000,NO
101,5.0950,5.0950,0.0500,0.050,APPROACHING,0,216.44,26.14,871.85,11.75,-11.24,10.86,0.21644,0.02614,0.87185,0.20503,-0.19616,0.18948,-0.19844,-0.24063,-0.03021,-0.07614,-0.05539,-0.08794,0.00000,0.00000,0.00000,0.00000,0.00000,0.00000,0.00000,0.00000,0.00000,0.00000,0.00000,0.00000,0.21644,0.02614,0.87185,-0.20503,0.19616,-0.18948,0.19844,0.24063,0.03021,0.07614,0.05539,0.08794,0.0000,,,,0.0021,,,,,,"[0.000, 0.000, 1.000, 1.000, 1.000, 1.000, 0.000, 0.000]",0x00111100,5.0950,4,0,-0.008348,0.000804,0.001321,0.0000,NO
102,5.1450,5.1450,0.0500,0.050,APPROACHING,0,206.60,14.23,870.38,11.58,-11.34,10.57,0.20660,0.01423,0.87038,0.20206,-0.19798,0.18455,-0.19499,-0.23566,-0.02845,-0.08110,-0.05491,-0.08673,0.00000,0.00000,0.00000,0.00000,0.00000,0.00000,0.00000,0.00000,0.00000,0.00000,0.00000,0.00000,0.20660,0.01423,0.87038,-0.20206,0.19798,-0.18455,0.19499,0.23566,0.02845,0.08110,0.05491,0.08673,0.0000,,,,0.0043,,,,,,"[0.549, 0.533, 1.000, 1.000, 0.363, 0.389, 0.000, 0.000]",0x11110000,5.1450,6,4,-0.009929,0.001393,0.001586,0.0000,NO
103,5.1950,5.1950,0.0500,0.050,APPROACHING,0,196.83,2.55,868.98,11.39,-11.45,10.30,0.19683,0.00255,0.86898,0.19882,-0.19980,0.17971,-0.19571,-0.23148,-0.02756,-0.08701,-0.05408,-0.08498,0.00000,0.00000,0.00000,0.00000,0.00000,0.00000,0.00000,0.00000,0.00000,0.00000,0.00000,0.00000,0.19683,0.00255,0.86898,-0.19882,0.19980,-0.17971,0.19571,0.23148,0.02756,0.08701,0.05408,0.08498,0.0000,,,,0.0032,,,,,,"[0.513, 0.505, 1.000, 1.000, 0.341, 0.372, 0.000, 0.000]",0x11110000,5.1950,6,4,-0.010160,0.001957,0.000341,0.0000,NO
104,5.2450,5.2450,0.0500,0.050,APPROACHING,0,187.03,-8.92,867.63,11.19,-11.55,10.02,0.18703,-0.00892,0.86763,0.19527,-0.20159,0.17495,-0.19642,-0.22730,-0.02669,-0.09305,-0.05292,-0.08397,0.00000,0.00000,0.00000,0.00000,0.00000,0.00000,0.00000,0.00000,0.00000,0.00000,0.00000,0.00000,0.18703,-0.00892,0.86763,-0.19527,0.20159,-0.17495,0.19642,0.22730,0.02669,0.09305,0.05292,0.08397,0.0000,,,,0.0021,,,,,,"[0.306, 0.305, 1.000, 1.000, 0.533, 0.555, 0.000, 0.000]",0x00111100,5.2450,6,4,-0.010137,0.002477,-0.000103,0.0000,NO
105,5.2950,5.2950,0.0500,0.050,APPROACHING,0,177.19,-20.18,866.32,10.97,-11.65,9.75,0.17719,-0.02018,0.86632,0.19141,-0.20335,0.17025,-0.19710,-0.22310,-0.02583,-0.09908,-0.05145,-0.08323,0.00000,0.00000,0.00000,0.00000,0.00000,0.00000,0.00000,0.00000,0.00000,0.00000,0.00000,0.00000,0.17719,-0.02018,0.86632,-0.19141,0.20335,-0.17025,0.19710,0.22310,0.02583,0.09908,0.05145,0.08323,0.0000,,,,0.0021,,,,,,"[0.001, 0.001, 1.000, 1.000, 0.895, 0.900, 0.000, 0.000]",0x00111100,5.2950,4,4,-0.011081,0.003422,-0.000391,0.0000,NO
106,5.3450,5.3450,0.0500,0.050,APPROACHING,0,167.42,-31.21,865.07,10.73,-11.75,9.49,0.16742,-0.03121,0.86507,0.18723,-0.20505,0.16559,-0.19356,-0.21819,-0.02410,-0.10566,-0.04942,-0.08304,0.00000,0.00000,0.00000,0.00000,0.00000,0.00000,0.00000,0.00000,0.00000,0.00000,0.00000,0.00000,0.16742,-0.03121,0.86507,-0.18723,0.20505,-0.16559,0.19356,0.21819,0.02410,0.10566,0.04942,0.08304,0.0000,,,,0.0021,,,,,,"[0.000, 0.000, 1.000, 1.000, 1.000, 1.000, 0.000, 0.000]",0x00111100,5.3450,4,2,-0.012097,0.004626,0.000165,0.0000,NO
107,5.3950,5.3950,0.0500,0.050,APPROACHING,0,157.84,-41.99,863.91,10.47,-11.84,9.22,0.15784,-0.04199,0.86391,0.18271,-0.20665,0.16099,-0.18999,-0.21329,-0.02239,-0.11286,-0.04667,-0.08252,0.00000,0.00000,0.00000,0.00000,0.00000,0.00000,0.00000,0.00000,0.00000,0.00000,0.00000,0.00000,0.15784,-0.04199,0.86391,-0.18271,0.20665,-0.16099,0.18999,0.21329,0.02239,0.11286,0.04667,0.08252,0.0000,,,,0.0021,,,,,,"[0.000, 0.000, 1.000, 1.000, 1.000, 1.000, 0.000, 0.000]",0x00111100,5.3950,4,0,-0.012785,0.005995,0.000611,0.0000,NO
108,5.4450,5.4450,0.0500,0.050,APPROACHING,0,148.43,-52.54,862.83,10.19,-11.92,8.96,0.14843,-0.05254,0.86283,0.17782,-0.20812,0.15645,-0.18640,-0.20840,-0.02068,-0.12046,-0.04311,-0.08173,0.00000,0.00000,0.00000,0.00000,0.00000,0.00000,0.00000,0.00000,0.00000,0.00000,0.00000,0.00000,0.14843,-0.05254,0.86283,-0.17782,0.20812,-0.15645,0.18640,0.20840,0.02068,0.12046,0.04311,0.08173,0.0000,,,,0.0021,,,,,,"[0.000, 0.000, 1.000, 1.000, 1.000, 1.000, 0.000, 0.000]",0x00111100,5.4450,4,0,-0.013080,0.007492,0.000761,0.0000,NO
109,5.4950,5.4950,0.0500,0.050,APPROACHING,0,139.20,-62.83,861.84,9.88,-12.00,8.71,0.13920,-0.06283,0.86184,0.17252,-0.20942,0.15199,-0.18278,-0.20352,-0.01900,-0.12824,-0.03865,-0.08086,0.00000,0.00000,0.00000,0.00000,0.00000,0.00000,0.00000,0.00000,0.00000,0.00000,0.00000,0.00000,0.13920,-0.06283,0.86184,-0.17252,0.20942,-0.15199,0.18278,0.20352,0.01900,0.12824,0.03865,0.08086,0.0000,,,,0.0021,,,,,,"[0.000, 0.000, 1.000, 1.000, 1.000, 1.000, 0.000, 0.000]",0x00111100,5.4950,4,0,-0.012987,0.009064,0.000882,0.0000,NO
110,5.5450,5.5450,0.0500,0.050,APPROACHING,0,130.15,-72.89,860.93,9.56,-12.06,8.46,0.13015,-0.07289,0.86093,0.16683,-0.21051,0.14763,-0.17914,-0.19866,-0.01732,-0.13596,-0.03327,-0.07991,0.00000,0.00000,0.00000,0.00000,0.00000,0.00000,0.00000,0.00000,0.00000,0.00000,0.00000,0.00000,0.13015,-0.07289,0.86093,-0.16683,0.21051,-0.14763,0.17914,0.19866,0.01732,0.13596,0.03327,0.07991,0.0000,,,,0.0021,,,,,,"[0.000, 0.000, 1.000, 1.000, 1.000, 1.000, 0.000, 0.000]",0x00111100,5.5450,4,0,-0.012491,0.010618,0.001127,0.0000,NO
111,5.5950,5.5950,0.0500,0.050,APPROACHING,0,121.28,-82.70,860.10,9.21,-12.11,8.21,0.12128,-0.08270,0.86010,0.16073,-0.21135,0.14338,-0.17548,-0.19381,-0.01567,-0.14339,-0.02696,-0.07882,0.00000,0.00000,0.00000,0.00000,0.00000,0.00000,0.00000,0.00000,0.00000,0.00000,0.00000,0.00000,0.12128,-0.08270,0.86010,-0.16073,0.21135,-0.14338,0.17548,0.19381,0.01567,0.14339,0.02696,0.07882,0.0000,,,,0.0022,,,,,,"[0.000, 0.000, 1.000, 1.000, 1.000, 1.000, 0.000, 0.000]",0x00111100,5.5950,4,0,-0.011577,0.012034,0.001512,0.0000,NO
112,5.6450,5.6450,0.0500,0.050,APPROACHING,0,112.60,-92.27,859.36,8.84,-12.14,7.98,0.11260,-0.09227,0.85936,0.15426,-0.21189,0.13924,-0.17179,-0.18896,-0.01405,-0.15027,-0.01980,-0.07750,0.00000,0.00000,0.00000,0.00000,0.00000,0.00000,0.00000,0.00000,0.00000,0.00000,0.00000,0.00000,0.11260,-0.09227,0.85936,-0.15426,0.21189,-0.13924,0.17179,0.18896,0.01405,0.15027,0.01980,0.07750,0.0000,,,,0.0021,,,,,,"[0.000, 0.000, 1.000, 1.000, 1.000, 1.000, 0.000, 0.000]",0x00111100,5.6450,4,0,-0.010267,0.013186,0.001980,0.0000,NO
