Time,Current_X,Current_Y,Current_Z,Current_Roll,Current_Pitch,Current_Yaw,Current_VX,Current_VY,Current_VZ,Current_WX,Current_WY,Current_WZ,Target_X,Target_Y,Target_Z,Target_Roll,Target_Pitch,Target_Yaw,Error_X,Error_Y,Error_Z,Error_Roll,Error_Pitch,Error_Yaw,Command_Vector,Thruster_1_Cmd,Thruster_1_Val,Thruster_2_Cmd,Thruster_2_Val,Thruster_3_Cmd,Thruster_3_Val,Thruster_4_Cmd,Thruster_4_Val,Thruster_5_Cmd,Thruster_5_Val,Thruster_6_Cmd,Thruster_6_Val
0.0050,1.00000,1.00000,1.00000,0.00000,0.00000,1.57080,0.00000,0.00000,0.00000,0.00000,0.00000,0.00000,0.00000,0.00000,0.00000,0.00000,0.00000,1.57080,-1.00000,-1.00000,-1.00000,0.00000,0.00000,0.00000,"[0.000, 0.000, 0.000, 0.000, 0.000, 0.000]",0.000,0.000,0.000,0.000,0.000,0.000,0.000,0.000,0.000,0.000,0.000,0.000
0.0100,1.00000,1.00000,1.00000,0.00000,0.00000,1.57080,0.00000,0.00000,0.00000,0.00000,0.00000,0.00000,0.00000,0.00000,0.00000,0.00000,0.00000,1.57080,-1.00000,-1.00000,-1.00000,0.00000,0.00000,0.00000,"[0.000, 0.000, 0.000, 0.000, 0.000, 0.000]",0.000,0.000,0.000,0.000,0.000,0.000,0.000,0.000,0.000,0.000,0.000,0.000
0.0150,1.00000,1.00000,1.00000,0.00000,0.00000,1.57080,0.00000,0.00000,0.00000,0.00000,0.00000,0.00000,0.00000,0.00000,0.00000,0.00000,0.00000,1.57080,-1.00000,-1.00000,-1.00000,0.00000,0.00000,0.00000,"[0.000, 0.000, 0.000, 0.000, 0.000, 0.000]",0.000,0.000,0.000,0.000,0.000,0.000,0.000,0.000,0.000,0.000,0.000,0.000
0.0200,1.00000,1.00000,1.00000,0.00000,0.00000,1.57080,0.00000,0.00000,0.00000,0.00000,0.00000,0.00000,0.00000,0.00000,0.00000,0.00000,0.00000,1.57080,-1.00000,-1.00000,-1.00000,0.00000,0.00000,0.00000,"[0.000, 0.000, 0.000, 0.000, 0.000, 0.000]",0.000,0.000,0.000,0.000,0.000,0.000,0.000,0.000,0.000,0.000,0.000,0.000
0.0250,1.00000,1.00000,1.00000,0.00000,0.00000,1.57080,0.00000,0.00000,0.00000,0.00000,0.00000,0.00000,0.00000,0.00000,0.00000,0.00000,0.00000,1.57080,-1.00000,-1.00000,-1.00000,0.00000,0.00000,0.00000,"[0.000, 0.000, 0.000, 0.000, 0.000, 0.000]",0.000,0.000,0.000,0.000,0.000,0.000,0.000,0.000,0.000,0.000,0.000,0.000
0.0300,1.00000,1.00000,1.00000,0.00000,0.00000,1.57080,0.00000,0.00000,0.00000,0.00000,0.00000,0.00000,0.00000,0.00000,0.00000,0.00000,0.00000,1.57080,-1.00000,-1.00000,-1.00000,0.00000,0.00000,0.00000,"[0.000, 0.000, 0.000, 0.000, 0.000, 0.000]",0.000,0.000,0.000,0.000,0.000,0.000,0.000,0.000,0.000,0.000,0.000,0.000
0.0350,1.00000,1.00000,1.00000,0.00000,0.00000,1.57080,0.00000,0.00000,0.00000,0.00000,0.00000,0.00000,0.00000,0.00000,0.00000,0.00000,0.00000,1.57080,-1.00000,-1.00000,-1.00000,0.00000,0.00000,0.00000,"[0.000, 0.000, 0.000, 0.000, 0.000, 0.000]",0.000,0.000,0.000,0.000,0.000,0.000,0.000,0.000,0.000,0.000,0.000,0.000
0.0400,1.00000,1.00000,1.00000,0.00000,0.00000,1.57080,0.00000,0.00000,0.00000,0.00000,0.00000,0.00000,0.00000,0.00000,0.00000,0.00000,0.00000,1.57080,-1.00000,-1.00000,-1.00000,0.00000,0.00000,0.00000,"[0.000, 0.000, 0.000, 0.000, 0.000, 0.000]",0.000,0.000,0.000,0.000,0.000,0.000,0.000,0.000,0.000,0.000,0.000,0.000
0.0450,1.00000,1.00000,1.00000,0.00000,0.00000,1.57080,0.00000,0.00000,0.00000,0.00000,0.00000,0.00000,0.00000,0.00000,0.00000,0.00000,0.00000,1.57080,-1.00000,-1.00000,-1.00000,0.00000,0.00000,0.00000,"[0.000, 0.000, 0.000, 0.000, 0.000, 0.000]",0.000,0.000,0.000,0.000,0.000,0.000,0.000,0.000,0.000,0.000,0.000,0.000
0.0500,1.00000,1.00000,1.00000,-0.00004,0.00004,1.57102,-0.00025,-0.00025,-0.00025,-0.01601,0.01601,0.09071,0.00000,0.00000,0.00000,0.00000,0.00000,0.00000,-1.00000,-1.00000,-1.00000,0.00004,-0.00004,-1.57102,"[1.000, 0.000, 0.000, 1.000, 1.000, 0.000]",1.000,1.000,0.000,0.000,0.000,0.000,1.000,1.000,1.000,1.000,0.000,0.000
0.0550,1.00000,1.00000,1.00000,-0.00016,0.00016,1.57170,-0.00050,-0.00050,-0.00050,-0.03203,0.03203,0.18141,0.00000,0.00000,0.00000,0.00000,0.00000,0.00000,-1.00000,-1.00000,-1.00000,0.00016,-0.00016,-1.57170,"[1.000, 0.000, 0.000, 1.000, 1.000, 0.000]",1.000,1.000,0.000,0.000,0.000,0.000,1.000,1.000,1.000,1.000,0.000,0.000
0.0600,0.99999,0.99999,0.99999,-0.00036,0.00036,1.57284,-0.00075,-0.00075,-0.00075,-0.04804,0.04804,0.27212,0.00000,0.00000,0.00000,0.00000,0.00000,0.00000,-0.99999,-0.99999,-0.99999,0.00036,-0.00036,-1.57284,"[1.000, 0.000, 0.000, 1.000, 1.000, 0.000]",1.000,1.000,0.000,0.000,0.000,0.000,1.000,1.000,1.000,1.000,0.000,0.000
0.0650,0.99999,0.99999,0.99999,-0.00064,0.00064,1.57442,-0.00100,-0.00100,-0.00100,-0.06406,0.06406,0.36282,0.00000,0.00000,0.00000,0.00000,0.00000,0.00000,-0.99999,-0.99999,-0.99999,0.00064,-0.00064,-1.57442,"[1.000, 0.000, 0.000, 1.000, 1.000, 0.000]",1.000,1.000,0.000,0.000,0.000,0.000,1.000,1.000,1.000,1.000,0.000,0.000
0.0700,0.99998,0.99998,0.99998,-0.00100,0.00100,1.57646,-0.00125,-0.00125,-0.00125,-0.08007,0.08007,0.45353,0.00000,0.00000,0.00000,0.00000,0.00000,0.00000,-0.99998,-0.99998,-0.99998,0.00100,-0.00100,-1.57646,"[1.000, 0.000, 0.000, 1.000, 1.000, 0.000]",1.000,1.000,0.000,0.000,0.000,0.000,1.000,1.000,1.000,1.000,0.000,0.000
0.0750,0.99998,0.99998,0.99998,-0.00144,0.00145,1.57896,-0.00150,-0.00150,-0.00150,-0.09608,0.09608,0.54424,0.00000,0.00000,0.00000,0.00000,0.00000,0.00000,-0.99998,-0.99998,-0.99998,0.00144,-0.00145,-1.57896,"[1.000, 0.000, 0.000, 1.000, 1.000, 0.000]",1.000,1.000,0.000,0.000,0.000,0.000,1.000,1.000,1.000,1.000,0.000,0.000
0.0800,0.99997,0.99997,0.99997,-0.00195,0.00197,1.58191,-0.00174,-0.00176,-0.00175,-0.11210,0.11210,0.63494,0.00000,0.00000,0.00000,0.00000,0.00000,0.00000,-0.99997,-0.99997,-0.99997,0.00195,-0.00197,-1.58191,"[1.000, 0.000, 0.000, 1.000, 1.000, 0.000]",1.000,1.000,0.000,0.000,0.000,0.000,1.000,1.000,1.000,1.000,0.000,0.000
0.0850,0.99996,0.99996,0.99996,-0.00254,0.00258,1.58531,-0.00199,-0.00201,-0.00200,-0.12811,0.12811,0.72565,0.00000,0.00000,0.00000,0.00000,0.00000,0.00000,-0.99996,-0.99996,-0.99996,0.00254,-0.00258,-1.58531,"[1.000, 0.000, 0.000, 1.000, 1.000, 0.000]",1.000,1.000,0.000,0.000,0.000,0.000,1.000,1.000,1.000,1.000,0.000,0.000
0.0900,0.99995,0.99995,0.99995,-0.00321,0.00327,1.58916,-0.00224,-0.00226,-0.00225,-0.14413,0.14413,0.81636,0.00000,0.00000,0.00000,0.00000,0.00000,0.00000,-0.99995,-0.99995,-0.99995,0.00321,-0.00327,-1.58916,"[1.000, 0.000, 0.000, 1.000, 1.000, 0.000]",1.000,1.000,0.000,0.000,0.000,0.000,1.000,1.000,1.000,1.000,0.000,0.000
0.0950,0.99994,0.99994,0.99994,-0.00396,0.00405,1.59346,-0.00248,-0.00252,-0.00250,-0.16014,0.16014,0.90706,0.00000,0.00000,0.00000,0.00000,0.00000,0.00000,-0.99994,-0.99994,-0.99994,0.00396,-0.00405,-1.59346,"[1.000, 0.000, 0.000, 1.000, 1.000, 0.000]",1.000,1.000,0.000,0.000,0.000,0.000,1.000,1.000,1.000,1.000,0.000,0.000
0.1000,0.99992,0.99992,0.99992,-0.00485,0.00498,1.59829,-0.00272,-0.00278,-0.00275,-0.20556,0.20530,1.02597,0.00000,0.00000,0.00000,0.00000,0.00000,0.00000,-0.99992,-0.99992,-0.99992,0.00485,-0.00498,-1.59829,"[1.000, 0.000, 0.000, 1.000, 1.000, 0.000]",1.000,1.000,0.000,0.000,0.000,0.000,1.000,1.000,1.000,1.000,0.000,0.000
0.1050,0.99991,0.99991,0.99991,-0.00596,0.00615,1.60371,-0.00297,-0.00303,-0.00300,-0.25098,0.25045,1.14487,0.00000,0.00000,0.00000,0.00000,0.00000,0.00000,-0.99991,-0.99991,-0.99991,0.00596,-0.00615,-1.60371,"[1.000, 0.000, 0.000, 1.000, 1.000, 0.000]",1.000,1.000,0.000,0.000,0.000,0.000,1.000,1.000,1.000,1.000,0.000,0.000
0.1100,0.99990,0.99989,0.99989,-0.00729,0.00756,1.60973,-0.00321,-0.00329,-0.00325,-0.29639,0.29561,1.26378,0.00000,0.00000,0.00000,0.00000,0.00000,0.00000,-0.99990,-0.99989,-0.99989,0.00729,-0.00756,-1.60973,"[1.000, 0.000, 0.000, 1.000, 1.000, 0.000]",1.000,1.000,0.000,0.000,0.000,0.000,1.000,1.000,1.000,1.000,0.000,0.000
0.1150,0.99988,0.99988,0.99988,-0.00883,0.00920,1.61633,-0.00344,-0.00355,-0.00350,-0.34181,0.34077,1.38269,0.00000,0.00000,0.00000,0.00000,0.00000,0.00000,-0.99988,-0.99988,-0.99988,0.00883,-0.00920,-1.61633,"[1.000, 0.000, 0.000, 1.000, 1.000, 0.000]",1.000,1.000,0.000,0.000,0.000,0.000,1.000,1.000,1.000,1.000,0.000,0.000
0.1200,0.99986,0.99986,0.99986,-0.01058,0.01109,1.62352,-0.00368,-0.00382,-0.00375,-0.38723,0.38592,1.50159,0.00000,0.00000,0.00000,0.00000,0.00000,0.00000,-0.99986,-0.99986,-0.99986,0.01058,-0.01109,-1.62352,"[1.000, 0.000, 0.000, 1.000, 1.000, 0.000]",1.000,1.000,0.000,0.000,0.000,0.000,1.000,1.000,1.000,1.000,0.000,0.000
0.1250,0.99984,0.99984,0.99984,-0.01253,0.01322,1.63131,-0.00391,-0.00408,-0.00400,-0.43265,0.43108,1.62050,0.00000,0.00000,0.00000,0.00000,0.00000,0.00000,-0.99984,-0.99984,-0.99984,0.01253,-0.01322,-1.63131,"[1.000, 0.000, 0.000, 1.000, 1.000, 0.000]",1.000,1.000,0.000,0.000,0.000,0.000,1.000,1.000,1.000,1.000,0.000,0.000
0.1300,0.99982,0.99982,0.99982,-0.01469,0.01560,1.63967,-0.00414,-0.00435,-0.00425,-0.47806,0.47624,1.73940,0.00000,0.00000,0.00000,0.00000,0.00000,0.00000,-0.99982,-0.99982,-0.99982,0.01469,-0.01560,-1.63967,"[1.000, 0.000, 0.000, 1.000, 1.000, 0.000]",1.000,1.000,0.000,0.000,0.000,0.000,1.000,1.000,1.000,1.000,0.000,0.000
0.1350,0.99980,0.99979,0.99980,-0.01704,0.01824,1.64863,-0.00437,-0.00462,-0.00450,-0.52348,0.52139,1.85831,0.00000,0.00000,0.00000,0.00000,0.00000,0.00000,-0.99980,-0.99979,-0.99980,0.01704,-0.01824,-1.64863,"[1.000, 0.000, 0.000, 1.000, 1.000, 0.000]",1.000,1.000,0.000,0.000,0.000,0.000,1.000,1.000,1.000,1.000,0.000,0.000
0.1400,0.99978,0.99977,0.99977,-0.01959,0.02113,1.65817,-0.00460,-0.00489,-0.00475,-0.56890,0.56655,1.97721,0.00000,0.00000,0.00000,0.00000,0.00000,0.00000,-0.99978,-0.99977,-0.99977,0.01959,-0.02113,-1.65817,"[1.000, 0.000, 0.000, 1.000, 1.000, 0.000]",1.000,1.000,0.000,0.000,0.000,0.000,1.000,1.000,1.000,1.000,0.000,0.000
0.1450,0.99975,0.99975,0.99975,-0.02231,0.02429,1.66829,-0.00482,-0.00517,-0.00500,-0.61432,0.61171,2.09612,0.00000,0.00000,0.00000,0.00000,0.00000,0.00000,-0.99975,-0.99975,-0.99975,0.02231,-0.02429,-1.66829,"[1.000, 0.000, 0.000, 1.000, 1.000, 0.000]",1.000,1.000,0.000,0.000,0.000,0.000,1.000,1.000,1.000,1.000,0.000,0.000
0.1500,0.99973,0.99972,0.99972,-0.02540,0.02791,1.67899,-0.00504,-0.00545,-0.00525,-0.73275,0.73105,2.21503,0.00000,0.00000,0.00000,0.00000,0.00000,0.00000,-0.99973,-0.99972,-0.99972,0.02540,-0.02791,-1.67899,"[1.000, 0.000, 0.000, 1.000, 1.000, 0.000]",1.000,1.000,0.000,0.000,0.000,0.000,1.000,1.000,1.000,1.000,0.000,0.000
0.1550,0.99970,0.99969,0.99970,-0.02902,0.03217,1.69025,-0.00525,-0.00573,-0.00550,-0.85118,0.85039,2.33394,0.00000,0.00000,0.00000,0.00000,0.00000,0.00000,-0.99970,-0.99969,-0.99970,0.02902,-0.03217,-1.69025,"[1.000, 0.000, 0.000, 1.000, 1.000, 0.000]",1.000,1.000,0.000,0.000,0.000,0.000,1.000,1.000,1.000,1.000,0.000,0.000
0.1600,0.99968,0.99966,0.99967,-0.03317,0.03709,1.70208,-0.00546,-0.00602,-0.00575,-0.96962,0.96973,2.45284,0.00000,0.00000,0.00000,0.00000,0.00000,0.00000,-0.99968,-0.99966,-0.99967,0.03317,-0.03709,-1.70208,"[1.000, 0.000, 0.000, 1.000, 1.000, 0.000]",1.000,1.000,0.000,0.000,0.000,0.000,1.000,1.000,1.000,1.000,0.000,0.000
0.1650,0.99965,0.99963,0.99964,-0.03782,0.04268,1.71446,-0.00567,-0.00630,-0.00599,-1.08805,1.08907,2.57175,0.00000,0.00000,0.00000,0.00000,0.00000,0.00000,-0.99965,-0.99963,-0.99964,0.03782,-0.04268,-1.71446,"[1.000, 0.000, 0.000, 1.000, 1.000, 0.000]",1.000,1.000,0.000,0.000,0.000,0.000,1.000,1.000,1.000,1.000,0.000,0.000
0.1700,0.99962,0.99960,0.99961,-0.04296,0.04895,1.72739,-0.00587,-0.00660,-0.00624,-1.20649,1.20841,2.69066,0.00000,0.00000,0.00000,0.00000,0.00000,0.00000,-0.99962,-0.99960,-0.99961,0.04296,-0.04895,-1.72739,"[1.000, 0.000, 0.000, 1.000, 1.000, 0.000]",1.000,1.000,0.000,0.000,0.000,0.000,1.000,1.000,1.000,1.000,0.000,0.000
0.1750,0.99959,0.99957,0.99958,-0.04859,0.05591,1.74085,-0.00606,-0.00689,-0.00649,-1.32492,1.32776,2.80957,0.00000,0.00000,0.00000,0.00000,0.00000,0.00000,-0.99959,-0.99957,-0.99958,0.04859,-0.05591,-1.74085,"[1.000, 0.000, 0.000, 1.000, 1.000, 0.000]",1.000,1.000,0.000,0.000,0.000,0.000,1.000,1.000,1.000,1.000,0.000,0.000
0.1800,0.99956,0.99953,0.99954,-0.05467,0.06358,1.75485,-0.00625,-0.00719,-0.00674,-1.44336,1.44710,2.92847,0.00000,0.00000,0.00000,0.00000,0.00000,0.00000,-0.99956,-0.99953,-0.99954,0.05467,-0.06358,-1.75485,"[1.000, 0.000, 0.000, 1.000, 1.000, 0.000]",1.000,1.000,0.000,0.000,0.000,0.000,1.000,1.000,1.000,1.000,0.000,0.000
0.1850,0.99953,0.99949,0.99951,-0.06120,0.07196,1.76936,-0.00644,-0.00750,-0.00699,-1.56179,1.56644,3.04738,0.00000,0.00000,0.00000,0.00000,0.00000,0.00000,-0.99953,-0.99949,-0.99951,0.06120,-0.07196,-1.76936,"[1.000, 0.000, 0.000, 1.000, 1.000, 0.000]",1.000,1.000,0.000,0.000,0.000,0.000,1.000,1.000,1.000,1.000,0.000,0.000
0.1900,0.99950,0.99946,0.99947,-0.06816,0.08108,1.78438,-0.00661,-0.00781,-0.00723,-1.68022,1.68578,3.16629,0.00000,0.00000,0.00000,0.00000,0.00000,0.00000,-0.99950,-0.99946,-0.99947,0.06816,-0.08108,-1.78438,"[1.000, 0.000, 0.000, 1.000, 1.000, 0.000]",1.000,1.000,0.000,0.000,0.000,0.000,1.000,1.000,1.000,1.000,0.000,0.000
0.1950,0.99946,0.99942,0.99944,-0.07553,0.09094,1.79990,-0.00678,-0.00812,-0.00748,-1.79866,1.80512,3.28519,0.00000,0.00000,0.00000,0.00000,0.00000,0.00000,-0.99946,-0.99942,-0.99944,0.07553,-0.09094,-1.79990,"[1.000, 0.000, 0.000, 1.000, 1.000, 0.000]",1.000,1.000,0.000,0.000,0.000,0.000,1.000,1.000,1.000,1.000,0.000,0.000
0.2000,0.99943,0.99937,0.99940,-0.08328,0.10156,1.81590,-0.00695,-0.00844,-0.00772,-1.91712,1.92447,3.40385,0.00000,0.00000,0.00000,0.00000,0.00000,0.00000,-0.99943,-0.99937,-0.99940,0.08328,-0.10156,-1.81590,"[1.000, 0.000, 0.000, 1.000, 1.000, 0.000]",1.000,1.000,0.000,0.000,0.000,0.000,1.000,1.000,1.000,1.000,0.000,0.000
0.2050,0.99939,0.99933,0.99936,-0.09140,0.11296,1.83238,-0.00710,-0.00876,-0.00796,-2.03558,2.04382,3.52251,0.00000,0.00000,0.00000,0.00000,0.00000,0.00000,-0.99939,-0.99933,-0.99936,0.09140,-0.11296,-1.83238,"[1.000, 0.000, 0.000, 1.000, 1.000, 0.000]",1.000,1.000,0.000,0.000,0.000,0.000,1.000,1.000,1.000,1.000,0.000,0.000
0.2100,0.99936,0.99929,0.99932,-0.09986,0.12514,1.84932,-0.00725,-0.00909,-0.00821,-2.15405,2.16316,3.64117,0.00000,0.00000,0.00000,0.00000,0.00000,0.00000,-0.99936,-0.99929,-0.99932,0.09986,-0.12514,-1.84932,"[1.000, 0.000, 0.000, 1.000, 1.000, 0.000]",1.000,1.000,0.000,0.000,0.000,0.000,1.000,1.000,1.000,1.000,0.000,0.000
0.2150,0.99932,0.99924,0.99928,-0.10864,0.13811,1.86672,-0.00738,-0.00942,-0.00845,-2.27251,2.28251,3.75983,0.00000,0.00000,0.00000,0.00000,0.00000,0.00000,-0.99932,-0.99924,-0.99928,0.10864,-0.13811,-1.86672,"[1.000, 0.000, 0.000, 1.000, 1.000, 0.000]",1.000,1.000,0.000,0.000,0.000,0.000,1.000,1.000,1.000,1.000,0.000,0.000
0.2200,0.99928,0.99919,0.99924,-0.11772,0.15191,1.88456,-0.00751,-0.00976,-0.00868,-2.39097,2.40186,3.87848,0.00000,0.00000,0.00000,0.00000,0.00000,0.00000,-0.99928,-0.99919,-0.99924,0.11772,-0.15191,-1.88456,"[1.000, 0.000, 0.000, 1.000, 1.000, 0.000]",1.000,1.000,0.000,0.000,0.000,0.000,1.000,1.000,1.000,1.000,0.000,0.000
0.2250,0.99924,0.99914,0.99919,-0.12708,0.16653,1.90283,-0.00763,-0.01011,-0.00892,-2.50943,2.52120,3.99714,0.00000,0.00000,0.00000,0.00000,0.00000,0.00000,-0.99924,-0.99914,-0.99919,0.12708,-0.16653,-1.90283,"[1.000, 0.000, 0.000, 1.000, 1.000, 0.000]",1.000,1.000,0.000,0.000,0.000,0.000,1.000,1.000,1.000,1.000,0.000,0.000
0.2300,0.99921,0.99909,0.99915,-0.13668,0.18199,1.92152,-0.00774,-0.01045,-0.00916,-2.62790,2.64055,4.11580,0.00000,0.00000,0.00000,0.00000,0.00000,0.00000,-0.99921,-0.99909,-0.99915,0.13668,-0.18199,-1.92152,"[1.000, 0.000, 0.000, 1.000, 1.000, 0.000]",1.000,1.000,0.000,0.000,0.000,0.000,1.000,1.000,1.000,1.000,0.000,0.000
0.2350,0.99917,0.99904,0.99910,-0.14651,0.19830,1.94062,-0.00784,-0.01080,-0.00939,-2.74636,2.75990,4.23445,0.00000,0.00000,0.00000,0.00000,0.00000,0.00000,-0.99917,-0.99904,-0.99910,0.14651,-0.19830,-1.94062,"[1.000, 0.000, 0.000, 1.000, 1.000, 0.000]",1.000,1.000,0.000,0.000,0.000,0.000,1.000,1.000,1.000,1.000,0.000,0.000
0.2400,0.99913,0.99898,0.99905,-0.15653,0.21547,1.96013,-0.00793,-0.01116,-0.00962,-2.86482,2.87925,4.35311,0.00000,0.00000,0.00000,0.00000,0.00000,0.00000,-0.99913,-0.99898,-0.99905,0.15653,-0.21547,-1.96013,"[1.000, 0.000, 0.000, 1.000, 1.000, 0.000]",1.000,1.000,0.000,0.000,0.000,0.000,1.000,1.000,1.000,1.000,0.000,0.000
0.2450,0.99909,0.99893,0.99900,-0.16672,0.23353,1.98004,-0.00800,-0.01152,-0.00984,-2.98329,2.99859,4.47177,0.00000,0.00000,0.00000,0.00000,0.00000,0.00000,-0.99909,-0.99893,-0.99900,0.16672,-0.23353,-1.98004,"[1.000, 0.000, 0.000, 1.000, 1.000, 0.000]",1.000,1.000,0.000,0.000,0.000,0.000,1.000,1.000,1.000,1.000,0.000,0.000
0.2500,0.99905,0.99887,0.99895,-0.17705,0.25247,2.00035,-0.00807,-0.01189,-0.01006,-3.10175,3.11794,4.59067,0.00000,0.00000,0.00000,0.00000,0.00000,0.00000,-0.99905,-0.99887,-0.99895,0.17705,-0.25247,-2.00035,"[1.000, 0.000, 0.000, 1.000, 1.000, 0.000]",1.000,1.000,0.000,0.000,0.000,0.000,1.000,1.000,1.000,1.000,0.000,0.000
0.2550,0.99901,0.99881,0.99890,-0.18748,0.27231,2.02104,-0.00812,-0.01226,-0.01028,-3.22022,3.23728,4.70958,0.00000,0.00000,0.00000,0.00000,0.00000,0.00000,-0.99901,-0.99881,-0.99890,0.18748,-0.27231,-2.02104,"[1.000, 0.000, 0.000, 1.000, 1.000, 0.000]",1.000,1.000,0.000,0.000,0.000,0.000,1.000,1.000,1.000,1.000,0.000,0.000
0.2600,0.99897,0.99874,0.99885,-0.19800,0.29306,2.04212,-0.00816,-0.01263,-0.01050,-3.33868,3.35663,4.82849,0.00000,0.00000,0.00000,0.00000,0.00000,0.00000,-0.99897,-0.99874,-0.99885,0.19800,-0.29306,-2.04212,"[1.000, 0.000, 0.000, 1.000, 1.000, 0.000]",1.000,1.000,0.000,0.000,0.000,0.000,1.000,1.000,1.000,1.000,0.000,0.000
0.2650,0.99893,0.99868,0.99880,-0.20857,0.31472,2.06359,-0.00819,-0.01301,-0.01071,-3.45715,3.47597,4.94739,0.00000,0.00000,0.00000,0.00000,0.00000,0.00000,-0.99893,-0.99868,-0.99880,0.20857,-0.31472,-2.06359,"[1.000, 0.000, 0.000, 1.000, 1.000, 0.000]",1.000,1.000,0.000,0.000,0.000,0.000,1.000,1.000,1.000,1.000,0.000,0.000
0.2700,0.99889,0.99861,0.99874,-0.21915,0.33731,2.08546,-0.00820,-0.01339,-0.01091,-3.57561,3.59532,5.06630,0.00000,0.00000,0.00000,0.00000,0.00000,0.00000,-0.99889,-0.99861,-0.99874,0.21915,-0.33731,-2.08546,"[1.000, 0.000, 0.000, 1.000, 1.000, 0.000]",1.000,1.000,0.000,0.000,0.000,0.000,1.000,1.000,1.000,1.000,0.000,0.000
0.2750,0.99884,0.99855,0.99869,-0.22971,0.36083,2.10772,-0.00820,-0.01378,-0.01111,-3.69408,3.71466,5.18520,0.00000,0.00000,0.00000,0.00000,0.00000,0.00000,-0.99884,-0.99855,-0.99869,0.22971,-0.36083,-2.10772,"[1.000, 0.000, 0.000, 1.000, 1.000, 0.000]",1.000,1.000,0.000,0.000,0.000,0.000,1.000,1.000,1.000,1.000,0.000,0.000
0.2800,0.99880,0.99848,0.99863,-0.24022,0.38529,2.13038,-0.00819,-0.01416,-0.01130,-3.81254,3.83401,5.30411,0.00000,0.00000,0.00000,0.00000,0.00000,0.00000,-0.99880,-0.99848,-0.99863,0.24022,-0.38529,-2.13038,"[1.000, 0.000, 0.000, 1.000, 1.000, 0.000]",1.000,1.000,0.000,0.000,0.000,0.000,1.000,1.000,1.000,1.000,0.000,0.000
0.2850,0.99876,0.99841,0.99858,-0.25063,0.41069,2.15347,-0.00816,-0.01455,-0.01149,-3.93101,3.95336,5.42301,0.00000,0.00000,0.00000,0.00000,0.00000,0.00000,-0.99876,-0.99841,-0.99858,0.25063,-0.41069,-2.15347,"[1.000, 0.000, 0.000, 1.000, 1.000, 0.000]",1.000,1.000,0.000,0.000,0.000,0.000,1.000,1.000,1.000,1.000,0.000,0.000
0.2900,0.99872,0.99833,0.99852,-0.26091,0.43704,2.17700,-0.00812,-0.01495,-0.01167,-4.04947,4.07270,5.54192,0.00000,0.00000,0.00000,0.00000,0.00000,0.00000,-0.99872,-0.99833,-0.99852,0.26091,-0.43704,-2.17700,"[1.000, 0.000, 0.000, 1.000, 1.000, 0.000]",1.000,1.000,0.000,0.000,0.000,0.000,1.000,1.000,1.000,1.000,0.000,0.000
0.2950,0.99868,0.99826,0.99846,-0.27100,0.46433,2.20098,-0.00806,-0.01534,-0.01184,-4.16794,4.19205,5.66082,0.00000,0.00000,0.00000,0.00000,0.00000,0.00000,-0.99868,-0.99826,-0.99846,0.27100,-0.46433,-2.20098,"[1.000, 0.000, 0.000, 1.000, 1.000, 0.000]",1.000,1.000,0.000,0.000,0.000,0.000,1.000,1.000,1.000,1.000,0.000,0.000
0.3000,0.99864,0.99818,0.99840,-0.28087,0.49258,2.22546,-0.00825,-0.01537,-0.01223,-4.28640,4.31139,5.77973,0.00000,0.00000,0.00000,0.00000,0.00000,0.00000,-0.99864,-0.99818,-0.99840,0.28087,-0.49258,-2.22546,"[0.000, 1.000, 0.000, 1.000, 1.000, 0.000]",0.000,0.000,1.000,1.000,0.000,0.000,1.000,1.000,1.000,1.000,0.000,0.000
0.3050,0.99860,0.99810,0.99834,-0.29046,0.52178,2.25046,-0.00843,-0.01542,-0.01262,-4.40487,4.43074,5.89863,0.00000,0.00000,0.00000,0.00000,0.00000,0.00000,-0.99860,-0.99810,-0.99834,0.29046,-0.52178,-2.25046,"[0.000, 1.000, 0.000, 1.000, 1.000, 0.000]",0.000,0.000,1.000,1.000,0.000,0.000,1.000,1.000,1.000,1.000,0.000,0.000
0.3100,0.99856,0.99802,0.99827,-0.29970,0.55193,2.27603,-0.00860,-0.01548,-0.01301,-4.52333,4.55008,6.01754,0.00000,0.00000,0.00000,0.00000,0.00000,0.00000,-0.99856,-0.99802,-0.99827,0.29970,-0.55193,-2.27603,"[0.000, 1.000, 0.000, 1.000, 1.000, 0.000]",0.000,0.000,1.000,1.000,0.000,0.000,1.000,1.000,1.000,1.000,0.000,0.000
0.3150,0.99851,0.99795,0.99821,-0.30854,0.58302,2.30222,-0.00876,-0.01555,-0.01341,-4.64180,4.66943,6.13644,0.00000,0.00000,0.00000,0.00000,0.00000,0.00000,-0.99851,-0.99795,-0.99821,0.30854,-0.58302,-2.30222,"[0.000, 1.000, 0.000, 1.000, 1.000, 0.000]",0.000,0.000,1.000,1.000,0.000,0.000,1.000,1.000,1.000,1.000,0.000,0.000
0.3200,0.99847,0.99787,0.99814,-0.31688,0.61505,2.32910,-0.00890,-0.01563,-0.01381,-4.76026,4.78878,6.25535,0.00000,0.00000,0.00000,0.00000,0.00000,0.00000,-0.99847,-0.99787,-0.99814,0.31688,-0.61505,-2.32910,"[0.000, 1.000, 0.000, 1.000, 1.000, 0.000]",0.000,0.000,1.000,1.000,0.000,0.000,1.000,1.000,1.000,1.000,0.000,0.000
0.3250,0.99842,0.99779,0.99807,-0.32466,0.64801,2.35676,-0.00904,-0.01572,-0.01421,-4.87873,4.90812,6.37425,0.00000,0.00000,0.00000,0.00000,0.00000,0.00000,-0.99842,-0.99779,-0.99807,0.32466,-0.64801,-2.35676,"[0.000, 1.000, 0.000, 1.000, 1.000, 0.000]",0.000,0.000,1.000,1.000,0.000,0.000,1.000,1.000,1.000,1.000,0.000,0.000
0.3300,0.99838,0.99771,0.99800,-0.33175,0.68189,2.38528,-0.00915,-0.01583,-0.01461,-4.99719,5.02747,6.49316,0.00000,0.00000,0.00000,0.00000,0.00000,0.00000,-0.99838,-0.99771,-0.99800,0.33175,-0.68189,-2.38528,"[0.000, 1.000, 0.000, 1.000, 1.000, 0.000]",0.000,0.000,1.000,1.000,0.000,0.000,1.000,1.000,1.000,1.000,0.000,0.000
0.3350,0.99833,0.99763,0.99792,-0.33804,0.71669,2.41478,-0.00925,-0.01594,-0.01502,-5.11566,5.14681,6.61206,0.00000,0.00000,0.00000,0.00000,0.00000,0.00000,-0.99833,-0.99763,-0.99792,0.33804,-0.71669,-2.41478,"[0.000, 1.000, 0.000, 1.000, 1.000, 0.000]",0.000,0.000,1.000,1.000,0.000,0.000,1.000,1.000,1.000,1.000,0.000,0.000
0.3400,0.99829,0.99755,0.99785,-0.34338,0.75237,2.44542,-0.00934,-0.01607,-0.01542,-5.23413,5.26616,6.73097,0.00000,0.00000,0.00000,0.00000,0.00000,0.00000,-0.99829,-0.99755,-0.99785,0.34338,-0.75237,-2.44542,"[0.000, 1.000, 0.000, 1.000, 1.000, 0.000]",0.000,0.000,1.000,1.000,0.000,0.000,1.000,1.000,1.000,1.000,0.000,0.000
0.3450,0.99824,0.99747,0.99777,-0.34758,0.78893,2.47738,-0.00941,-0.01621,-0.01583,-5.35259,5.38551,6.84987,0.00000,0.00000,0.00000,0.00000,0.00000,0.00000,-0.99824,-0.99747,-0.99777,0.34758,-0.78893,-2.47738,"[0.000, 1.000, 0.000, 1.000, 1.000, 0.000]",0.000,0.000,1.000,1.000,0.000,0.000,1.000,1.000,1.000,1.000,0.000,0.000
0.3500,0.99819,0.99739,0.99769,-0.35044,0.82633,2.51087,-0.00946,-0.01636,-0.01623,-5.47106,5.50460,6.96877,0.00000,0.00000,0.00000,0.00000,0.00000,0.00000,-0.99819,-0.99739,-0.99769,0.35044,-0.82633,-2.51087,"[0.000, 1.000, 0.000, 1.000, 1.000, 0.000]",0.000,0.000,1.000,1.000,0.000,0.000,1.000,1.000,1.000,1.000,0.000,0.000
0.3550,0.99814,0.99731,0.99761,-0.35166,0.86454,2.54619,-0.00950,-0.01652,-0.01663,-5.58953,5.62370,7.08767,0.00000,0.00000,0.00000,0.00000,0.00000,0.00000,-0.99814,-0.99731,-0.99761,0.35166,-0.86454,-2.54619,"[0.000, 1.000, 0.000, 1.000, 1.000, 0.000]",0.000,0.000,1.000,1.000,0.000,0.000,1.000,1.000,1.000,1.000,0.000,0.000
0.3600,0.99810,0.99723,0.99752,-0.35091,0.90352,2.58369,-0.00951,-0.01669,-0.01703,-5.70800,5.74280,7.20657,0.00000,0.00000,0.00000,0.00000,0.00000,0.00000,-0.99810,-0.99723,-0.99752,0.35091,-0.90352,-2.58369,"[0.000, 1.000, 0.000, 1.000, 1.000, 0.000]",0.000,0.000,1.000,1.000,0.000,0.000,1.000,1.000,1.000,1.000,0.000,0.000
0.3650,0.99805,0.99714,0.99744,-0.34773,0.94322,2.62382,-0.00951,-0.01687,-0.01743,-5.82647,5.86190,7.32547,0.00000,0.00000,0.00000,0.00000,0.00000,0.00000,-0.99805,-0.99714,-0.99744,0.34773,-0.94322,-2.62382,"[0.000, 1.000, 0.000, 1.000, 1.000, 0.000]",0.000,0.000,1.000,1.000,0.000,0.000,1.000,1.000,1.000,1.000,0.000,0.000
0.3700,0.99800,0.99706,0.99735,-0.34155,0.98357,2.66718,-0.00948,-0.01705,-0.01782,-5.94494,5.98100,7.44437,0.00000,0.00000,0.00000,0.00000,0.00000,0.00000,-0.99800,-0.99706,-0.99735,0.34155,-0.98357,-2.66718,"[0.000, 1.000, 0.000, 1.000, 1.000, 0.000]",0.000,0.000,1.000,1.000,0.000,0.000,1.000,1.000,1.000,1.000,0.000,0.000
0.3750,0.99795,0.99697,0.99726,-0.33159,1.02448,2.71456,-0.00944,-0.01725,-0.01820,-6.06341,6.10010,7.56327,0.00000,0.00000,0.00000,0.00000,0.00000,0.00000,-0.99795,-0.99697,-0.99726,0.33159,-1.02448,-2.71456,"[0.000, 1.000, 0.000, 1.000, 1.000, 0.000]",0.000,0.000,1.000,1.000,0.000,0.000,1.000,1.000,1.000,1.000,0.000,0.000
0.3800,0.99791,0.99688,0.99717,-0.31684,1.06582,2.76701,-0.00938,-0.01745,-0.01858,-6.18188,6.21920,7.68217,0.00000,0.00000,0.00000,0.00000,0.00000,0.00000,-0.99791,-0.99688,-0.99717,0.31684,-1.06582,-2.76701,"[0.000, 1.000, 0.000, 1.000, 1.000, 0.000]",0.000,0.000,1.000,1.000,0.000,0.000,1.000,1.000,1.000,1.000,0.000,0.000
0.3850,0.99786,0.99680,0.99707,-0.29586,1.10744,2.82596,-0.00929,-0.01765,-0.01895,-6.30035,6.33830,7.80107,0.00000,0.00000,0.00000,0.00000,0.00000,0.00000,-0.99786,-0.99680,-0.99707,0.29586,-1.10744,-2.82596,"[0.000, 1.000, 0.000, 1.000, 1.000, 0.000]",0.000,0.000,1.000,1.000,0.000,0.000,1.000,1.000,1.000,1.000,0.000,0.000
0.3900,0.99781,0.99671,0.99698,-0.26670,1.14911,2.89340,-0.00918,-0.01786,-0.01931,-6.41882,6.45740,7.91997,0.00000,0.00000,0.00000,0.00000,0.00000,0.00000,-0.99781,-0.99671,-0.99698,0.26670,-1.14911,-2.89340,"[0.000, 1.000, 0.000, 1.000, 1.000, 0.000]",0.000,0.000,1.000,1.000,0.000,0.000,1.000,1.000,1.000,1.000,0.000,0.000
0.3950,0.99777,0.99662,0.99688,-0.22658,1.19047,2.97214,-0.00905,-0.01807,-0.01967,-6.53729,6.57649,8.03887,0.00000,0.00000,0.00000,0.00000,0.00000,0.00000,-0.99777,-0.99662,-0.99688,0.22658,-1.19047,-2.97214,"[0.000, 1.000, 0.000, 1.000, 1.000, 0.000]",0.000,0.000,1.000,1.000,0.000,0.000,1.000,1.000,1.000,1.000,0.000,0.000
0.4000,0.99772,0.99653,0.99678,-0.17152,1.23105,3.06620,-0.00937,-0.01833,-0.01983,-6.65575,6.69584,8.15754,0.00000,0.00000,0.00000,0.00000,0.00000,0.00000,-0.99772,-0.99653,-0.99678,0.17152,-1.23105,-3.06620,"[0.000, 1.000, 0.000, 1.000, 0.000, 1.000]",0.000,0.000,1.000,1.000,0.000,0.000,1.000,1.000,0.000,0.000,1.000,1.000
0.4050,0.99768,0.99643,0.99668,-0.09583,1.27006,-3.10190,-0.00966,-0.01859,-0.02000,-6.77421,6.81520,8.27621,0.00000,0.00000,0.00000,0.00000,0.00000,0.00000,-0.99768,-0.99643,-0.99668,0.09583,-1.27006,3.10190,"[0.000, 1.000, 0.000, 1.000, 0.000, 1.000]",0.000,0.000,1.000,1.000,0.000,0.000,1.000,1.000,0.000,0.000,1.000,1.000
0.4100,0.99763,0.99634,0.99658,0.00834,1.30631,-2.95788,-0.00994,-0.01888,-0.02017,-6.89268,6.93455,8.39487,0.00000,0.00000,0.00000,0.00000,0.00000,0.00000,-0.99763,-0.99634,-0.99658,-0.00834,-1.30631,2.95788,"[0.000, 1.000, 0.000, 1.000, 0.000, 1.000]",0.000,0.000,1.000,1.000,0.000,0.000,1.000,1.000,0.000,0.000,1.000,1.000
0.4150,0.99758,0.99625,0.99648,0.15072,1.33794,-2.77515,-0.01020,-0.01918,-0.02035,-7.01114,7.05390,8.51354,0.00000,0.00000,0.00000,0.00000,0.00000,0.00000,-0.99758,-0.99625,-0.99648,-0.15072,-1.33794,2.77515,"[0.000, 1.000, 0.000, 1.000, 0.000, 1.000]",0.000,0.000,1.000,1.000,0.000,0.000,1.000,1.000,0.000,0.000,1.000,1.000
0.4200,0.99752,0.99615,0.99638,0.33968,1.36220,-2.54533,-0.01044,-0.01949,-0.02052,-7.12960,7.17325,8.63220,0.00000,0.00000,0.00000,0.00000,0.00000,0.00000,-0.99752,-0.99615,-0.99638,-0.33968,-1.36220,2.54533,"[0.000, 1.000, 0.000, 1.000, 0.000, 1.000]",0.000,0.000,1.000,1.000,0.000,0.000,1.000,1.000,0.000,0.000,1.000,1.000
0.4250,0.99747,0.99605,0.99627,0.57306,1.37563,-2.27048,-0.01065,-0.01982,-0.02070,-7.24806,7.29260,8.75087,0.00000,0.00000,0.00000,0.00000,0.00000,0.00000,-0.99747,-0.99605,-0.99627,-0.57306,-1.37563,2.27048,"[0.000, 1.000, 0.000, 1.000, 0.000, 1.000]",0.000,0.000,1.000,1.000,0.000,0.000,1.000,1.000,0.000,0.000,1.000,1.000
0.4300,0.99742,0.99595,0.99617,0.82762,1.37535,-1.97381,-0.01084,-0.02017,-0.02088,-7.36652,7.41195,8.86953,0.00000,0.00000,0.00000,0.00000,0.00000,0.00000,-0.99742,-0.99595,-0.99617,-0.82762,-1.37535,1.97381,"[0.000, 1.000, 0.000, 1.000, 0.000, 1.000]",0.000,0.000,1.000,1.000,0.000,0.000,1.000,1.000,0.000,0.000,1.000,1.000
0.4350,0.99736,0.99585,0.99607,1.06583,1.36081,-1.69279,-0.01101,-0.02052,-0.02106,-7.48498,7.53130,8.98820,0.00000,0.00000,0.00000,0.00000,0.00000,0.00000,-0.99736,-0.99585,-0.99607,-1.06583,-1.36081,1.69279,"[0.000, 1.000, 0.000, 1.000, 0.000, 1.000]",0.000,0.000,1.000,1.000,0.000,0.000,1.000,1.000,0.000,0.000,1.000,1.000
0.4400,0.99731,0.99575,0.99596,1.26103,1.33412,-1.45401,-0.01116,-0.02089,-0.02123,-7.60345,7.65065,9.10686,0.00000,0.00000,0.00000,0.00000,0.00000,0.00000,-0.99731,-0.99575,-0.99596,-1.26103,-1.33412,1.45401,"[0.000, 1.000, 0.000, 1.000, 0.000, 1.000]",0.000,0.000,1.000,1.000,0.000,0.000,1.000,1.000,0.000,0.000,1.000,1.000
0.4450,0.99725,0.99564,0.99585,1.40829,1.29843,-1.26231,-0.01128,-0.02128,-0.02140,-7.72191,7.77000,9.22552,0.00000,0.00000,0.00000,0.00000,0.00000,0.00000,-0.99725,-0.99564,-0.99585,-1.40829,-1.29843,1.26231,"[0.000, 1.000, 0.000, 1.000, 0.000, 1.000]",0.000,0.000,1.000,1.000,0.000,0.000,1.000,1.000,0.000,0.000,1.000,1.000
0.4500,0.99719,0.99553,0.99575,1.51509,1.25642,-1.11014,-0.01137,-0.02167,-0.02156,-7.84013,7.88927,9.34443,0.00000,0.00000,0.00000,0.00000,0.00000,0.00000,-0.99719,-0.99553,-0.99575,-1.51509,-1.25642,1.11014,"[0.000, 1.000, 0.000, 1.000, 0.000, 1.000]",0.000,0.000,1.000,1.000,0.000,0.000,1.000,1.000,0.000,0.000,1.000,1.000
0.4550,0.99714,0.99542,0.99564,1.59125,1.21003,-0.98761,-0.01143,-0.02206,-0.02172,-7.95836,8.00855,9.46334,0.00000,0.00000,0.00000,0.00000,0.00000,0.00000,-0.99714,-0.99542,-0.99564,-1.59125,-1.21003,0.98761,"[0.000, 1.000, 0.000, 1.000, 0.000, 1.000]",0.000,0.000,1.000,1.000,0.000,0.000,1.000,1.000,0.000,0.000,1.000,1.000
0.4600,0.99708,0.99531,0.99553,1.64495,1.16051,-0.88642,-0.01147,-0.02247,-0.02187,-8.07658,8.12782,9.58224,0.00000,0.00000,0.00000,0.00000,0.00000,0.00000,-0.99708,-0.99531,-0.99553,-1.64495,-1.16051,0.88642,"[0.000, 1.000, 0.000, 1.000, 0.000, 1.000]",0.000,0.000,1.000,1.000,0.000,0.000,1.000,1.000,0.000,0.000,1.000,1.000
0.4650,0.99702,0.99520,0.99542,1.68216,1.10867,-0.80051,-0.01148,-0.02288,-0.02200,-8.19481,8.24709,9.70115,0.00000,0.00000,0.00000,0.00000,0.00000,0.00000,-0.99702,-0.99520,-0.99542,-1.68216,-1.10867,0.80051,"[0.000, 1.000, 0.000, 1.000, 0.000, 1.000]",0.000,0.000,1.000,1.000,0.000,0.000,1.000,1.000,0.000,0.000,1.000,1.000
0.4700,0.99697,0.99508,0.99531,1.70705,1.05508,-0.72559,-0.01147,-0.02329,-0.02213,-8.31303,8.36636,9.82006,0.00000,0.00000,0.00000,0.00000,0.00000,0.00000,-0.99697,-0.99508,-0.99531,-1.70705,-1.05508,0.72559,"[0.000, 1.000, 0.000, 1.000, 0.000, 1.000]",0.000,0.000,1.000,1.000,0.000,0.000,1.000,1.000,0.000,0.000,1.000,1.000
0.4750,0.99691,0.99497,0.99520,1.72251,1.00013,-0.65864,-0.01142,-0.02371,-0.02224,-8.43126,8.48563,9.93896,0.00000,0.00000,0.00000,0.00000,0.00000,0.00000,-0.99691,-0.99497,-0.99520,-1.72251,-1.00013,0.65864,"[0.000, 1.000, 0.000, 1.000, 0.000, 1.000]",0.000,0.000,1.000,1.000,0.000,0.000,1.000,1.000,0.000,0.000,1.000,1.000
0.4800,0.99685,0.99485,0.99509,1.73057,0.94409,-0.59751,-0.01135,-0.02413,-0.02234,-8.54948,8.60491,10.05787,0.00000,0.00000,0.00000,0.00000,0.00000,0.00000,-0.99685,-0.99485,-0.99509,-1.73057,-0.94409,0.59751,"[0.000, 1.000, 0.000, 1.000, 0.000, 1.000]",0.000,0.000,1.000,1.000,0.000,0.000,1.000,1.000,0.000,0.000,1.000,1.000
0.4850,0.99680,0.99472,0.99497,1.73264,0.88721,-0.54062,-0.01125,-0.02454,-0.02242,-8.66771,8.72418,10.17677,0.00000,0.00000,0.00000,0.00000,0.00000,0.00000,-0.99680,-0.99472,-0.99497,-1.73264,-0.88721,0.54062,"[0.000, 1.000, 0.000, 1.000, 0.000, 1.000]",0.000,0.000,1.000,1.000,0.000,0.000,1.000,1.000,0.000,0.000,1.000,1.000
0.4900,0.99674,0.99460,0.99486,1.72974,0.82965,-0.48680,-0.01113,-0.02495,-0.02248,-8.78594,8.84345,10.29568,0.00000,0.00000,0.00000,0.00000,0.00000,0.00000,-0.99674,-0.99460,-0.99486,-1.72974,-0.82965,0.48680,"[0.000, 1.000, 0.000, 1.000, 0.000, 1.000]",0.000,0.000,1.000,1.000,0.000,0.000,1.000,1.000,0.000,0.000,1.000,1.000
0.4950,0.99668,0.99447,0.99475,1.72259,0.77160,-0.43516,-0.01098,-0.02535,-0.02253,-8.90416,8.96273,10.41458,0.00000,0.00000,0.00000,0.00000,0.00000,0.00000,-0.99668,-0.99447,-0.99475,-1.72259,-0.77160,0.43516,"[0.000, 1.000, 0.000, 1.000, 0.000, 1.000]",0.000,0.000,1.000,1.000,0.000,0.000,1.000,1.000,0.000,0.000,1.000,1.000
0.5000,0.99663,0.99435,0.99464,1.71171,0.71320,-0.38496,-0.01108,-0.02553,-0.02291,-9.02258,9.08197,10.53349,0.00000,0.00000,0.00000,0.00000,0.00000,0.00000,-0.99663,-0.99435,-0.99464,-1.71171,-0.71320,0.38496,"[0.000, 1.000, 1.000, 0.000, 0.000, 1.000]",0.000,0.000,1.000,1.000,1.000,1.000,0.000,0.000,0.000,0.000,1.000,1.000
0.5050,0.99657,0.99422,0.99452,1.69746,0.65461,-0.33564,-0.01116,-0.02573,-0.02328,-9.14100,9.20121,10.65239,0.00000,0.00000,0.00000,0.00000,0.00000,0.00000,-0.99657,-0.99422,-0.99452,-1.69746,-0.65461,0.33564,"[0.000, 1.000, 1.000, 0.000, 0.000, 1.000]",0.000,0.000,1.000,1.000,1.000,1.000,0.000,0.000,0.000,0.000,1.000,1.000
0.5100,0.99652,0.99409,0.99440,1.68009,0.59596,-0.28672,-0.01120,-0.02595,-0.02366,-9.25942,9.32045,10.77129,0.00000,0.00000,0.00000,0.00000,0.00000,0.00000,-0.99652,-0.99409,-0.99440,-1.68009,-0.59596,0.28672,"[0.000, 1.000, 1.000, 0.000, 0.000, 1.000]",0.000,0.000,1.000,1.000,1.000,1.000,0.000,0.000,0.000,0.000,1.000,1.000
0.5150,0.99646,0.99396,0.99428,1.65977,0.53742,-0.23776,-0.01121,-0.02617,-0.02403,-9.37784,9.43969,10.89019,0.00000,0.00000,0.00000,0.00000,0.00000,0.00000,-0.99646,-0.99396,-0.99428,-1.65977,-0.53742,0.23776,"[0.000, 1.000, 1.000, 0.000, 0.000, 1.000]",0.000,0.000,1.000,1.000,1.000,1.000,0.000,0.000,0.000,0.000,1.000,1.000
0.5200,0.99641,0.99383,0.99416,1.63660,0.47916,-0.18841,-0.01119,-0.02641,-0.02439,-9.49626,9.55893,11.00909,0.00000,0.00000,0.00000,0.00000,0.00000,0.00000,-0.99641,-0.99383,-0.99416,-1.63660,-0.47916,0.18841,"[0.000, 1.000, 1.000, 0.000, 0.000, 1.000]",0.000,0.000,1.000,1.000,1.000,1.000,0.000,0.000,0.000,0.000,1.000,1.000
0.5250,0.99635,0.99370,0.99404,1.61061,0.42135,-0.13833,-0.01114,-0.02666,-0.02474,-9.61468,9.67817,11.12799,0.00000,0.00000,0.00000,0.00000,0.00000,0.00000,-0.99635,-0.99370,-0.99404,-1.61061,-0.42135,0.13833,"[0.000, 1.000, 1.000, 0.000, 0.000, 1.000]",0.000,0.000,1.000,1.000,1.000,1.000,0.000,0.000,0.000,0.000,1.000,1.000
0.5300,0.99629,0.99356,0.99392,1.58180,0.36418,-0.08719,-0.01105,-0.02691,-0.02508,-9.73310,9.79741,11.24689,0.00000,0.00000,0.00000,0.00000,0.00000,0.00000,-0.99629,-0.99356,-0.99392,-1.58180,-0.36418,0.08719,"[0.000, 1.000, 1.000, 0.000, 0.000, 1.000]",0.000,0.000,1.000,1.000,1.000,1.000,0.000,0.000,0.000,0.000,1.000,1.000
0.5350,0.99624,0.99343,0.99379,1.55013,0.30788,-0.03471,-0.01093,-0.02717,-0.02540,-9.85152,9.91665,11.36579,0.00000,0.00000,0.00000,0.00000,0.00000,0.00000,-0.99624,-0.99343,-0.99379,-1.55013,-0.30788,0.03471,"[0.000, 1.000, 1.000, 0.000, 0.000, 1.000]",0.000,0.000,1.000,1.000,1.000,1.000,0.000,0.000,0.000,0.000,1.000,1.000
0.5400,0.99618,0.99329,0.99366,1.51553,0.25268,0.01940,-0.01078,-0.02743,-0.02571,-9.96994,10.03589,11.48469,0.00000,0.00000,0.00000,0.00000,0.00000,0.00000,-0.99618,-0.99329,-0.99366,-1.51553,-0.25268,-0.01940,"[0.000, 1.000, 1.000, 0.000, 0.000, 1.000]",0.000,0.000,1.000,1.000,1.000,1.000,0.000,0.000,0.000,0.000,1.000,1.000
0.5450,0.99613,0.99315,0.99353,1.47791,0.19885,0.07542,-0.01059,-0.02769,-0.02600,-10.08836,10.15513,11.60359,0.00000,0.00000,0.00000,0.00000,0.00000,0.00000,-0.99613,-0.99315,-0.99353,-1.47791,-0.19885,-0.07542,"[0.000, 1.000, 1.000, 0.000, 0.000, 1.000]",0.000,0.000,1.000,1.000,1.000,1.000,0.000,0.000,0.000,0.000,1.000,1.000
0.5500,0.99608,0.99301,0.99340,1.43716,0.14667,0.13362,-0.01086,-0.02799,-0.02617,-10.20683,10.27448,11.72249,0.00000,0.00000,0.00000,0.00000,0.00000,0.00000,-0.99608,-0.99301,-0.99340,-1.43716,-0.14667,-0.13362,"[1.000, 0.000, 1.000, 0.000, 0.000, 1.000]",1.000,1.000,0.000,0.000,1.000,1.000,0.000,0.000,0.000,0.000,1.000,1.000
0.5550,0.99602,0.99287,0.99327,1.39315,0.09647,0.19423,-0.01109,-0.02830,-0.02635,-10.32530,10.39383,11.84139,0.00000,0.00000,0.00000,0.00000,0.00000,0.00000,-0.99602,-0.99287,-0.99327,-1.39315,-0.09647,-0.19423,"[1.000, 0.000, 1.000, 0.000, 0.000, 1.000]",1.000,1.000,0.000,0.000,1.000,1.000,0.000,0.000,0.000,0.000,1.000,1.000
0.5600,0.99597,0.99273,0.99314,1.34579,0.04861,0.25749,-0.01130,-0.02864,-0.02653,-10.44377,10.51317,11.96029,0.00000,0.00000,0.00000,0.00000,0.00000,0.00000,-0.99597,-0.99273,-0.99314,-1.34579,-0.04861,-0.25749,"[1.000, 0.000, 1.000, 0.000, 0.000, 1.000]",1.000,1.000,0.000,0.000,1.000,1.000,0.000,0.000,0.000,0.000,1.000,1.000
0.5650,0.99591,0.99259,0.99300,1.29497,0.00347,0.32361,-0.01148,-0.02899,-0.02670,-10.56223,10.63252,12.07919,0.00000,0.00000,0.00000,0.00000,0.00000,0.00000,-0.99591,-0.99259,-0.99300,-1.29497,-0.00347,-0.32361,"[1.000, 0.000, 1.000, 0.000, 0.000, 1.000]",1.000,1.000,0.000,0.000,1.000,1.000,0.000,0.000,0.000,0.000,1.000,1.000
0.5700,0.99585,0.99244,0.99287,1.24062,-0.03852,0.39274,-0.01162,-0.02937,-0.02687,-10.68070,10.75187,12.19809,0.00000,0.00000,0.00000,0.00000,0.00000,0.00000,-0.99585,-0.99244,-0.99287,-1.24062,0.03852,-0.39274,"[1.000, 0.000, 1.000, 0.000, 0.000, 1.000]",1.000,1.000,0.000,0.000,1.000,1.000,0.000,0.000,0.000,0.000,1.000,1.000
0.5750,0.99579,0.99229,0.99274,1.18272,-0.07691,0.46500,-0.01172,-0.02975,-0.02704,-10.79917,10.87122,12.31699,0.00000,0.00000,0.00000,0.00000,0.00000,0.00000,-0.99579,-0.99229,-0.99274,-1.18272,0.07691,-0.46500,"[1.000, 0.000, 1.000, 0.000, 0.000, 1.000]",1.000,1.000,0.000,0.000,1.000,1.000,0.000,0.000,0.000,0.000,1.000,1.000
0.5800,0.99574,0.99214,0.99260,1.12131,-0.11123,0.54041,-0.01179,-0.03015,-0.02719,-10.91763,10.99057,12.43589,0.00000,0.00000,0.00000,0.00000,0.00000,0.00000,-0.99574,-0.99214,-0.99260,-1.12131,0.11123,-0.54041,"[1.000, 0.000, 1.000, 0.000, 0.000, 1.000]",1.000,1.000,0.000,0.000,1.000,1.000,0.000,0.000,0.000,0.000,1.000,1.000
0.5850,0.99568,0.99199,0.99246,1.05651,-0.14100,0.61894,-0.01182,-0.03056,-0.02734,-11.03610,11.10992,12.55479,0.00000,0.00000,0.00000,0.00000,0.00000,0.00000,-0.99568,-0.99199,-0.99246,-1.05651,0.14100,-0.61894,"[1.000, 0.000, 1.000, 0.000, 0.000, 1.000]",1.000,1.000,0.000,0.000,1.000,1.000,0.000,0.000,0.000,0.000,1.000,1.000
0.5900,0.99562,0.99184,0.99233,0.98855,-0.16573,0.70042,-0.01181,-0.03097,-0.02747,-11.15457,11.22926,12.67369,0.00000,0.00000,0.00000,0.00000,0.00000,0.00000,-0.99562,-0.99184,-0.99233,-0.98855,0.16573,-0.70042,"[1.000, 0.000, 1.000, 0.000, 0.000, 1.000]",1.000,1.000,0.000,0.000,1.000,1.000,0.000,0.000,0.000,0.000,1.000,1.000
0.5950,0.99556,0.99168,0.99219,0.91775,-0.18495,0.78458,-0.01177,-0.03139,-0.02758,-11.27303,11.34861,12.79259,0.00000,0.00000,0.00000,0.00000,0.00000,0.00000,-0.99556,-0.99168,-0.99219,-0.91775,0.18495,-0.78458,"[1.000, 0.000, 1.000, 0.000, 0.000, 1.000]",1.000,1.000,0.000,0.000,1.000,1.000,0.000,0.000,0.000,0.000,1.000,1.000
0.6000,0.99550,0.99152,0.99205,0.84458,-0.19824,0.87105,-0.01193,-0.03148,-0.02797,-11.39150,11.46796,12.91149,0.00000,0.00000,0.00000,0.00000,0.00000,0.00000,-0.99550,-0.99152,-0.99205,-0.84458,0.19824,-0.87105,"[1.000, 0.000, 1.000, 0.000, 1.000, 0.000]",1.000,1.000,0.000,0.000,1.000,1.000,0.000,0.000,1.000,1.000,0.000,0.000
0.6050,0.99544,0.99137,0.99191,0.76960,-0.20522,0.95931,-0.01206,-0.03160,-0.02836,-11.50997,11.58731,13.03039,0.00000,0.00000,0.00000,0.00000,0.00000,0.00000,-0.99544,-0.99137,-0.99191,-0.76960,0.20522,-0.95931,"[1.000, 0.000, 1.000, 0.000, 1.000, 0.000]",1.000,1.000,0.000,0.000,1.000,1.000,0.000,0.000,1.000,1.000,0.000,0.000
0.6100,0.99538,0.99121,0.99177,0.69345,-0.20561,1.04878,-0.01215,-0.03175,-0.02876,-11.62844,11.70666,13.14929,0.00000,0.00000,0.00000,0.00000,0.00000,0.00000,-0.99538,-0.99121,-0.99177,-0.69345,0.20561,-1.04878,"[1.000, 0.000, 1.000, 0.000, 1.000, 0.000]",1.000,1.000,0.000,0.000,1.000,1.000,0.000,0.000,1.000,1.000,0.000,0.000
0.6150,0.99532,0.99105,0.99162,0.61686,-0.19919,1.13883,-0.01221,-0.03191,-0.02916,-11.74690,11.82601,13.26819,0.00000,0.00000,0.00000,0.00000,0.00000,0.00000,-0.99532,-0.99105,-0.99162,-0.61686,0.19919,-1.13883,"[1.000, 0.000, 1.000, 0.000, 1.000, 0.000]",1.000,1.000,0.000,0.000,1.000,1.000,0.000,0.000,1.000,1.000,0.000,0.000
0.6200,0.99526,0.99089,0.99148,0.54057,-0.18588,1.22877,-0.01223,-0.03210,-0.02955,-11.86537,11.94536,13.38709,0.00000,0.00000,0.00000,0.00000,0.00000,0.00000,-0.99526,-0.99089,-0.99148,-0.54057,0.18588,-1.22877,"[1.000, 0.000, 1.000, 0.000, 1.000, 0.000]",1.000,1.000,0.000,0.000,1.000,1.000,0.000,0.000,1.000,1.000,0.000,0.000
0.6250,0.99520,0.99073,0.99133,0.46529,-0.16569,1.31797,-0.01221,-0.03230,-0.02993,-11.98384,12.06471,13.50599,0.00000,0.00000,0.00000,0.00000,0.00000,0.00000,-0.99520,-0.99073,-0.99133,-0.46529,0.16569,-1.31797,"[1.000, 0.000, 1.000, 0.000, 1.000, 0.000]",1.000,1.000,0.000,0.000,1.000,1.000,0.000,0.000,1.000,1.000,0.000,0.000
0.6300,0.99513,0.99057,0.99118,0.39170,-0.13871,1.40585,-0.01215,-0.03251,-0.03030,-12.10230,12.18405,13.62489,0.00000,0.00000,0.00000,0.00000,0.00000,0.00000,-0.99513,-0.99057,-0.99118,-0.39170,0.13871,-1.40585,"[1.000, 0.000, 1.000, 0.000, 1.000, 0.000]",1.000,1.000,0.000,0.000,1.000,1.000,0.000,0.000,1.000,1.000,0.000,0.000
0.6350,0.99507,0.99040,0.99102,0.32037,-0.10517,1.49194,-0.01205,-0.03273,-0.03066,-12.22077,12.30340,13.74379,0.00000,0.00000,0.00000,0.00000,0.00000,0.00000,-0.99507,-0.99040,-0.99102,-0.32037,0.10517,-1.49194,"[1.000, 0.000, 1.000, 0.000, 1.000, 0.000]",1.000,1.000,0.000,0.000,1.000,1.000,0.000,0.000,1.000,1.000,0.000,0.000
0.6400,0.99501,0.99024,0.99087,0.25178,-0.06532,1.57588,-0.01191,-0.03296,-0.03100,-12.33924,12.42275,13.86269,0.00000,0.00000,0.00000,0.00000,0.00000,0.00000,-0.99501,-0.99024,-0.99087,-0.25178,0.06532,-1.57588,"[1.000, 0.000, 1.000, 0.000, 1.000, 0.000]",1.000,1.000,0.000,0.000,1.000,1.000,0.000,0.000,1.000,1.000,0.000,0.000
0.6450,0.99496,0.99007,0.99071,0.18628,-0.01951,1.65745,-0.01173,-0.03319,-0.03132,-12.45771,12.54210,13.98159,0.00000,0.00000,0.00000,0.00000,0.00000,0.00000,-0.99496,-0.99007,-0.99071,-0.18628,0.01951,-1.65745,"[1.000, 0.000, 1.000, 0.000, 1.000, 0.000]",1.000,1.000,0.000,0.000,1.000,1.000,0.000,0.000,1.000,1.000,0.000,0.000
