Step,MPC_Start_Time,Control_Time,Actual_Time_Interval,CONTROL_DT,Mission_Phase,Waypoint_Number,Telemetry_X_mm,Telemetry_Y_mm,Telemetry_Z_mm,Telemetry_Roll_deg,Telemetry_Pitch_deg,Telemetry_Yaw_deg,Current_X,Current_Y,Current_Z,Current_Roll,Current_Pitch,Current_Yaw,Current_VX,Current_VY,Current_VZ,Current_WX,Current_WY,Current_WZ,Target_X,Target_Y,Target_Z,Target_Roll,Target_Pitch,Target_Yaw,Target_VX,Target_VY,Target_VZ,Target_WX,Target_WY,Target_WZ,Error_X,Error_Y,Error_Z,Error_Roll,Error_Pitch,Error_Yaw,Error_VX,Error_VY,Error_VZ,Error_WX,Error_WY,Error_WZ,MPC_Computation_Time,MPC_Status,MPC_Solver,MPC_Solver_Time_Limit,MPC_Solve_Time,MPC_Time_Limit_Exceeded,MPC_Fallback_Used,MPC_Objective,MPC_Iterations,MPC_Optimality_Gap,Command_Vector,Command_Hex,Command_Sent_Time,Total_Active_Thrusters,Thruster_Switches,RW_Torque_X,RW_Torque_Y,RW_Torque_Z,Total_MPC_Loop_Time,Timing_Violation
0,0.0450,0.0450,0.0500,0.050,APPROACHING,0,1000.00,1000.00,1000.00,0.00,0.00,90.00,1.00000,1.00000,1.00000,0.00000,0.00000,1.57080,0.00000,0.00000,0.00000,0.00000,0.00000,0.00000,0.00000,0.00000,0.00000,0.00000,0.00000,0.00000,0.00000,0.00000,0.00000,0.00000,0.00000,0.00000,1.00000,1.00000,1.00000,0.00000,0.00000,-1.57080,0.00000,0.00000,0.00000,0.00000,0.00000,0.00000,0.0000,,,,0.0423,,,,,,"[0.000, 0.000, 0.000, 0.000, 0.000, 0.000]",0x000000,0.0450,0,0,0.000000,0.000000,0.000000,0.0000,NO
1,0.0950,0.0950,0.0500,0.050,APPROACHING,0,1000.00,1000.00,1000.00,0.00,0.00,90.00,1.00000,1.00000,1.00000,0.00000,0.00000,1.57080,0.00000,0.00000,0.00000,0.00000,0.00000,0.00000,0.00000,0.00000,0.00000,0.00000,0.00000,0.00000,0.00000,0.00000,0.00000,0.00000,0.00000,0.00000,1.00000,1.00000,1.00000,0.00000,0.00000,-1.57080,0.00000,0.00000,0.00000,0.00000,0.00000,0.00000,0.0000,,,,0.0423,,,,,,"[0.000, 0.000, 0.000, 0.000, 0.000, 0.000]",0x000000,0.0950,0,0,0.000000,0.000000,0.000000,0.0000,NO
2,0.1450,0.1450,0.0500,0.050,APPROACHING,0,1000.00,1000.00,1000.00,0.00,0.00,90.00,1.00000,1.00000,1.00000,0.00000,0.00000,1.57080,0.00000,0.00000,0.00000,0.00000,0.00000,0.00000,0.00000,0.00000,0.00000,0.00000,0.00000,0.00000,0.00000,0.00000,0.00000,0.00000,0.00000,0.00000,1.00000,1.00000,1.00000,0.00000,0.00000,-1.57080,0.00000,0.00000,0.00000,0.00000,0.00000,0.00000,0.0000,,,,0.0421,,,,,,"[0.000, 0.000, 0.000, 0.000, 0.000, 0.000]",0x000000,0.1450,0,0,0.000000,0.000000,0.000000,0.0000,NO
3,0.1950,0.1950,0.0500,0.050,APPROACHING,0,1000.00,1000.00,1000.00,0.00,0.00,90.00,1.00000,1.00000,1.00000,0.00000,0.00000,1.57080,0.00000,0.00000,0.00000,0.00000,0.00000,0.00000,0.00000,0.00000,0.00000,0.00000,0.00000,0.00000,0.00000,0.00000,0.00000,0.00000,0.00000,0.00000,1.00000,1.00000,1.00000,0.00000,0.00000,-1.57080,0.00000,0.00000,0.00000,0.00000,0.00000,0.00000,0.0000,,,,0.0420,,,,,,"[0.000, 0.000, 0.000, 0.000, 0.000, 0.000]",0x000000,0.1950,0,0,0.000000,0.000000,0.000000,0.0000,NO
4,0.2450,0.2450,0.0500,0.050,APPROACHING,0,1000.00,1000.00,1000.00,0.00,0.00,90.00,1.00000,1.00000,1.00000,0.00000,0.00000,1.57080,0.00000,0.00000,0.00000,0.00000,0.00000,0.00000,0.00000,0.00000,0.00000,0.00000,0.00000,0.00000,0.00000,0.00000,0.00000,0.00000,0.00000,0.00000,1.00000,1.00000,1.00000,0.00000,0.00000,-1.57080,0.00000,0.00000,0.00000,0.00000,0.00000,0.00000,0.0000,,,,0.0421,,,,,,"[0.000, 0.000, 0.000, 0.000, 0.000, 0.000]",0x000000,0.2450,0,0,0.000000,0.000000,0.000000,0.0000,NO
5,0.2950,0.2950,0.0500,0.050,APPROACHING,0,1000.00,1000.00,1000.00,0.00,0.00,90.00,1.00000,1.00000,1.00000,0.00000,0.00000,1.57080,0.00000,0.00000,0.00000,0.00000,0.00000,0.00000,0.00000,0.00000,0.00000,0.00000,0.00000,0.00000,0.00000,0.00000,0.00000,0.00000,0.00000,0.00000,1.00000,1.00000,1.00000,0.00000,0.00000,-1.57080,0.00000,0.00000,0.00000,0.00000,0.00000,0.00000,0.0000,,,,0.0421,,,,,,"[0.000, 0.000, 0.000, 0.000, 0.000, 0.000]",0x000000,0.2950,0,0,0.000000,0.000000,0.000000,0.0000,NO
6,0.3450,0.3450,0.0500,0.050,APPROACHING,0,1000.00,1000.00,1000.00,0.00,0.00,90.00,1.00000,1.00000,1.00000,0.00000,0.00000,1.57080,0.00000,0.00000,0.00000,0.00000,0.00000,0.00000,0.00000,0.00000,0.00000,0.00000,0.00000,0.00000,0.00000,0.00000,0.00000,0.00000,0.00000,0.00000,1.00000,1.00000,1.00000,0.00000,0.00000,-1.57080,0.00000,0.00000,0.00000,0.00000,0.00000,0.00000,0.0000,,,,0.0420,,,,,,"[0.000, 0.000, 0.000, 0.000, 0.000, 0.000]",0x000000,0.3450,0,0,0.000000,0.000000,0.000000,0.0000,NO
7,0.3950,0.3950,0.0500,0.050,APPROACHING,0,1000.00,1000.00,1000.00,0.00,0.00,90.00,1.00000,1.00000,1.00000,0.00000,0.00000,1.57080,0.00000,0.00000,0.00000,0.00000,0.00000,0.00000,0.00000,0.00000,0.00000,0.00000,0.00000,0.00000,0.00000,0.00000,0.00000,0.00000,0.00000,0.00000,1.00000,1.00000,1.00000,0.00000,0.00000,-1.57080,0.00000,0.00000,0.00000,0.00000,0.00000,0.00000,0.0000,,,,0.0152,,,,,,"[1.000, 0.000, 0.000, 0.000, 1.000, 0.000]",0x100010,0.3950,2,2,-0.009659,0.009659,0.054708,0.0000,NO
8,0.4450,0.4450,0.0500,0.050,APPROACHING,0,1000.00,999.94,999.94,-0.01,0.01,90.05,1.00000,0.99994,0.99994,-0.00014,0.00014,1.57161,0.00000,-0.00250,-0.00250,-0.00574,0.00574,0.03253,0.00000,0.00000,0.00000,0.00000,0.00000,0.00000,0.00000,0.00000,0.00000,0.00000,0.00000,0.00000,1.00000,0.99994,0.99994,0.00014,-0.00014,-1.57161,-0.00000,0.00250,0.00250,0.00574,-0.00574,-0.03253,0.0000,,,,0.0420,,,,,,"[0.000, 0.000, 0.000, 0.000, 0.000, 0.000]",0x000000,0.4450,0,2,0.000000,0.000000,0.000000,0.0000,NO
9,0.4950,0.4950,0.0500,0.050,APPROACHING,0,1000.00,999.81,999.81,-0.02,0.02,90.14,1.00000,0.99981,0.99981,-0.00043,0.00043,1.57324,0.00000,-0.00250,-0.00250,-0.00574,0.00574,0.03253,0.00000,0.00000,0.00000,0.00000,0.00000,0.00000,0.00000,0.00000,0.00000,0.00000,0.00000,0.00000,1.00000,0.99981,0.99981,0.00043,-0.00043,-1.57324,-0.00000,0.00250,0.00250,0.00574,-0.00574,-0.03253,0.0000,,,,0.0420,,,,,,"[0.000, 0.000, 0.000, 0.000, 0.000, 0.000]",0x000000,0.4950,0,0,0.000000,0.000000,0.000000,0.0000,NO
10,0.5450,0.5450,0.0500,0.050,APPROACHING,0,1000.00,999.69,999.69,-0.04,0.04,90.23,1.00000,0.99969,0.99969,-0.00072,0.00072,1.57486,0.00000,-0.00250,-0.00250,-0.00574,0.00574,0.03253,0.00000,0.00000,0.00000,0.00000,0.00000,0.00000,0.00000,0.00000,0.00000,0.00000,0.00000,0.00000,1.00000,0.99969,0.99969,0.00072,-0.00072,-1.57486,-0.00000,0.00250,0.00250,0.00574,-0.00574,-0.03253,0.0000,,,,0.0324,,,,,,"[0.998, 0.000, 0.000, 0.000, 0.998, 0.000]",0x100010,0.5450,2,2,-0.026936,0.026898,0.152461,0.0000,NO
11,0.5950,0.5950,0.0500,0.050,APPROACHING,0,1000.00,999.50,999.50,-0.08,0.08,90.46,1.00000,0.99950,0.99950,-0.00140,0.00141,1.57875,0.00002,-0.00500,-0.00500,-0.02176,0.02173,0.12317,0.00000,0.00000,0.00000,0.00000,0.00000,0.00000,0.00000,0.00000,0.00000,0.00000,0.00000,0.00000,1.00000,0.99950,0.99950,0.00140,-0.00141,-1.57875,-0.00002,0.00500,0.00500,0.02176,-0.02173,-0.12317,0.0000,,,,0.0420,,,,,,"[0.000, 0.000, 0.000, 0.000, 0.000, 0.000]",0x000000,0.5950,0,2,0.000000,0.000000,0.000000,0.0000,NO
12,0.6450,0.6450,0.0500,0.050,APPROACHING,0,1000.00,999.25,999.25,-0.14,0.14,90.81,1.00000,0.99925,0.99925,-0.00248,0.00251,1.58491,0.00002,-0.00500,-0.00500,-0.02176,0.02173,0.12317,0.00000,0.00000,0.00000,0.00000,0.00000,0.00000,0.00000,0.00000,0.00000,0.00000,0.00000,0.00000,1.00000,0.99925,0.99925,0.00248,-0.00251,-1.58491,-0.00002,0.00500,0.00500,0.02176,-0.02173,-0.12317,0.0000,,,,0.0420,,,,,,"[0.000, 0.000, 0.000, 0.000, 0.000, 0.000]",0x000000,0.6450,0,0,0.000000,0.000000,0.000000,0.0000,NO
13,0.6950,0.6950,0.0500,0.050,APPROACHING,0,1000.00,999.00,999.00,-0.20,0.21,91.16,1.00000,0.99900,0.99900,-0.00354,0.00361,1.59106,0.00002,-0.00500,-0.00500,-0.02176,0.02173,0.12317,0.00000,0.00000,0.00000,0.00000,0.00000,0.00000,0.00000,0.00000,0.00000,0.00000,0.00000,0.00000,1.00000,0.99900,0.99900,0.00354,-0.00361,-1.59106,-0.00002,0.00500,0.00500,0.02176,-0.02173,-0.12317,0.0000,,,,0.0363,,,,,,"[0.998, 0.000, 0.000, 0.000, 0.998, 0.000]",0x100010,0.6950,2,2,-0.075166,0.074909,0.425019,0.0000,NO
14,0.7450,0.7450,0.0500,0.050,APPROACHING,0,1000.00,998.69,998.69,-0.33,0.34,91.88,1.00000,0.99869,0.99869,-0.00569,0.00587,1.60353,0.00009,-0.00751,-0.00749,-0.06644,0.06627,0.37586,0.00000,0.00000,0.00000,0.00000,0.00000,0.00000,0.00000,0.00000,0.00000,0.00000,0.00000,0.00000,1.00000,0.99869,0.99869,0.00569,-0.00587,-1.60353,-0.00009,0.00751,0.00749,0.06644,-0.06627,-0.37586,0.0000,,,,0.0420,,,,,,"[0.000, 0.000, 0.000, 0.000, 0.000, 0.000]",0x000000,0.7450,0,2,0.000000,0.000000,0.000000,0.0000,NO
15,0.7950,0.7950,0.0500,0.050,APPROACHING,0,1000.01,998.31,998.31,-0.51,0.53,92.95,1.00001,0.99831,0.99831,-0.00887,0.00932,1.62230,0.00009,-0.00751,-0.00749,-0.06644,0.06627,0.37586,0.00000,0.00000,0.00000,0.00000,0.00000,0.00000,0.00000,0.00000,0.00000,0.00000,0.00000,0.00000,1.00001,0.99831,0.99831,0.00887,-0.00932,-1.62230,-0.00009,0.00751,0.00749,0.06644,-0.06627,-0.37586,0.0000,,,,0.0421,,,,,,"[0.000, 0.000, 0.000, 0.000, 0.000, 0.000]",0x000000,0.7950,0,0,0.000000,0.000000,0.000000,0.0000,NO
16,0.8450,0.8450,0.0500,0.050,APPROACHING,0,1000.01,997.94,997.94,-0.69,0.74,94.03,1.00001,0.99794,0.99794,-0.01198,0.01283,1.64106,0.00009,-0.00751,-0.00749,-0.06644,0.06627,0.37586,0.00000,0.00000,0.00000,0.00000,0.00000,0.00000,0.00000,0.00000,0.00000,0.00000,0.00000,0.00000,1.00001,0.99794,0.99794,0.01198,-0.01283,-1.64106,-0.00009,0.00751,0.00749,0.06644,-0.06627,-0.37586,0.0000,,,,0.0420,,,,,,"[0.000, 0.000, 0.000, 0.000, 0.000, 0.000]",0x000000,0.8450,0,0,0.000000,0.000000,0.000000,0.0000,NO
17,0.8950,0.8950,0.0500,0.050,APPROACHING,0,1000.02,997.56,997.57,-0.86,0.94,95.10,1.00002,0.99756,0.99757,-0.01503,0.01640,1.65981,0.00009,-0.00751,-0.00749,-0.06644,0.06627,0.37586,0.00000,0.00000,0.00000,0.00000,0.00000,0.00000,0.00000,0.00000,0.00000,0.00000,0.00000,0.00000,1.00002,0.99756,0.99757,0.01503,-0.01640,-1.65981,-0.00009,0.00751,0.00749,0.06644,-0.06627,-0.37586,0.0000,,,,0.0237,,,,,,"[0.998, 0.000, 0.000, 0.000, 0.998, 0.000]",0x100010,0.8950,2,2,-0.209992,0.208611,1.185447,0.0000,NO
18,0.9450,0.9450,0.0500,0.050,APPROACHING,0,1000.03,997.12,997.13,-1.19,1.34,97.18,1.00003,0.99712,0.99713,-0.02075,0.02346,1.69610,0.00039,-0.01004,-0.00994,-0.19129,0.19030,1.08064,0.00000,0.00000,0.00000,0.00000,0.00000,0.00000,0.00000,0.00000,0.00000,0.00000,0.00000,0.00000,1.00003,0.99712,0.99713,0.02075,-0.02346,-1.69610,-0.00039,0.01004,0.00994,0.19129,-0.19030,-1.08064,0.0000,,,,0.0234,,,,,,"[1.000, 0.000, 0.001, 0.000, 1.000, 0.000]",0x100010,0.9450,2,0,-0.585133,0.580933,2.000000,0.0000,NO
19,0.9950,0.9950,0.0500,0.050,APPROACHING,0,1000.06,996.56,996.57,-2.08,2.52,101.95,1.00006,0.99656,0.99657,-0.03624,0.04398,1.77936,0.00086,-0.01257,-0.01236,-0.53880,0.53605,2.26970,0.00000,0.00000,0.00000,0.00000,0.00000,0.00000,0.00000,0.00000,0.00000,0.00000,0.00000,0.00000,1.00006,0.99656,0.99657,0.03624,-0.04398,-1.77936,-0.00086,0.01257,0.01236,0.53880,-0.53605,-2.26970,0.0000,,,,0.0085,,,,,,"[1.000, 0.000, 0.000, 0.000, 1.000, 0.000]",0x100010,0.9950,2,0,-1.629357,1.618857,2.000000,0.0000,NO
20,1.0450,1.0450,0.0500,0.050,APPROACHING,0,1000.12,995.86,995.90,-4.44,5.89,110.00,1.00012,0.99586,0.99590,-0.07741,0.10276,1.91980,0.00169,-0.01510,-0.01468,-1.50362,1.50239,3.45876,0.00000,0.00000,0.00000,0.00000,0.00000,0.00000,0.00000,0.00000,0.00000,0.00000,0.00000,0.00000,1.00012,0.99586,0.99590,0.07741,-0.10276,-1.91980,-0.00169,0.01510,0.01468,1.50362,-1.50239,-3.45876,0.0000,,,,0.0196,,,,,,"[1.000, 0.000, 0.000, 0.000, 1.000, 0.000]",0x100010,1.0450,2,0,-2.000000,2.000000,2.000000,0.0000,NO
21,1.0950,1.0950,0.0500,0.050,APPROACHING,0,1000.24,995.05,995.11,-8.66,13.18,120.99,1.00024,0.99505,0.99511,-0.15118,0.23004,2.11166,0.00313,-0.01757,-0.01676,-2.68684,2.69723,4.64785,0.00000,0.00000,0.00000,0.00000,0.00000,0.00000,0.00000,0.00000,0.00000,0.00000,0.00000,0.00000,1.00024,0.99505,0.99511,0.15118,-0.23004,-2.11166,-0.00313,0.01757,0.01676,2.68684,-2.69723,-4.64785,0.0000,,,,0.0272,,,,,,"[1.000, 0.000, 0.000, 0.000, 1.000, 0.000]",0x100010,1.0950,2,0,-2.000000,2.000000,2.000000,0.0000,NO
22,1.1450,1.1450,0.0500,0.050,APPROACHING,0,1000.45,994.11,994.23,-13.61,25.36,134.64,1.00045,0.99411,0.99423,-0.23752,0.44265,2.34984,0.00539,-0.01978,-0.01830,-3.87006,3.89208,5.83693,0.00000,0.00000,0.00000,0.00000,0.00000,0.00000,0.00000,0.00000,0.00000,0.00000,0.00000,0.00000,1.00045,0.99411,0.99423,0.23752,-0.44265,-2.34984,-0.00539,0.01978,0.01830,3.87006,-3.89208,-5.83693,0.0000,,,,0.0394,,,,,,"[0.000, 0.000, 0.000, 0.000, 1.000, 0.000]",0x000010,1.1450,1,1,-2.000000,2.000000,2.000000,0.0000,NO
23,1.1950,1.1950,0.0500,0.050,APPROACHING,0,1000.75,993.11,993.26,-16.73,42.69,151.96,1.00075,0.99311,0.99326,-0.29199,0.74503,2.65217,0.00682,-0.02004,-0.02032,-5.05328,5.08693,7.02599,0.00000,0.00000,0.00000,0.00000,0.00000,0.00000,0.00000,0.00000,0.00000,0.00000,0.00000,0.00000,1.00075,0.99311,0.99326,0.29199,-0.74503,-2.65217,-0.00682,0.02004,0.02032,5.05328,-5.08693,-7.02599,0.0000,,,,0.0434,,,,,,"[0.000, 0.000, 0.000, 0.000, 0.000, 0.000]",0x000000,1.1950,0,1,0.000000,0.000000,0.000000,0.0000,NO
24,1.2450,1.2450,0.0500,0.050,APPROACHING,0,1001.09,992.11,992.24,-10.07,61.93,178.42,1.00109,0.99211,0.99224,-0.17570,1.08086,3.11396,0.00682,-0.02004,-0.02032,-5.05328,5.08693,7.02599,0.00000,0.00000,0.00000,0.00000,0.00000,0.00000,0.00000,0.00000,0.00000,0.00000,0.00000,0.00000,1.00109,0.99211,0.99224,0.17570,-1.08086,-3.11396,-0.00682,0.02004,0.02032,5.05328,-5.08693,-7.02599,0.0000,,,,0.0141,,,,,,"[0.000, 0.000, 0.006, 0.000, 0.000, 0.000]",0x000000,1.2450,0,0,-2.000000,2.000000,2.000000,0.0000,NO
25,1.2950,1.2950,0.0500,0.050,APPROACHING,0,1001.43,991.11,991.23,40.80,73.96,-110.43,1.00143,0.99111,0.99123,0.71213,1.29079,-1.92733,0.00682,-0.02004,-0.02032,-6.23651,6.28179,8.21505,0.00000,0.00000,0.00000,0.00000,0.00000,0.00000,0.00000,0.00000,0.00000,0.00000,0.00000,0.00000,1.00143,0.99111,0.99123,-0.71213,-1.29079,1.92733,-0.00682,0.02004,0.02032,6.23651,-6.28179,-8.21505,0.0000,,,,0.0434,,,,,,"[0.000, 0.000, 0.000, 0.000, 0.000, 0.000]",0x000000,1.2950,0,0,0.000000,0.000000,0.000000,0.0000,NO
26,1.3450,1.3450,0.0500,0.050,APPROACHING,0,1001.77,990.11,990.21,86.80,58.22,-41.95,1.00177,0.99011,0.99021,1.51490,1.01606,-0.73210,0.00682,-0.02004,-0.02032,-6.23651,6.28179,8.21505,0.00000,0.00000,0.00000,0.00000,0.00000,0.00000,0.00000,0.00000,0.00000,0.00000,0.00000,0.00000,1.00177,0.99011,0.99021,-1.51490,-1.01606,0.73210,-0.00682,0.02004,0.02032,6.23651,-6.28179,-8.21505,0.0000,,,,0.0328,,,,,,"[0.000, 0.000, 1.000, 0.000, 0.000, 0.000]",0x001000,1.3450,1,1,-2.000000,2.000000,2.000000,0.0000,NO
27,1.3950,1.3950,0.0500,0.050,APPROACHING,0,1002.07,989.13,989.16,88.50,33.23,-12.50,1.00207,0.98913,0.98916,1.54461,0.57998,-0.21818,0.00522,-0.01920,-0.02201,-7.41975,7.47666,9.40409,0.00000,0.00000,0.00000,0.00000,0.00000,0.00000,0.00000,0.00000,0.00000,0.00000,0.00000,0.00000,1.00207,0.98913,0.98916,-1.54461,-0.57998,0.21818,-0.00522,0.01920,0.02201,7.41975,-7.47666,-9.40409,0.0000,,,,0.0435,,,,,,"[0.000, 0.000, 0.000, 0.000, 0.000, 0.000]",0x000000,1.3950,0,1,0.000000,0.000000,0.000000,0.0000,NO
28,1.4450,1.4450,0.0500,0.050,APPROACHING,0,1002.33,988.17,988.06,76.41,9.02,13.74,1.00233,0.98817,0.98806,1.33353,0.15748,0.23975,0.00522,-0.01920,-0.02201,-7.41975,7.47666,9.40409,0.00000,0.00000,0.00000,0.00000,0.00000,0.00000,0.00000,0.00000,0.00000,0.00000,0.00000,0.00000,1.00233,0.98817,0.98806,-1.33353,-0.15748,-0.23975,-0.00522,0.01920,0.02201,7.41975,-7.47666,-9.40409,0.0000,,,,0.0439,,,,,,"[0.000, 0.000, 0.000, 0.000, 0.000, 0.000]",0x000000,1.4450,0,0,0.000000,0.000000,0.000000,0.0000,NO
29,1.4950,1.4950,0.0500,0.050,APPROACHING,0,1002.60,987.21,986.96,55.04,-7.01,44.06,1.00260,0.98721,0.98696,0.96065,-0.12240,0.76906,0.00522,-0.01920,-0.02201,-7.41975,7.47666,9.40409,0.00000,0.00000,0.00000,0.00000,0.00000,0.00000,0.00000,0.00000,0.00000,0.00000,0.00000,0.00000,1.00260,0.98721,0.98696,-0.96065,0.12240,-0.76906,-0.00522,0.01920,0.02201,7.41975,-7.47666,-9.40409,0.0000,,,,0.0182,,,,,,"[1.000, 0.000, 1.000, 0.000, 1.000, 0.000]",0x101010,1.4950,3,3,-2.000000,2.000000,2.000000,0.0000,NO
30,1.5450,1.5450,0.0500,0.050,APPROACHING,0,1002.83,986.22,985.76,26.21,-8.16,80.92,1.00283,0.98622,0.98576,0.45740,-0.14242,1.41238,0.00445,-0.02083,-0.02585,-8.60299,8.67153,10.59312,0.00000,0.00000,0.00000,0.00000,0.00000,0.00000,0.00000,0.00000,0.00000,0.00000,0.00000,0.00000,1.00283,0.98622,0.98576,-0.45740,0.14242,-1.41238,-0.00445,0.02083,0.02585,8.60299,-8.67153,-10.59312,0.0000,,,,0.0438,,,,,,"[0.000, 0.000, 0.000, 0.000, 0.000, 0.000]",0x000000,1.5450,0,3,0.000000,0.000000,0.000000,0.0000,NO
31,1.5950,1.5950,0.0500,0.050,APPROACHING,0,1003.05,985.17,984.47,0.92,9.28,115.83,1.00305,0.98517,0.98447,0.01602,0.16197,2.02170,0.00445,-0.02083,-0.02585,-8.60299,8.67153,10.59312,0.00000,0.00000,0.00000,0.00000,0.00000,0.00000,0.00000,0.00000,0.00000,0.00000,0.00000,0.00000,1.00305,0.98517,0.98447,-0.01602,-0.16197,-2.02170,-0.00445,0.02083,0.02585,8.60299,-8.67153,-10.59312,0.0000,,,,0.0440,,,,,,"[0.000, 0.000, 0.000, 0.000, 0.000, 0.000]",0x000000,1.5950,0,0,0.000000,0.000000,0.000000,0.0000,NO
32,1.6450,1.6450,0.0500,0.050,APPROACHING,0,1003.27,984.13,983.18,-12.33,37.49,145.56,1.00327,0.98413,0.98318,-0.21524,0.65425,2.54047,0.00445,-0.02083,-0.02585,-8.60299,8.67153,10.59312,0.00000,0.00000,0.00000,0.00000,0.00000,0.00000,0.00000,0.00000,0.00000,0.00000,0.00000,0.00000,1.00327,0.98413,0.98318,0.21524,-0.65425,-2.54047,-0.00445,0.02083,0.02585,8.60299,-8.67153,-10.59312,0.0000,,,,0.0363,,,,,,"[0.000, 0.000, 0.000, 0.000, 1.000, 0.000]",0x000010,1.6450,1,1,-2.000000,2.000000,2.000000,0.0000,NO
33,1.6950,1.6950,0.0500,0.050,APPROACHING,0,1003.54,983.09,981.84,2.12,69.14,-164.95,1.00354,0.98309,0.98184,0.03703,1.20665,-2.87889,0.00640,-0.02089,-0.02734,-9.78624,9.86641,11.78214,0.00000,0.00000,0.00000,0.00000,0.00000,0.00000,0.00000,0.00000,0.00000,0.00000,0.00000,0.00000,1.00354,0.98309,0.98184,-0.03703,-1.20665,2.87889,-0.00640,0.02089,0.02734,9.78624,-9.86641,-11.78214,0.0000,,,,0.0443,,,,,,"[0.000, 0.000, 0.000, 0.000, 0.000, 0.000]",0x000000,1.6950,0,1,0.000000,0.000000,0.000000,0.0000,NO
34,1.7450,1.7450,0.0500,0.050,APPROACHING,0,1003.86,982.04,980.47,88.95,60.69,-43.80,1.00386,0.98204,0.98047,1.55248,1.05929,-0.76444,0.00640,-0.02089,-0.02734,-9.78624,9.86641,11.78214,0.00000,0.00000,0.00000,0.00000,0.00000,0.00000,0.00000,0.00000,0.00000,0.00000,0.00000,0.00000,1.00386,0.98204,0.98047,-1.55248,-1.05929,0.76444,-0.00640,0.02089,0.02734,9.78624,-9.86641,-11.78214,0.0000,,,,0.0441,,,,,,"[0.000, 0.000, 0.000, 0.000, 0.000, 0.000]",0x000000,1.7450,0,0,0.000000,0.000000,0.000000,0.0000,NO
35,1.7950,1.7950,0.0500,0.050,APPROACHING,0,1004.18,981.00,979.11,88.40,26.23,-4.39,1.00418,0.98100,0.97911,1.54281,0.45781,-0.07658,0.00640,-0.02089,-0.02734,-9.78624,9.86641,11.78214,0.00000,0.00000,0.00000,0.00000,0.00000,0.00000,0.00000,0.00000,0.00000,0.00000,0.00000,0.00000,1.00418,0.98100,0.97911,-1.54281,-0.45781,0.07658,-0.00640,0.02089,0.02734,9.78624,-9.86641,-11.78214,0.0000,,,,0.0446,,,,,,"[0.000, 0.000, 0.000, 0.000, 0.000, 0.000]",0x000000,1.7950,0,0,0.000000,0.000000,0.000000,0.0000,NO
36,1.8450,1.8450,0.0500,0.050,APPROACHING,0,1004.50,979.95,977.74,66.93,-1.31,30.60,1.00450,0.97995,0.97774,1.16807,-0.02281,0.53404,0.00640,-0.02089,-0.02734,-9.78624,9.86641,11.78214,0.00000,0.00000,0.00000,0.00000,0.00000,0.00000,0.00000,0.00000,0.00000,0.00000,0.00000,0.00000,1.00450,0.97995,0.97774,-1.16807,0.02281,-0.53404,-0.00640,0.02089,0.02734,9.78624,-9.86641,-11.78214,0.0000,,,,0.0444,,,,,,"[0.000, 0.000, 0.000, 0.000, 0.000, 0.000]",0x000000,1.8450,0,0,0.000000,0.000000,0.000000,0.0000,NO
37,1.8950,1.8950,0.0500,0.050,APPROACHING,0,1004.82,978.91,976.37,33.24,-9.36,73.64,1.00482,0.97891,0.97637,0.58007,-0.16333,1.28526,0.00640,-0.02089,-0.02734,-9.78624,9.86641,11.78214,0.00000,0.00000,0.00000,0.00000,0.00000,0.00000,0.00000,0.00000,0.00000,0.00000,0.00000,0.00000,1.00482,0.97891,0.97637,-0.58007,0.16333,-1.28526,-0.00640,0.02089,0.02734,9.78624,-9.86641,-11.78214,0.0000,,,,0.0357,,,,,,"[1.000, 0.000, 0.000, 0.000, 1.000, 0.000]",0x100010,1.8950,2,2,-2.000000,2.000000,2.000000,0.0000,NO
38,1.9450,1.9450,0.0500,0.050,APPROACHING,0,1005.11,977.81,974.94,1.70,9.20,115.76,1.00511,0.97781,0.97494,0.02966,0.16054,2.02039,0.00582,-0.02316,-0.02981,-10.96949,11.06129,12.97115,0.00000,0.00000,0.00000,0.00000,0.00000,0.00000,0.00000,0.00000,0.00000,0.00000,0.00000,0.00000,1.00511,0.97781,0.97494,-0.02966,-0.16054,-2.02039,-0.00582,0.02316,0.02981,10.96949,-11.06129,-12.97115,0.0000,,,,0.0451,,,,,,"[0.000, 0.000, 0.000, 0.000, 0.000, 0.000]",0x000000,1.9450,0,2,0.000000,0.000000,0.000000,0.0000,NO
39,1.9950,1.9950,0.0500,0.050,APPROACHING,0,1005.40,976.66,973.45,-13.37,45.45,152.78,1.00540,0.97666,0.97345,-0.23334,0.79333,2.66651,0.00582,-0.02316,-0.02981,-10.96949,11.06129,12.97115,0.00000,0.00000,0.00000,0.00000,0.00000,0.00000,0.00000,0.00000,0.00000,0.00000,0.00000,0.00000,1.00540,0.97666,0.97345,0.23334,-0.79333,-2.66651,-0.00582,0.02316,0.02981,10.96949,-11.06129,-12.97115,0.0000,,,,0.0450,,,,,,"[0.000, 0.000, 0.000, 0.000, 0.000, 0.000]",0x000000,1.9950,0,0,0.000000,0.000000,0.000000,0.0000,NO
40,2.0450,2.0450,0.0500,0.050,APPROACHING,0,1005.70,975.50,971.96,44.82,75.50,-109.63,1.00570,0.97550,0.97196,0.78231,1.31772,-1.91344,0.00582,-0.02316,-0.02981,-10.96949,11.06129,12.97115,0.00000,0.00000,0.00000,0.00000,0.00000,0.00000,0.00000,0.00000,0.00000,0.00000,0.00000,0.00000,1.00570,0.97550,0.97196,-0.78231,-1.31772,1.91344,-0.00582,0.02316,0.02981,10.96949,-11.06129,-12.97115,0.0000,,,,0.0450,,,,,,"[0.000, 0.000, 0.000, 0.000, 0.000, 0.000]",0x000000,2.0450,0,0,0.000000,0.000000,0.000000,0.0000,NO
41,2.0950,2.0950,0.0500,0.050,APPROACHING,0,1005.99,974.34,970.47,94.11,43.27,-20.62,1.00599,0.97434,0.97047,1.64247,0.75526,-0.35994,0.00582,-0.02316,-0.02981,-10.96949,11.06129,12.97115,0.00000,0.00000,0.00000,0.00000,0.00000,0.00000,0.00000,0.00000,0.00000,0.00000,0.00000,0.00000,1.00599,0.97434,0.97047,-1.64247,-0.75526,0.35994,-0.00582,0.02316,0.02981,10.96949,-11.06129,-12.97115,0.0000,,,,0.0451,,,,,,"[0.000, 0.000, 0.000, 0.000, 0.000, 0.000]",0x000000,2.0950,0,0,0.000000,0.000000,0.000000,0.0000,NO
42,2.1450,2.1450,0.0500,0.050,APPROACHING,0,1006.28,973.18,968.98,77.79,7.53,16.31,1.00628,0.97318,0.96898,1.35761,0.13144,0.28469,0.00582,-0.02316,-0.02981,-10.96949,11.06129,12.97115,0.00000,0.00000,0.00000,0.00000,0.00000,0.00000,0.00000,0.00000,0.00000,0.00000,0.00000,0.00000,1.00628,0.97318,0.96898,-1.35761,-0.13144,-0.28469,-0.00582,0.02316,0.02981,10.96949,-11.06129,-12.97115,0.0000,,,,0.0457,,,,,,"[0.000, 0.000, 0.000, 0.000, 0.000, 0.000]",0x000000,2.1450,0,0,0.000000,0.000000,0.000000,0.0000,NO
43,2.1950,2.1950,0.0500,0.050,APPROACHING,0,1006.57,972.02,967.49,43.33,-9.94,61.40,1.00657,0.97202,0.96749,0.75628,-0.17352,1.07161,0.00582,-0.02316,-0.02981,-10.96949,11.06129,12.97115,0.00000,0.00000,0.00000,0.00000,0.00000,0.00000,0.00000,0.00000,0.00000,0.00000,0.00000,0.00000,1.00657,0.97202,0.96749,-0.75628,0.17352,-1.07161,-0.00582,0.02316,0.02981,10.96949,-11.06129,-12.97115,0.0000,,,,0.0457,,,,,,"[0.000, 0.000, 0.000, 0.000, 0.000, 0.000]",0x000000,2.1950,0,0,0.000000,0.000000,0.000000,0.0000,NO
44,2.2450,2.2450,0.0500,0.050,APPROACHING,0,1006.86,970.87,966.00,7.10,3.47,107.86,1.00686,0.97087,0.96600,0.12384,0.06057,1.88252,0.00582,-0.02316,-0.02981,-10.96949,11.06129,12.97115,0.00000,0.00000,0.00000,0.00000,0.00000,0.00000,0.00000,0.00000,0.00000,0.00000,0.00000,0.00000,1.00686,0.97087,0.96600,-0.12384,-0.06057,-1.88252,-0.00582,0.02316,0.02981,10.96949,-11.06129,-12.97115,0.0000,,,,0.0277,,,,,,"[1.000, 0.000, 0.000, 0.000, 1.000, 0.000]",0x100010,2.2450,2,2,-2.000000,2.000000,2.000000,0.0000,NO
45,2.2950,2.2950,0.0500,0.050,APPROACHING,0,1007.19,969.65,964.46,-12.86,39.74,146.68,1.00719,0.96965,0.96446,-0.22442,0.69359,2.56005,0.00772,-0.02548,-0.03135,-12.15274,12.25618,14.16015,0.00000,0.00000,0.00000,0.00000,0.00000,0.00000,0.00000,0.00000,0.00000,0.00000,0.00000,0.00000,1.00719,0.96965,0.96446,0.22442,-0.69359,-2.56005,-0.00772,0.02548,0.03135,12.15274,-12.25618,-14.16015,0.0000,,,,0.0450,,,,,,"[0.000, 0.000, 0.000, 0.000, 0.000, 0.000]",0x000000,2.2950,0,2,0.000000,0.000000,0.000000,0.0000,NO
46,2.3450,2.3450,0.0500,0.050,APPROACHING,0,1007.57,968.37,962.89,37.81,76.11,-118.56,1.00757,0.96837,0.96289,0.65994,1.32833,-2.06922,0.00772,-0.02548,-0.03135,-12.15274,12.25618,14.16015,0.00000,0.00000,0.00000,0.00000,0.00000,0.00000,0.00000,0.00000,0.00000,0.00000,0.00000,0.00000,1.00757,0.96837,0.96289,-0.65994,-1.32833,2.06922,-0.00772,0.02548,0.03135,12.15274,-12.25618,-14.16015,0.0000,,,,0.0453,,,,,,"[0.000, 0.000, 0.000, 0.000, 0.000, 0.000]",0x000000,2.3450,0,0,0.000000,0.000000,0.000000,0.0000,NO
47,2.3950,2.3950,0.0500,0.050,APPROACHING,0,1007.96,967.10,961.33,94.88,41.20,-17.67,1.00796,0.96710,0.96133,1.65592,0.71903,-0.30843,0.00772,-0.02548,-0.03135,-12.15274,12.25618,14.16015,0.00000,0.00000,0.00000,0.00000,0.00000,0.00000,0.00000,0.00000,0.00000,0.00000,0.00000,0.00000,1.00796,0.96710,0.96133,-1.65592,-0.71903,0.30843,-0.00772,0.02548,0.03135,12.15274,-12.25618,-14.16015,0.0000,,,,0.0451,,,,,,"[0.000, 0.000, 0.000, 0.000, 0.000, 0.000]",0x000000,2.3950,0,0,0.000000,0.000000,0.000000,0.0000,NO
48,2.4450,2.4450,0.0500,0.050,APPROACHING,0,1008.34,965.82,959.76,74.12,3.05,22.96,1.00834,0.96582,0.95976,1.29359,0.05318,0.40068,0.00772,-0.02548,-0.03135,-12.15274,12.25618,14.16015,0.00000,0.00000,0.00000,0.00000,0.00000,0.00000,0.00000,0.00000,0.00000,0.00000,0.00000,0.00000,1.00834,0.96582,0.95976,-1.29359,-0.05318,-0.40068,-0.00772,0.02548,0.03135,12.15274,-12.25618,-14.16015,0.0000,,,,0.0450,,,,,,"[0.000, 0.000, 0.000, 0.000, 0.000, 0.000]",0x000000,2.4450,0,0,0.000000,0.000000,0.000000,0.0000,NO
49,2.4950,2.4950,0.0500,0.050,APPROACHING,0,1008.73,964.55,958.19,33.41,-9.58,74.37,1.00873,0.96455,0.95819,0.58317,-0.16721,1.29803,0.00772,-0.02548,-0.03135,-12.15274,12.25618,14.16015,0.00000,0.00000,0.00000,0.00000,0.00000,0.00000,0.00000,0.00000,0.00000,0.00000,0.00000,0.00000,1.00873,0.96455,0.95819,-0.58317,0.16721,-1.29803,-0.00772,0.02548,0.03135,12.15274,-12.25618,-14.16015,0.0000,,,,0.0450,,,,,,"[0.000, 0.000, 0.000, 0.000, 0.000, 0.000]",0x000000,2.4950,0,0,0.000000,0.000000,0.000000,0.0000,NO
50,2.5450,2.5450,0.0500,0.050,APPROACHING,0,1009.11,963.28,956.62,-2.03,14.26,121.82,1.00911,0.96328,0.95662,-0.03542,0.24880,2.12622,0.00772,-0.02548,-0.03135,-12.15274,12.25618,14.16015,0.00000,0.00000,0.00000,0.00000,0.00000,0.00000,0.00000,0.00000,0.00000,0.00000,0.00000,0.00000,1.00911,0.96328,0.95662,0.03542,-0.24880,-2.12622,-0.00772,0.02548,0.03135,12.15274,-12.25618,-14.16015,0.0000,,,,0.0448,,,,,,"[0.000, 0.000, 0.000, 0.000, 0.000, 0.000]",0x000000,2.5450,0,0,0.000000,0.000000,0.000000,0.0000,NO
51,2.5950,2.5950,0.0500,0.050,APPROACHING,0,1009.50,962.00,955.06,-12.76,55.91,164.19,1.00950,0.96200,0.95506,-0.22274,0.97589,2.86564,0.00772,-0.02548,-0.03135,-12.15274,12.25618,14.16015,0.00000,0.00000,0.00000,0.00000,0.00000,0.00000,0.00000,0.00000,0.00000,0.00000,0.00000,0.00000,1.00950,0.96200,0.95506,0.22274,-0.97589,-2.86564,-0.00772,0.02548,0.03135,12.15274,-12.25618,-14.16015,0.0000,,,,0.0449,,,,,,"[0.000, 0.000, 0.000, 0.000, 0.000, 0.000]",0x000000,2.5950,0,0,0.000000,0.000000,0.000000,0.0000,NO
52,2.6450,2.6450,0.0500,0.050,APPROACHING,0,1009.89,960.73,953.49,85.35,67.90,-55.56,1.00989,0.96073,0.95349,1.48965,1.18511,-0.96973,0.00772,-0.02548,-0.03135,-12.15274,12.25618,14.16015,0.00000,0.00000,0.00000,0.00000,0.00000,0.00000,0.00000,0.00000,0.00000,0.00000,0.00000,0.00000,1.00989,0.96073,0.95349,-1.48965,-1.18511,0.96973,-0.00772,0.02548,0.03135,12.15274,-12.25618,-14.16015,0.0000,,,,0.0318,,,,,,"[0.000, 0.000, 1.000, 0.000, 0.000, 0.000]",0x001000,2.6450,1,1,-2.000000,2.000000,2.000000,0.0000,NO
53,2.6950,2.6950,0.0500,0.050,APPROACHING,0,1010.23,959.49,951.89,89.22,23.82,-0.98,1.01023,0.95949,0.95189,1.55718,0.41570,-0.01707,0.00624,-0.02449,-0.03297,-13.33601,13.45108,15.34913,0.00000,0.00000,0.00000,0.00000,0.00000,0.00000,0.00000,0.00000,0.00000,0.00000,0.00000,0.00000,1.01023,0.95949,0.95189,-1.55718,-0.41570,0.01707,-0.00624,0.02449,0.03297,13.33601,-13.45108,-15.34913,0.0000,,,,0.0445,,,,,,"[0.000, 0.000, 0.000, 0.000, 0.000, 0.000]",0x000000,2.6950,0,1,0.000000,0.000000,0.000000,0.0000,NO
54,2.7450,2.7450,0.0500,0.050,APPROACHING,0,1010.55,958.26,950.24,55.07,-7.59,48.10,1.01055,0.95826,0.95024,0.96122,-0.13247,0.83943,0.00624,-0.02449,-0.03297,-13.33601,13.45108,15.34913,0.00000,0.00000,0.00000,0.00000,0.00000,0.00000,0.00000,0.00000,0.00000,0.00000,0.00000,0.00000,1.01055,0.95826,0.95024,-0.96122,0.13247,-0.83943,-0.00624,0.02449,0.03297,13.33601,-13.45108,-15.34913,0.0000,,,,0.0445,,,,,,"[0.000, 0.000, 0.000, 0.000, 0.000, 0.000]",0x000000,2.7450,0,0,0.000000,0.000000,0.000000,0.0000,NO
55,2.7950,2.7950,0.0500,0.050,APPROACHING,0,1010.86,957.04,948.59,10.13,1.78,104.74,1.01086,0.95704,0.94859,0.17679,0.03104,1.82801,0.00624,-0.02449,-0.03297,-13.33601,13.45108,15.34913,0.00000,0.00000,0.00000,0.00000,0.00000,0.00000,0.00000,0.00000,0.00000,0.00000,0.00000,0.00000,1.01086,0.95704,0.94859,-0.17679,-0.03104,-1.82801,-0.00624,0.02449,0.03297,13.33601,-13.45108,-15.34913,0.0000,,,,0.0444,,,,,,"[0.000, 0.000, 0.000, 0.000, 0.000, 0.000]",0x000000,2.7950,0,0,0.000000,0.000000,0.000000,0.0000,NO
56,2.8450,2.8450,0.0500,0.050,APPROACHING,0,1011.17,955.81,946.94,-12.68,42.79,149.63,1.01117,0.95581,0.94694,-0.22138,0.74690,2.61149,0.00624,-0.02449,-0.03297,-13.33601,13.45108,15.34913,0.00000,0.00000,0.00000,0.00000,0.00000,0.00000,0.00000,0.00000,0.00000,0.00000,0.00000,0.00000,1.01117,0.95581,0.94694,0.22138,-0.74690,-2.61149,-0.00624,0.02449,0.03297,13.33601,-13.45108,-15.34913,0.0000,,,,0.0452,,,,,,"[0.000, 0.000, 0.000, 0.000, 0.000, 0.000]",0x000000,2.8450,0,0,0.000000,0.000000,0.000000,0.0000,NO
57,2.8950,2.8950,0.0500,0.050,APPROACHING,0,1011.48,954.59,945.29,64.78,74.38,-85.29,1.01148,0.95459,0.94529,1.13066,1.29817,-1.48854,0.00624,-0.02449,-0.03297,-13.33601,13.45108,15.34913,0.00000,0.00000,0.00000,0.00000,0.00000,0.00000,0.00000,0.00000,0.00000,0.00000,0.00000,0.00000,1.01148,0.95459,0.94529,-1.13066,-1.29817,1.48854,-0.00624,0.02449,0.03297,13.33601,-13.45108,-15.34913,0.0000,,,,0.0450,,,,,,"[0.000, 0.000, 0.000, 0.000, 0.000, 0.000]",0x000000,2.8950,0,0,0.000000,0.000000,0.000000,0.0000,NO
58,2.9450,2.9450,0.0500,0.050,APPROACHING,0,1011.79,953.36,943.65,92.10,30.68,-7.58,1.01179,0.95336,0.94365,1.60748,0.53548,-0.13223,0.00624,-0.02449,-0.03297,-13.33601,13.45108,15.34913,0.00000,0.00000,0.00000,0.00000,0.00000,0.00000,0.00000,0.00000,0.00000,0.00000,0.00000,0.00000,1.01179,0.95336,0.94365,-1.60748,-0.53548,0.13223,-0.00624,0.02449,0.03297,13.33601,-13.45108,-15.34913,0.0000,,,,0.0442,,,,,,"[0.000, 0.000, 0.000, 0.000, 0.000, 0.000]",0x000000,2.9450,0,0,0.000000,0.000000,0.000000,0.0000,NO
59,2.9950,2.9950,0.0500,0.050,APPROACHING,0,1012.11,952.14,942.00,61.93,-4.91,39.43,1.01211,0.95214,0.94200,1.08089,-0.08561,0.68815,0.00624,-0.02449,-0.03297,-13.33601,13.45108,15.34913,0.00000,0.00000,0.00000,0.00000,0.00000,0.00000,0.00000,0.00000,0.00000,0.00000,0.00000,0.00000,1.01211,0.95214,0.94200,-1.08089,0.08561,-0.68815,-0.00624,0.02449,0.03297,13.33601,-13.45108,-15.34913,0.0000,,,,0.0442,,,,,,"[0.000, 0.000, 0.000, 0.000, 0.000, 0.000]",0x000000,2.9950,0,0,0.000000,0.000000,0.000000,0.0000,NO
60,3.0450,3.0450,0.0500,0.050,APPROACHING,0,1012.42,950.92,940.35,16.09,-2.48,96.78,1.01242,0.95092,0.94035,0.28082,-0.04331,1.68913,0.00624,-0.02449,-0.03297,-13.33601,13.45108,15.34913,0.00000,0.00000,0.00000,0.00000,0.00000,0.00000,0.00000,0.00000,0.00000,0.00000,0.00000,0.00000,1.01242,0.95092,0.94035,-0.28082,0.04331,-1.68913,-0.00624,0.02449,0.03297,13.33601,-13.45108,-15.34913,0.0000,,,,0.0441,,,,,,"[0.000, 0.000, 0.000, 0.000, 0.000, 0.000]",0x000000,3.0450,0,0,0.000000,0.000000,0.000000,0.0000,NO
61,3.0950,3.0950,0.0500,0.050,APPROACHING,0,1012.73,949.69,938.70,-11.19,35.56,142.65,1.01273,0.94969,0.93870,-0.19533,0.62065,2.48974,0.00624,-0.02449,-0.03297,-13.33601,13.45108,15.34913,0.00000,0.00000,0.00000,0.00000,0.00000,0.00000,0.00000,0.00000,0.00000,0.00000,0.00000,0.00000,1.01273,0.94969,0.93870,0.19533,-0.62065,-2.48974,-0.00624,0.02449,0.03297,13.33601,-13.45108,-15.34913,0.0000,,,,0.0267,,,,,,"[0.000, 0.000, 0.000, 0.000, 1.000, 0.000]",0x000010,3.0950,1,1,-2.000000,2.000000,2.000000,0.0000,NO
62,3.1450,3.1450,0.0500,0.050,APPROACHING,0,1013.09,948.46,937.01,44.76,76.14,-110.40,1.01309,0.94846,0.93701,0.78115,1.32885,-1.92679,0.00825,-0.02442,-0.03428,-14.51927,14.64598,16.53810,0.00000,0.00000,0.00000,0.00000,0.00000,0.00000,0.00000,0.00000,0.00000,0.00000,0.00000,0.00000,1.01309,0.94846,0.93701,-0.78115,-1.32885,1.92679,-0.00825,0.02442,0.03428,14.51927,-14.64598,-16.53810,0.0000,,,,0.0443,,,,,,"[0.000, 0.000, 0.000, 0.000, 0.000, 0.000]",0x000000,3.1450,0,1,0.000000,0.000000,0.000000,0.0000,NO
63,3.1950,3.1950,0.0500,0.050,APPROACHING,0,1013.50,947.24,935.30,92.98,32.13,-8.30,1.01350,0.94724,0.93530,1.62273,0.56071,-0.14489,0.00825,-0.02442,-0.03428,-14.51927,14.64598,16.53810,0.00000,0.00000,0.00000,0.00000,0.00000,0.00000,0.00000,0.00000,0.00000,0.00000,0.00000,0.00000,1.01350,0.94724,0.93530,-1.62273,-0.56071,0.14489,-0.00825,0.02442,0.03428,14.51927,-14.64598,-16.53810,0.0000,,,,0.0442,,,,,,"[0.000, 0.000, 0.000, 0.000, 0.000, 0.000]",0x000000,3.1950,0,0,0.000000,0.000000,0.000000,0.0000,NO
64,3.2450,3.2450,0.0500,0.050,APPROACHING,0,1013.91,946.02,933.59,59.87,-5.85,42.89,1.01391,0.94602,0.93359,1.04484,-0.10207,0.74861,0.00825,-0.02442,-0.03428,-14.51927,14.64598,16.53810,0.00000,0.00000,0.00000,0.00000,0.00000,0.00000,0.00000,0.00000,0.00000,0.00000,0.00000,0.00000,1.01391,0.94602,0.93359,-1.04484,0.10207,-0.74861,-0.00825,0.02442,0.03428,14.51927,-14.64598,-16.53810,0.0000,,,,0.0442,,,,,,"[0.000, 0.000, 0.000, 0.000, 0.000, 0.000]",0x000000,3.2450,0,0,0.000000,0.000000,0.000000,0.0000,NO
65,3.2950,3.2950,0.0500,0.050,APPROACHING,0,1014.32,944.80,931.87,10.99,1.42,104.28,1.01432,0.94480,0.93187,0.19173,0.02484,1.81995,0.00825,-0.02442,-0.03428,-14.51927,14.64598,16.53810,0.00000,0.00000,0.00000,0.00000,0.00000,0.00000,0.00000,0.00000,0.00000,0.00000,0.00000,0.00000,1.01432,0.94480,0.93187,-0.19173,-0.02484,-1.81995,-0.00825,0.02442,0.03428,14.51927,-14.64598,-16.53810,0.0000,,,,0.0441,,,,,,"[0.000, 0.000, 0.000, 0.000, 0.000, 0.000]",0x000000,3.2950,0,0,0.000000,0.000000,0.000000,0.0000,NO
66,3.3450,3.3450,0.0500,0.050,APPROACHING,0,1014.74,943.58,930.16,-12.87,46.14,153.12,1.01474,0.94358,0.93016,-0.22455,0.80522,2.67249,0.00825,-0.02442,-0.03428,-14.51927,14.64598,16.53810,0.00000,0.00000,0.00000,0.00000,0.00000,0.00000,0.00000,0.00000,0.00000,0.00000,0.00000,0.00000,1.01474,0.94358,0.93016,0.22455,-0.80522,-2.67249,-0.00825,0.02442,0.03428,14.51927,-14.64598,-16.53810,0.0000,,,,0.0441,,,,,,"[0.000, 0.000, 0.000, 0.000, 0.000, 0.000]",0x000000,3.3450,0,0,0.000000,0.000000,0.000000,0.0000,NO
67,3.3950,3.3950,0.0500,0.050,APPROACHING,0,1015.15,942.36,928.44,82.93,69.62,-60.01,1.01515,0.94236,0.92844,1.44741,1.21511,-1.04737,0.00825,-0.02442,-0.03428,-14.51927,14.64598,16.53810,0.00000,0.00000,0.00000,0.00000,0.00000,0.00000,0.00000,0.00000,0.00000,0.00000,0.00000,0.00000,1.01515,0.94236,0.92844,-1.44741,-1.21511,1.04737,-0.00825,0.02442,0.03428,14.51927,-14.64598,-16.53810,0.0000,,,,0.0440,,,,,,"[0.000, 0.000, 0.000, 0.000, 0.000, 0.000]",0x000000,3.3950,0,0,0.000000,0.000000,0.000000,0.0000,NO
68,3.4450,3.4450,0.0500,0.050,APPROACHING,0,1015.56,941.14,926.73,87.75,20.36,3.11,1.01556,0.94114,0.92673,1.53153,0.35538,0.05426,0.00825,-0.02442,-0.03428,-14.51927,14.64598,16.53810,0.00000,0.00000,0.00000,0.00000,0.00000,0.00000,0.00000,0.00000,0.00000,0.00000,0.00000,0.00000,1.01556,0.94114,0.92673,-1.53153,-0.35538,-0.05426,-0.00825,0.02442,0.03428,14.51927,-14.64598,-16.53810,0.0000,,,,0.0439,,,,,,"[0.000, 0.000, 0.000, 0.000, 0.000, 0.000]",0x000000,3.4450,0,0,0.000000,0.000000,0.000000,0.0000,NO
69,3.4950,3.4950,0.0500,0.050,APPROACHING,0,1015.98,939.91,925.02,47.54,-9.15,58.24,1.01598,0.93991,0.92502,0.82969,-0.15972,1.01652,0.00825,-0.02442,-0.03428,-14.51927,14.64598,16.53810,0.00000,0.00000,0.00000,0.00000,0.00000,0.00000,0.00000,0.00000,0.00000,0.00000,0.00000,0.00000,1.01598,0.93991,0.92502,-0.82969,0.15972,-1.01652,-0.00825,0.02442,0.03428,14.51927,-14.64598,-16.53810,0.0000,,,,0.0439,,,,,,"[0.000, 0.000, 0.000, 0.000, 0.000, 0.000]",0x000000,3.4950,0,0,0.000000,0.000000,0.000000,0.0000,NO
70,3.5450,3.5450,0.0500,0.050,APPROACHING,0,1016.39,938.69,923.30,2.00,10.40,117.08,1.01639,0.93869,0.92330,0.03495,0.18150,2.04343,0.00825,-0.02442,-0.03428,-14.51927,14.64598,16.53810,0.00000,0.00000,0.00000,0.00000,0.00000,0.00000,0.00000,0.00000,0.00000,0.00000,0.00000,0.00000,1.01639,0.93869,0.92330,-0.03495,-0.18150,-2.04343,-0.00825,0.02442,0.03428,14.51927,-14.64598,-16.53810,0.0000,,,,0.0391,,,,,,"[1.000, 0.000, 0.000, 0.000, 1.000, 0.000]",0x100010,3.5450,2,2,-2.000000,2.000000,2.000000,0.0000,NO
71,3.5950,3.5950,0.0500,0.050,APPROACHING,0,1016.86,937.42,921.56,-10.31,60.79,171.04,1.01686,0.93742,0.92156,-0.17996,1.06090,2.98524,0.01089,-0.02621,-0.03503,-15.70255,15.84089,17.72707,0.00000,0.00000,0.00000,0.00000,0.00000,0.00000,0.00000,0.00000,0.00000,0.00000,0.00000,0.00000,1.01686,0.93742,0.92156,0.17996,-1.06090,-2.98524,-0.01089,0.02621,0.03503,15.70255,-15.84089,-17.72707,0.0000,,,,0.0439,,,,,,"[0.000, 0.000, 0.000, 0.000, 0.000, 0.000]",0x000000,3.5950,0,2,0.000000,0.000000,0.000000,0.0000,NO
72,3.6450,3.6450,0.0500,0.050,APPROACHING,0,1017.40,936.11,919.81,96.46,52.13,-27.69,1.01740,0.93611,0.91981,1.68356,0.90980,-0.48332,0.01089,-0.02621,-0.03503,-15.70255,15.84089,17.72707,0.00000,0.00000,0.00000,0.00000,0.00000,0.00000,0.00000,0.00000,0.00000,0.00000,0.00000,0.00000,1.01740,0.93611,0.91981,-1.68356,-0.90980,0.48332,-0.01089,0.02621,0.03503,15.70255,-15.84089,-17.72707,0.0000,,,,0.0441,,,,,,"[0.000, 0.000, 0.000, 0.000, 0.000, 0.000]",0x000000,3.6450,0,0,0.000000,0.000000,0.000000,0.0000,NO
73,3.6950,3.6950,0.0500,0.050,APPROACHING,0,1017.94,934.80,918.05,73.90,2.63,25.31,1.01794,0.93480,0.91805,1.28981,0.04584,0.44178,0.01089,-0.02621,-0.03503,-15.70255,15.84089,17.72707,0.00000,0.00000,0.00000,0.00000,0.00000,0.00000,0.00000,0.00000,0.00000,0.00000,0.00000,0.00000,1.01794,0.93480,0.91805,-1.28981,-0.04584,-0.44178,-0.01089,0.02621,0.03503,15.70255,-15.84089,-17.72707,0.0000,,,,0.0442,,,,,,"[0.000, 0.000, 0.000, 0.000, 0.000, 0.000]",0x000000,3.6950,0,0,0.000000,0.000000,0.000000,0.0000,NO
74,3.7450,3.7450,0.0500,0.050,APPROACHING,0,1018.49,933.49,916.30,21.45,-5.02,91.03,1.01849,0.93349,0.91630,0.37442,-0.08757,1.58879,0.01089,-0.02621,-0.03503,-15.70255,15.84089,17.72707,0.00000,0.00000,0.00000,0.00000,0.00000,0.00000,0.00000,0.00000,0.00000,0.00000,0.00000,0.00000,1.01849,0.93349,0.91630,-0.37442,0.08757,-1.58879,-0.01089,0.02621,0.03503,15.70255,-15.84089,-17.72707,0.0000,,,,0.0439,,,,,,"[0.000, 0.000, 0.000, 0.000, 0.000, 0.000]",0x000000,3.7450,0,0,0.000000,0.000000,0.000000,0.0000,NO
75,3.7950,3.7950,0.0500,0.050,APPROACHING,0,1019.03,932.18,914.55,-11.66,38.12,145.17,1.01903,0.93218,0.91455,-0.20345,0.66526,2.53361,0.01089,-0.02621,-0.03503,-15.70255,15.84089,17.72707,0.00000,0.00000,0.00000,0.00000,0.00000,0.00000,0.00000,0.00000,0.00000,0.00000,0.00000,0.00000,1.01903,0.93218,0.91455,0.20345,-0.66526,-2.53361,-0.01089,0.02621,0.03503,15.70255,-15.84089,-17.72707,0.0000,,,,0.0438,,,,,,"[0.000, 0.000, 0.000, 0.000, 0.000, 0.000]",0x000000,3.7950,0,0,0.000000,0.000000,0.000000,0.0000,NO
76,3.8450,3.8450,0.0500,0.050,APPROACHING,0,1019.58,930.87,912.80,75.25,72.92,-71.70,1.01958,0.93087,0.91280,1.31343,1.27275,-1.25132,0.01089,-0.02621,-0.03503,-15.70255,15.84089,17.72707,0.00000,0.00000,0.00000,0.00000,0.00000,0.00000,0.00000,0.00000,0.00000,0.00000,0.00000,0.00000,1.01958,0.93087,0.91280,-1.31343,-1.27275,1.25132,-0.01089,0.02621,0.03503,15.70255,-15.84089,-17.72707,0.0000,,,,0.0439,,,,,,"[0.000, 0.000, 0.000, 0.000, 0.000, 0.000]",0x000000,3.8450,0,0,0.000000,0.000000,0.000000,0.0000,NO
77,3.8950,3.8950,0.0500,0.050,APPROACHING,0,1020.12,929.56,911.05,88.25,20.48,3.40,1.02012,0.92956,0.91105,1.54026,0.35744,0.05938,0.01089,-0.02621,-0.03503,-15.70255,15.84089,17.72707,0.00000,0.00000,0.00000,0.00000,0.00000,0.00000,0.00000,0.00000,0.00000,0.00000,0.00000,0.00000,1.02012,0.92956,0.91105,-1.54026,-0.35744,-0.05938,-0.01089,0.02621,0.03503,15.70255,-15.84089,-17.72707,0.0000,,,,0.0438,,,,,,"[0.000, 0.000, 0.000, 0.000, 0.000, 0.000]",0x000000,3.8950,0,0,0.000000,0.000000,0.000000,0.0000,NO
78,3.9450,3.9450,0.0500,0.050,APPROACHING,0,1020.67,928.25,909.30,43.87,-9.52,63.32,1.02067,0.92825,0.90930,0.76575,-0.16614,1.10518,0.01089,-0.02621,-0.03503,-15.70255,15.84089,17.72707,0.00000,0.00000,0.00000,0.00000,0.00000,0.00000,0.00000,0.00000,0.00000,0.00000,0.00000,0.00000,1.02067,0.92825,0.90930,-0.76575,0.16614,-1.10518,-0.01089,0.02621,0.03503,15.70255,-15.84089,-17.72707,0.0000,,,,0.0439,,,,,,"[0.000, 0.000, 0.000, 0.000, 0.000, 0.000]",0x000000,3.9450,0,0,0.000000,0.000000,0.000000,0.0000,NO
79,3.9950,3.9950,0.0500,0.050,APPROACHING,0,1021.21,926.93,907.55,-2.55,16.89,124.62,1.02121,0.92693,0.90755,-0.04445,0.29474,2.17500,0.01089,-0.02621,-0.03503,-15.70255,15.84089,17.72707,0.00000,0.00000,0.00000,0.00000,0.00000,0.00000,0.00000,0.00000,0.00000,0.00000,0.00000,0.00000,1.02121,0.92693,0.90755,0.04445,-0.29474,-2.17500,-0.01089,0.02621,0.03503,15.70255,-15.84089,-17.72707,0.0000,,,,0.0438,,,,,,"[0.000, 0.000, 0.000, 0.000, 0.000, 0.000]",0x000000,3.9950,0,0,0.000000,0.000000,0.000000,0.0000,NO
80,4.0450,4.0450,0.0500,0.050,APPROACHING,0,1021.76,925.62,905.79,-0.21,69.82,-169.05,1.02176,0.92562,0.90579,-0.00373,1.21856,-2.95054,0.01089,-0.02621,-0.03503,-15.70255,15.84089,17.72707,0.00000,0.00000,0.00000,0.00000,0.00000,0.00000,0.00000,0.00000,0.00000,0.00000,0.00000,0.00000,1.02176,0.92562,0.90579,0.00373,-1.21856,2.95054,-0.01089,0.02621,0.03503,15.70255,-15.84089,-17.72707,0.0000,,,,0.0334,,,,,,"[0.000, 0.000, 0.000, 0.000, 0.000, 0.000]",0x000000,4.0450,0,0,-2.000000,2.000000,2.000000,0.0000,NO
81,4.0950,4.0950,0.0500,0.050,APPROACHING,0,1022.30,924.31,904.04,95.78,40.30,-15.22,1.02230,0.92431,0.90404,1.67173,0.70329,-0.26567,0.01089,-0.02621,-0.03503,-16.88582,17.03581,18.91602,0.00000,0.00000,0.00000,0.00000,0.00000,0.00000,0.00000,0.00000,0.00000,0.00000,0.00000,0.00000,1.02230,0.92431,0.90404,-1.67173,-0.70329,0.26567,-0.01089,0.02621,0.03503,16.88582,-17.03581,-18.91602,0.0000,,,,0.0439,,,,,,"[0.000, 0.000, 0.000, 0.000, 0.000, 0.000]",0x000000,4.0950,0,0,0.000000,0.000000,0.000000,0.0000,NO
82,4.1450,4.1450,0.0500,0.050,APPROACHING,0,1022.84,923.00,902.29,60.53,-5.54,43.15,1.02284,0.92300,0.90229,1.05647,-0.09671,0.75306,0.01089,-0.02621,-0.03503,-16.88582,17.03581,18.91602,0.00000,0.00000,0.00000,0.00000,0.00000,0.00000,0.00000,0.00000,0.00000,0.00000,0.00000,0.00000,1.02284,0.92300,0.90229,-1.05647,0.09671,-0.75306,-0.01089,0.02621,0.03503,16.88582,-17.03581,-18.91602,0.0000,,,,0.0439,,,,,,"[0.000, 0.000, 0.000, 0.000, 0.000, 0.000]",0x000000,4.1450,0,0,0.000000,0.000000,0.000000,0.0000,NO
83,4.1950,4.1950,0.0500,0.050,APPROACHING,0,1023.39,921.69,900.54,5.70,6.90,112.57,1.02339,0.92169,0.90054,0.09943,0.12047,1.96472,0.01089,-0.02621,-0.03503,-16.88582,17.03581,18.91602,0.00000,0.00000,0.00000,0.00000,0.00000,0.00000,0.00000,0.00000,0.00000,0.00000,0.00000,0.00000,1.02339,0.92169,0.90054,-0.09943,-0.12047,-1.96472,-0.01089,0.02621,0.03503,16.88582,-17.03581,-18.91602,0.0000,,,,0.0440,,,,,,"[0.000, 0.000, 0.000, 0.000, 0.000, 0.000]",0x000000,4.1950,0,0,0.000000,0.000000,0.000000,0.0000,NO
84,4.2450,4.2450,0.0500,0.050,APPROACHING,0,1023.93,920.38,898.79,-9.27,61.92,173.13,1.02393,0.92038,0.89879,-0.16179,1.08068,3.02177,0.01089,-0.02621,-0.03503,-16.88582,17.03581,18.91602,0.00000,0.00000,0.00000,0.00000,0.00000,0.00000,0.00000,0.00000,0.00000,0.00000,0.00000,0.00000,1.02393,0.92038,0.89879,0.16179,-1.08068,-3.02177,-0.01089,0.02621,0.03503,16.88582,-17.03581,-18.91602,0.0000,,,,0.0440,,,,,,"[0.000, 0.000, 0.000, 0.000, 0.000, 0.000]",0x000000,4.2450,0,0,0.000000,0.000000,0.000000,0.0000,NO
85,4.2950,4.2950,0.0500,0.050,APPROACHING,0,1024.48,919.07,897.04,96.66,47.03,-21.92,1.02448,0.91907,0.89704,1.68700,0.82079,-0.38254,0.01089,-0.02621,-0.03503,-16.88582,17.03581,18.91602,0.00000,0.00000,0.00000,0.00000,0.00000,0.00000,0.00000,0.00000,0.00000,0.00000,0.00000,0.00000,1.02448,0.91907,0.89704,-1.68700,-0.82079,0.38254,-0.01089,0.02621,0.03503,16.88582,-17.03581,-18.91602,0.0000,,,,0.0439,,,,,,"[0.000, 0.000, 0.000, 0.000, 0.000, 0.000]",0x000000,4.2950,0,0,0.000000,0.000000,0.000000,0.0000,NO
86,4.3450,4.3450,0.0500,0.050,APPROACHING,0,1025.02,917.76,895.29,66.58,-2.49,35.42,1.02502,0.91776,0.89529,1.16208,-0.04350,0.61822,0.01089,-0.02621,-0.03503,-16.88582,17.03581,18.91602,0.00000,0.00000,0.00000,0.00000,0.00000,0.00000,0.00000,0.00000,0.00000,0.00000,0.00000,0.00000,1.02502,0.91776,0.89529,-1.16208,0.04350,-0.61822,-0.01089,0.02621,0.03503,16.88582,-17.03581,-18.91602,0.0000,,,,0.0442,,,,,,"[0.000, 0.000, 0.000, 0.000, 0.000, 0.000]",0x000000,4.3450,0,0,0.000000,0.000000,0.000000,0.0000,NO
87,4.3950,4.3950,0.0500,0.050,APPROACHING,0,1025.57,916.45,893.53,10.65,2.28,105.67,1.02557,0.91645,0.89353,0.18591,0.03984,1.84422,0.01089,-0.02621,-0.03503,-16.88582,17.03581,18.91602,0.00000,0.00000,0.00000,0.00000,0.00000,0.00000,0.00000,0.00000,0.00000,0.00000,0.00000,0.00000,1.02557,0.91645,0.89353,-0.18591,-0.03984,-1.84422,-0.01089,0.02621,0.03503,16.88582,-17.03581,-18.91602,0.0000,,,,0.0441,,,,,,"[0.000, 0.000, 0.000, 0.000, 0.000, 0.000]",0x000000,4.3950,0,0,0.000000,0.000000,0.000000,0.0000,NO
88,4.4450,4.4450,0.0500,0.050,APPROACHING,0,1026.11,915.14,891.78,-12.02,55.31,163.48,1.02611,0.91514,0.89178,-0.20985,0.96532,2.85324,0.01089,-0.02621,-0.03503,-16.88582,17.03581,18.91602,0.00000,0.00000,0.00000,0.00000,0.00000,0.00000,0.00000,0.00000,0.00000,0.00000,0.00000,0.00000,1.02611,0.91514,0.89178,0.20985,-0.96532,-2.85324,-0.01089,0.02621,0.03503,16.88582,-17.03581,-18.91602,0.0000,,,,0.0438,,,,,,"[0.000, 0.000, 0.000, 0.000, 0.000, 0.000]",0x000000,4.4450,0,0,0.000000,0.000000,0.000000,0.0000,NO
89,4.4950,4.4950,0.0500,0.050,APPROACHING,0,1026.65,913.83,890.03,96.33,53.79,-29.47,1.02665,0.91383,0.89003,1.68134,0.93875,-0.51435,0.01089,-0.02621,-0.03503,-16.88582,17.03581,18.91602,0.00000,0.00000,0.00000,0.00000,0.00000,0.00000,0.00000,0.00000,0.00000,0.00000,0.00000,0.00000,1.02665,0.91383,0.89003,-1.68134,-0.93875,0.51435,-0.01089,0.02621,0.03503,16.88582,-17.03581,-18.91602,0.0000,,,,0.0441,,,,,,"[0.000, 0.000, 0.000, 0.000, 0.000, 0.000]",0x000000,4.4950,0,0,0.000000,0.000000,0.000000,0.0000,NO
90,4.5450,4.5450,0.0500,0.050,APPROACHING,0,1027.20,912.52,888.28,72.17,1.32,28.06,1.02720,0.91252,0.88828,1.25954,0.02308,0.48979,0.01089,-0.02621,-0.03503,-16.88582,17.03581,18.91602,0.00000,0.00000,0.00000,0.00000,0.00000,0.00000,0.00000,0.00000,0.00000,0.00000,0.00000,0.00000,1.02720,0.91252,0.88828,-1.25954,-0.02308,-0.48979,-0.01089,0.02621,0.03503,16.88582,-17.03581,-18.91602,0.0000,,,,0.0445,,,,,,"[0.000, 0.000, 0.000, 0.000, 0.000, 0.000]",0x000000,4.5450,0,0,0.000000,0.000000,0.000000,0.0000,NO
91,4.5950,4.5950,0.0500,0.050,APPROACHING,0,1027.74,911.21,886.53,16.12,-1.69,98.39,1.02774,0.91121,0.88653,0.28140,-0.02953,1.71727,0.01089,-0.02621,-0.03503,-16.88582,17.03581,18.91602,0.00000,0.00000,0.00000,0.00000,0.00000,0.00000,0.00000,0.00000,0.00000,0.00000,0.00000,0.00000,1.02774,0.91121,0.88653,-0.28140,0.02953,-1.71727,-0.01089,0.02621,0.03503,16.88582,-17.03581,-18.91602,0.0000,,,,0.0202,,,,,,"[1.000, 0.000, 0.000, 0.000, 1.000, 0.000]",0x100010,4.5950,2,2,-2.000000,2.000000,2.000000,0.0000,NO
92,4.6450,4.6450,0.0500,0.050,APPROACHING,0,1028.31,909.84,884.73,-12.80,50.65,157.65,1.02831,0.90984,0.88473,-0.22344,0.88393,2.75152,0.01263,-0.02844,-0.03649,-18.06910,18.23073,20.10495,0.00000,0.00000,0.00000,0.00000,0.00000,0.00000,0.00000,0.00000,0.00000,0.00000,0.00000,0.00000,1.02831,0.90984,0.88473,0.22344,-0.88393,-2.75152,-0.01263,0.02844,0.03649,18.06910,-18.23073,-20.10495,0.0000,,,,0.0443,,,,,,"[0.000, 0.000, 0.000, 0.000, 0.000, 0.000]",0x000000,4.6450,0,2,0.000000,0.000000,0.000000,0.0000,NO
93,4.6950,4.6950,0.0500,0.050,APPROACHING,0,1028.95,908.42,882.90,96.78,54.59,-29.91,1.02895,0.90842,0.88290,1.68904,0.95277,-0.52200,0.01263,-0.02844,-0.03649,-18.06910,18.23073,20.10495,0.00000,0.00000,0.00000,0.00000,0.00000,0.00000,0.00000,0.00000,0.00000,0.00000,0.00000,0.00000,1.02895,0.90842,0.88290,-1.68904,-0.95277,0.52200,-0.01263,0.02844,0.03649,18.06910,-18.23073,-20.10495,0.0000,,,,0.0441,,,,,,"[0.000, 0.000, 0.000, 0.000, 0.000, 0.000]",0x000000,4.6950,0,0,0.000000,0.000000,0.000000,0.0000,NO
94,4.7450,4.7450,0.0500,0.050,APPROACHING,0,1029.58,907.00,881.08,69.81,-0.65,31.73,1.02958,0.90700,0.88108,1.21837,-0.01142,0.55371,0.01263,-0.02844,-0.03649,-18.06910,18.23073,20.10495,0.00000,0.00000,0.00000,0.00000,0.00000,0.00000,0.00000,0.00000,0.00000,0.00000,0.00000,0.00000,1.02958,0.90700,0.88108,-1.21837,0.01142,-0.55371,-0.01263,0.02844,0.03649,18.06910,-18.23073,-20.10495,0.0000,,,,0.0444,,,,,,"[0.000, 0.000, 0.000, 0.000, 0.000, 0.000]",0x000000,4.7450,0,0,0.000000,0.000000,0.000000,0.0000,NO
95,4.7950,4.7950,0.0500,0.050,APPROACHING,0,1030.21,905.57,879.26,10.35,2.58,106.25,1.03021,0.90557,0.87926,0.18061,0.04499,1.85446,0.01263,-0.02844,-0.03649,-18.06910,18.23073,20.10495,0.00000,0.00000,0.00000,0.00000,0.00000,0.00000,0.00000,0.00000,0.00000,0.00000,0.00000,0.00000,1.03021,0.90557,0.87926,-0.18061,-0.04499,-1.85446,-0.01263,0.02844,0.03649,18.06910,-18.23073,-20.10495,0.0000,,,,0.0442,,,,,,"[0.000, 0.000, 0.000, 0.000, 0.000, 0.000]",0x000000,4.7950,0,0,0.000000,0.000000,0.000000,0.0000,NO
96,4.8450,4.8450,0.0500,0.050,APPROACHING,0,1030.84,904.15,877.43,-10.73,59.85,169.34,1.03084,0.90415,0.87743,-0.18720,1.04458,2.95562,0.01263,-0.02844,-0.03649,-18.06910,18.23073,20.10495,0.00000,0.00000,0.00000,0.00000,0.00000,0.00000,0.00000,0.00000,0.00000,0.00000,0.00000,0.00000,1.03084,0.90415,0.87743,0.18720,-1.04458,-2.95562,-0.01263,0.02844,0.03649,18.06910,-18.23073,-20.10495,0.0000,,,,0.0439,,,,,,"[0.000, 0.000, 0.000, 0.000, 0.000, 0.000]",0x000000,4.8450,0,0,0.000000,0.000000,0.000000,0.0000,NO
97,4.8950,4.8950,0.0500,0.050,APPROACHING,0,1031.47,902.73,875.61,97.02,45.31,-19.74,1.03147,0.90273,0.87561,1.69336,0.79083,-0.34446,0.01263,-0.02844,-0.03649,-18.06910,18.23073,20.10495,0.00000,0.00000,0.00000,0.00000,0.00000,0.00000,0.00000,0.00000,0.00000,0.00000,0.00000,0.00000,1.03147,0.90273,0.87561,-1.69336,-0.79083,0.34446,-0.01263,0.02844,0.03649,18.06910,-18.23073,-20.10495,0.0000,,,,0.0441,,,,,,"[0.000, 0.000, 0.000, 0.000, 0.000, 0.000]",0x000000,4.8950,0,0,0.000000,0.000000,0.000000,0.0000,NO
98,4.9450,4.9450,0.0500,0.050,APPROACHING,0,1032.10,901.31,873.78,61.70,-5.19,42.12,1.03210,0.90131,0.87378,1.07690,-0.09066,0.73517,0.01263,-0.02844,-0.03649,-18.06910,18.23073,20.10495,0.00000,0.00000,0.00000,0.00000,0.00000,0.00000,0.00000,0.00000,0.00000,0.00000,0.00000,0.00000,1.03210,0.90131,0.87378,-1.07690,0.09066,-0.73517,-0.01263,0.02844,0.03649,18.06910,-18.23073,-20.10495,0.0000,,,,0.0441,,,,,,"[0.000, 0.000, 0.000, 0.000, 0.000, 0.000]",0x000000,4.9450,0,0,0.000000,0.000000,0.000000,0.0000,NO
99,4.9950,4.9950,0.0500,0.050,APPROACHING,0,1032.74,899.89,871.96,3.73,9.12,115.56,1.03274,0.89989,0.87196,0.06504,0.15913,2.01689,0.01263,-0.02844,-0.03649,-18.06910,18.23073,20.10495,0.00000,0.00000,0.00000,0.00000,0.00000,0.00000,0.00000,0.00000,0.00000,0.00000,0.00000,0.00000,1.03274,0.89989,0.87196,-0.06504,-0.15913,-2.01689,-0.01263,0.02844,0.03649,18.06910,-18.23073,-20.10495,0.0000,,,,0.0442,,,,,,"[0.000, 0.000, 0.000, 0.000, 0.000, 0.000]",0x000000,4.9950,0,0,0.000000,0.000000,0.000000,0.0000,NO
100,5.0450,5.0450,0.0500,0.050,APPROACHING,0,1033.37,898.47,870.13,-2.84,68.49,-173.55,1.03337,0.89847,0.87013,-0.04959,1.19537,-3.02909,0.01263,-0.02844,-0.03649,-18.06910,18.23073,20.10495,0.00000,0.00000,0.00000,0.00000,0.00000,0.00000,0.00000,0.00000,0.00000,0.00000,0.00000,0.00000,1.03337,0.89847,0.87013,0.04959,-1.19537,3.02909,-0.01263,0.02844,0.03649,18.06910,-18.23073,-20.10495,0.0000,,,,0.0441,,,,,,"[0.000, 0.000, 0.000, 0.000, 0.000, 0.000]",0x000000,5.0450,0,0,0.000000,0.000000,0.000000,0.0000,NO
101,5.0950,5.0950,0.0500,0.050,APPROACHING,0,1034.00,897.04,868.31,95.21,36.13,-10.94,1.03400,0.89704,0.86831,1.66180,0.63063,-0.19089,0.01263,-0.02844,-0.03649,-18.06910,18.23073,20.10495,0.00000,0.00000,0.00000,0.00000,0.00000,0.00000,0.00000,0.00000,0.00000,0.00000,0.00000,0.00000,1.03400,0.89704,0.86831,-1.66180,-0.63063,0.19089,-0.01263,0.02844,0.03649,18.06910,-18.23073,-20.10495,0.0000,,,,0.0438,,,,,,"[0.000, 0.000, 0.000, 0.000, 0.000, 0.000]",0x000000,5.0950,0,0,0.000000,0.000000,0.000000,0.0000,NO
102,5.1450,5.1450,0.0500,0.050,APPROACHING,0,1034.63,895.62,866.49,52.84,-8.15,53.14,1.03463,0.89562,0.86649,0.92231,-0.14224,0.92740,0.01263,-0.02844,-0.03649,-18.06910,18.23073,20.10495,0.00000,0.00000,0.00000,0.00000,0.00000,0.00000,0.00000,0.00000,0.00000,0.00000,0.00000,0.00000,1.03463,0.89562,0.86649,-0.92231,0.14224,-0.92740,-0.01263,0.02844,0.03649,18.06910,-18.23073,-20.10495,0.0000,,,,0.0446,,,,,,"[0.000, 0.000, 0.000, 0.000, 0.000, 0.000]",0x000000,5.1450,0,0,0.000000,0.000000,0.000000,0.0000,NO
103,5.1950,5.1950,0.0500,0.050,APPROACHING,0,1035.26,894.20,864.66,-1.90,16.61,124.29,1.03526,0.89420,0.86466,-0.03310,0.28987,2.16920,0.01263,-0.02844,-0.03649,-18.06910,18.23073,20.10495,0.00000,0.00000,0.00000,0.00000,0.00000,0.00000,0.00000,0.00000,0.00000,0.00000,0.00000,0.00000,1.03526,0.89420,0.86466,0.03310,-0.28987,-2.16920,-0.01263,0.02844,0.03649,18.06910,-18.23073,-20.10495,0.0000,,,,0.0450,,,,,,"[0.000, 0.000, 0.000, 0.000, 0.000, 0.000]",0x000000,5.1950,0,0,0.000000,0.000000,0.000000,0.0000,NO
104,5.2450,5.2450,0.0500,0.050,APPROACHING,0,1035.89,892.78,862.84,18.41,75.12,-143.32,1.03589,0.89278,0.86284,0.32139,1.31101,-2.50147,0.01263,-0.02844,-0.03649,-18.06910,18.23073,20.10495,0.00000,0.00000,0.00000,0.00000,0.00000,0.00000,0.00000,0.00000,0.00000,0.00000,0.00000,0.00000,1.03589,0.89278,0.86284,-0.32139,-1.31101,2.50147,-0.01263,0.02844,0.03649,18.06910,-18.23073,-20.10495,0.0000,,,,0.0450,,,,,,"[0.000, 0.000, 0.000, 0.000, 0.000, 0.000]",0x000000,5.2450,0,0,0.000000,0.000000,0.000000,0.0000,NO
105,5.2950,5.2950,0.0500,0.050,APPROACHING,0,1036.53,891.36,861.01,92.02,27.26,-2.64,1.03653,0.89136,0.86101,1.60604,0.47575,-0.04605,0.01263,-0.02844,-0.03649,-18.06910,18.23073,20.10495,0.00000,0.00000,0.00000,0.00000,0.00000,0.00000,0.00000,0.00000,0.00000,0.00000,0.00000,0.00000,1.03653,0.89136,0.86101,-1.60604,-0.47575,0.04605,-0.01263,0.02844,0.03649,18.06910,-18.23073,-20.10495,0.0000,,,,0.0189,,,,,,"[1.000, 0.000, 1.000, 0.000, 0.003, 0.000]",0x101000,5.2950,2,2,-2.000000,2.000000,2.000000,0.0000,NO
106,5.3450,5.3450,0.0500,0.050,APPROACHING,0,1037.09,889.91,859.14,41.50,-9.22,67.02,1.03709,0.88991,0.85914,0.72428,-0.16084,1.16977,0.01075,-0.02994,-0.03849,-19.25239,19.42566,21.29388,0.00000,0.00000,0.00000,0.00000,0.00000,0.00000,0.00000,0.00000,0.00000,0.00000,0.00000,0.00000,1.03709,0.88991,0.85914,-0.72428,0.16084,-1.16977,-0.01075,0.02994,0.03849,19.25239,-19.42566,-21.29388,0.0000,,,,0.0445,,,,,,"[0.000, 0.000, 0.000, 0.000, 0.000, 0.000]",0x000000,5.3450,0,2,0.000000,0.000000,0.000000,0.0000,NO
107,5.3950,5.3950,0.0500,0.050,APPROACHING,0,1037.63,888.41,857.22,-8.80,30.69,137.87,1.03763,0.88841,0.85722,-0.15367,0.53563,2.40627,0.01075,-0.02994,-0.03849,-19.25239,19.42566,21.29388,0.00000,0.00000,0.00000,0.00000,0.00000,0.00000,0.00000,0.00000,0.00000,0.00000,0.00000,0.00000,1.03763,0.88841,0.85722,0.15367,-0.53563,-2.40627,-0.01075,0.02994,0.03849,19.25239,-19.42566,-21.29388,0.0000,,,,0.0449,,,,,,"[0.000, 0.000, 0.000, 0.000, 0.000, 0.000]",0x000000,5.3950,0,0,0.000000,0.000000,0.000000,0.0000,NO
108,5.4450,5.4450,0.0500,0.050,APPROACHING,0,1038.17,886.92,855.29,84.90,69.96,-58.48,1.03817,0.88692,0.85529,1.48180,1.22109,-1.02073,0.01075,-0.02994,-0.03849,-19.25239,19.42566,21.29388,0.00000,0.00000,0.00000,0.00000,0.00000,0.00000,0.00000,0.00000,0.00000,0.00000,0.00000,0.00000,1.03817,0.88692,0.85529,-1.48180,-1.22109,1.02073,-0.01075,0.02994,0.03849,19.25239,-19.42566,-21.29388,0.0000,,,,0.0449,,,,,,"[0.000, 0.000, 0.000, 0.000, 0.000, 0.000]",0x000000,5.4450,0,0,0.000000,0.000000,0.000000,0.0000,NO
109,5.4950,5.4950,0.0500,0.050,APPROACHING,0,1038.71,885.42,853.37,79.26,7.49,18.87,1.03871,0.88542,0.85337,1.38337,0.13065,0.32931,0.01075,-0.02994,-0.03849,-19.25239,19.42566,21.29388,0.00000,0.00000,0.00000,0.00000,0.00000,0.00000,0.00000,0.00000,0.00000,0.00000,0.00000,0.00000,1.03871,0.88542,0.85337,-1.38337,-0.13065,-0.32931,-0.01075,0.02994,0.03849,19.25239,-19.42566,-21.29388,0.0000,,,,0.0445,,,,,,"[0.000, 0.000, 0.000, 0.000, 0.000, 0.000]",0x000000,5.4950,0,0,0.000000,0.000000,0.000000,0.0000,NO
110,5.5450,5.5450,0.0500,0.050,APPROACHING,0,1039.24,883.92,851.44,17.27,-2.14,97.13,1.03924,0.88392,0.85144,0.30146,-0.03732,1.69516,0.01075,-0.02994,-0.03849,-19.25239,19.42566,21.29388,0.00000,0.00000,0.00000,0.00000,0.00000,0.00000,0.00000,0.00000,0.00000,0.00000,0.00000,0.00000,1.03924,0.88392,0.85144,-0.30146,0.03732,-1.69516,-0.01075,0.02994,0.03849,19.25239,-19.42566,-21.29388,0.0000,,,,0.0442,,,,,,"[0.000, 0.000, 0.000, 0.000, 0.000, 0.000]",0x000000,5.5450,0,0,0.000000,0.000000,0.000000,0.0000,NO
111,5.5950,5.5950,0.0500,0.050,APPROACHING,0,1039.78,882.43,849.52,-12.01,55.69,163.29,1.03978,0.88243,0.84952,-0.20953,0.97205,2.84997,0.01075,-0.02994,-0.03849,-19.25239,19.42566,21.29388,0.00000,0.00000,0.00000,0.00000,0.00000,0.00000,0.00000,0.00000,0.00000,0.00000,0.00000,0.00000,1.03978,0.88243,0.84952,0.20953,-0.97205,-2.84997,-0.01075,0.02994,0.03849,19.25239,-19.42566,-21.29388,0.0000,,,,0.0441,,,,,,"[0.000, 0.000, 0.000, 0.000, 0.000, 0.000]",0x000000,5.5950,0,0,0.000000,0.000000,0.000000,0.0000,NO
112,5.6450,5.6450,0.0500,0.050,APPROACHING,0,1040.32,880.93,847.60,97.23,45.61,-20.14,1.04032,0.88093,0.84760,1.69693,0.79609,-0.35148,0.01075,-0.02994,-0.03849,-19.25239,19.42566,21.29388,0.00000,0.00000,0.00000,0.00000,0.00000,0.00000,0.00000,0.00000,0.00000,0.00000,0.00000,0.00000,1.04032,0.88093,0.84760,-1.69693,-0.79609,0.35148,-0.01075,0.02994,0.03849,19.25239,-19.42566,-21.29388,0.0000,,,,0.0442,,,,,,"[0.000, 0.000, 0.000, 0.000, 0.000, 0.000]",0x000000,5.6450,0,0,0.000000,0.000000,0.000000,0.0000,NO
113,5.6950,5.6950,0.0500,0.050,APPROACHING,0,1040.85,879.43,845.67,58.34,-6.47,46.35,1.04085,0.87943,0.84567,1.01820,-0.11296,0.80889,0.01075,-0.02994,-0.03849,-19.25239,19.42566,21.29388,0.00000,0.00000,0.00000,0.00000,0.00000,0.00000,0.00000,0.00000,0.00000,0.00000,0.00000,0.00000,1.04085,0.87943,0.84567,-1.01820,0.11296,-0.80889,-0.01075,0.02994,0.03849,19.25239,-19.42566,-21.29388,0.0000,,,,0.0441,,,,,,"[0.000, 0.000, 0.000, 0.000, 0.000, 0.000]",0x000000,5.6950,0,0,0.000000,0.000000,0.000000,0.0000,NO
114,5.7450,5.7450,0.0500,0.050,APPROACHING,0,1041.39,877.94,843.75,-0.86,15.43,122.65,1.04139,0.87794,0.84375,-0.01504,0.26931,2.14066,0.01075,-0.02994,-0.03849,-19.25239,19.42566,21.29388,0.00000,0.00000,0.00000,0.00000,0.00000,0.00000,0.00000,0.00000,0.00000,0.00000,0.00000,0.00000,1.04139,0.87794,0.84375,0.01504,-0.26931,-2.14066,-0.01075,0.02994,0.03849,19.25239,-19.42566,-21.29388,0.0000,,,,0.0441,,,,,,"[0.000, 0.000, 0.000, 0.000, 0.000, 0.000]",0x000000,5.7450,0,0,0.000000,0.000000,0.000000,0.0000,NO
