Step,MPC_Start_Time,Control_Time,Actual_Time_Interval,CONTROL_DT,Mission_Phase,Waypoint_Number,Telemetry_X_mm,Telemetry_Y_mm,Telemetry_Z_mm,Telemetry_Roll_deg,Telemetry_Pitch_deg,Telemetry_Yaw_deg,Current_X,Current_Y,Current_Z,Current_Roll,Current_Pitch,Current_Yaw,Current_VX,Current_VY,Current_VZ,Current_WX,Current_WY,Current_WZ,Target_X,Target_Y,Target_Z,Target_Roll,Target_Pitch,Target_Yaw,Target_VX,Target_VY,Target_VZ,Target_WX,Target_WY,Target_WZ,Error_X,Error_Y,Error_Z,Error_Roll,Error_Pitch,Error_Yaw,Error_VX,Error_VY,Error_VZ,Error_WX,Error_WY,Error_WZ,MPC_Computation_Time,MPC_Status,MPC_Solver,MPC_Solver_Time_Limit,MPC_Solve_Time,MPC_Time_Limit_Exceeded,MPC_Fallback_Used,MPC_Objective,MPC_Iterations,MPC_Optimality_Gap,Command_Vector,Command_Hex,Command_Sent_Time,Total_Active_Thrusters,Thruster_Switches,RW_Torque_X,RW_Torque_Y,RW_Torque_Z,Total_MPC_Loop_Time,Timing_Violation
0,0.0450,0.0450,0.0500,0.050,APPROACHING,0,1000.00,1000.00,1000.00,0.00,0.00,90.00,1.00000,1.00000,1.00000,0.00000,0.00000,1.57080,0.00000,0.00000,0.00000,0.00000,0.00000,0.00000,0.00000,0.00000,0.00000,0.00000,0.00000,0.00000,0.00000,0.00000,0.00000,0.00000,0.00000,0.00000,1.00000,1.00000,1.00000,0.00000,0.00000,-1.57080,0.00000,0.00000,0.00000,0.00000,0.00000,0.00000,0.0000,,,,0.0276,,,,,,"[1.000, 0.000, 0.000, 0.000, 1.000, 0.000]",0x100010,0.0450,2,0,-0.005276,0.005276,0.029886,0.0000,NO
1,0.0950,0.0950,0.0500,0.050,APPROACHING,0,1000.00,999.94,999.94,-0.00,0.00,90.03,1.00000,0.99994,0.99994,-0.00008,0.00008,1.57124,0.00000,-0.00250,-0.00250,-0.00314,0.00314,0.01777,0.00000,0.00000,0.00000,0.00000,0.00000,0.00000,0.00000,0.00000,0.00000,0.00000,0.00000,0.00000,1.00000,0.99994,0.99994,0.00008,-0.00008,-1.57124,-0.00000,0.00250,0.00250,0.00314,-0.00314,-0.01777,0.0000,,,,0.0109,,,,,,"[0.998, 0.000, 0.000, 0.000, 0.998, 0.000]",0x100010,0.0950,2,0,-0.014693,0.014691,0.083217,0.0000,NO
2,0.1450,0.1450,0.0500,0.050,APPROACHING,0,1000.00,999.75,999.75,-0.03,0.03,90.15,1.00000,0.99975,0.99975,-0.00045,0.00045,1.57337,0.00000,-0.00500,-0.00500,-0.01187,0.01187,0.06724,0.00000,0.00000,0.00000,0.00000,0.00000,0.00000,0.00000,0.00000,0.00000,0.00000,0.00000,0.00000,1.00000,0.99975,0.99975,0.00045,-0.00045,-1.57337,-0.00000,0.00500,0.00500,0.01187,-0.01187,-0.06724,0.0000,,,,0.0109,,,,,,"[0.998, 0.000, 0.000, 0.000, 0.998, 0.000]",0x100010,0.1450,2,0,-0.040920,0.040903,0.231728,0.0000,NO
3,0.1950,0.1950,0.0500,0.050,APPROACHING,0,1000.00,999.44,999.44,-0.09,0.10,90.54,1.00000,0.99944,0.99944,-0.00165,0.00166,1.58017,0.00002,-0.00750,-0.00750,-0.03620,0.03619,0.20501,0.00000,0.00000,0.00000,0.00000,0.00000,0.00000,0.00000,0.00000,0.00000,0.00000,0.00000,0.00000,1.00000,0.99944,0.99944,0.00165,-0.00166,-1.58017,-0.00002,0.00750,0.00750,0.03620,-0.03619,-0.20501,0.0000,,,,0.0110,,,,,,"[0.998, 0.000, 0.000, 0.000, 0.998, 0.000]",0x100010,0.1950,2,0,-0.113966,0.113886,0.645289,0.0000,NO
4,0.2450,0.2450,0.0500,0.050,APPROACHING,0,1000.00,999.00,999.00,-0.29,0.30,91.67,1.00000,0.99900,0.99900,-0.00508,0.00523,1.60000,0.00007,-0.01001,-0.00999,-0.10396,0.10390,0.58866,0.00000,0.00000,0.00000,0.00000,0.00000,0.00000,0.00000,0.00000,0.00000,0.00000,0.00000,0.00000,1.00000,0.99900,0.99900,0.00508,-0.00523,-1.60000,-0.00007,0.01001,0.00999,0.10396,-0.10390,-0.58866,0.0000,,,,0.0107,,,,,,"[0.998, 0.000, 0.000, 0.000, 0.998, 0.000]",0x100010,0.2450,2,0,-0.317413,0.317085,1.796935,0.0000,NO
5,0.2950,0.2950,0.0500,0.050,APPROACHING,0,1000.01,998.44,998.44,-0.83,0.90,94.88,1.00001,0.99844,0.99844,-0.01442,0.01569,1.65605,0.00022,-0.01253,-0.01247,-0.29267,0.29241,1.65699,0.00000,0.00000,0.00000,0.00000,0.00000,0.00000,0.00000,0.00000,0.00000,0.00000,0.00000,0.00000,1.00001,0.99844,0.99844,0.01442,-0.01569,-1.65605,-0.00022,0.01253,0.01247,0.29267,-0.29241,-1.65699,0.0000,,,,0.0412,,,,,,"[0.000, 0.000, 0.000, 0.000, 0.000, 0.000]",0x000000,0.2950,0,2,0.000000,0.000000,0.000000,0.0000,NO
6,0.3450,0.3450,0.0500,0.050,APPROACHING,0,1000.02,997.81,997.82,-1.55,1.84,99.61,1.00002,0.99781,0.99782,-0.02709,0.03204,1.73860,0.00022,-0.01253,-0.01247,-0.29267,0.29241,1.65699,0.00000,0.00000,0.00000,0.00000,0.00000,0.00000,0.00000,0.00000,0.00000,0.00000,0.00000,0.00000,1.00002,0.99781,0.99782,0.02709,-0.03204,-1.73860,-0.00022,0.01253,0.01247,0.29267,-0.29241,-1.65699,0.0000,,,,0.0084,,,,,,"[1.000, 0.000, 0.000, 0.000, 1.000, 0.000]",0x100010,0.3450,2,2,-0.884497,0.882842,1.999671,0.0000,NO
7,0.3950,0.3950,0.0500,0.050,APPROACHING,0,1000.05,997.12,997.13,-2.84,3.67,106.01,1.00005,0.99712,0.99713,-0.04961,0.06403,1.85014,0.00085,-0.01505,-0.01485,-0.81722,0.81860,2.84585,0.00000,0.00000,0.00000,0.00000,0.00000,0.00000,0.00000,0.00000,0.00000,0.00000,0.00000,0.00000,1.00005,0.99712,0.99713,0.04961,-0.06403,-1.85014,-0.00085,0.01505,0.01485,0.81722,-0.81860,-2.84585,0.0000,,,,0.0084,,,,,,"[1.000, 0.000, 0.000, 0.000, 1.000, 0.000]",0x100010,0.3950,2,0,-2.000000,2.000000,2.000000,0.0000,NO
8,0.4450,0.4450,0.0500,0.050,APPROACHING,0,1000.11,996.30,996.33,-5.91,8.45,115.57,1.00011,0.99630,0.99633,-0.10308,0.14743,2.01715,0.00196,-0.01755,-0.01710,-2.00023,2.01366,4.03492,0.00000,0.00000,0.00000,0.00000,0.00000,0.00000,0.00000,0.00000,0.00000,0.00000,0.00000,0.00000,1.00011,0.99630,0.99633,0.10308,-0.14743,-2.01715,-0.00196,0.01755,0.01710,2.00023,-2.01366,-4.03492,0.0000,,,,0.0195,,,,,,"[1.000, 0.000, 0.000, 0.000, 1.000, 0.000]",0x100010,0.4450,2,0,-2.000000,2.000000,2.000000,0.0000,NO
9,0.4950,0.4950,0.0500,0.050,APPROACHING,0,1000.25,995.37,995.43,-10.58,17.75,127.93,1.00025,0.99537,0.99543,-0.18471,0.30987,2.23283,0.00377,-0.01991,-0.01898,-3.18324,3.20873,5.22398,0.00000,0.00000,0.00000,0.00000,0.00000,0.00000,0.00000,0.00000,0.00000,0.00000,0.00000,0.00000,1.00025,0.99537,0.99543,0.18471,-0.30987,-2.23283,-0.00377,0.01991,0.01898,3.18324,-3.20873,-5.22398,0.0000,,,,0.0195,,,,,,"[0.000, 0.000, 0.000, 0.000, 1.000, 0.000]",0x000010,0.4950,1,1,-2.000000,2.000000,2.000000,0.0000,NO
10,0.5450,0.5450,0.0500,0.050,APPROACHING,0,1000.47,994.36,994.42,-15.04,32.13,143.14,1.00047,0.99436,0.99442,-0.26251,0.56071,2.49830,0.00486,-0.02021,-0.02121,-4.36626,4.40381,6.41302,0.00000,0.00000,0.00000,0.00000,0.00000,0.00000,0.00000,0.00000,0.00000,0.00000,0.00000,0.00000,1.00047,0.99436,0.99442,0.26251,-0.56071,-2.49830,-0.00486,0.02021,0.02121,4.36626,-4.40381,-6.41302,0.0000,,,,0.0264,,,,,,"[0.000, 0.000, 0.000, 0.000, 1.000, 0.000]",0x000010,0.5450,1,0,-2.000000,2.000000,2.000000,0.0000,NO
11,0.5950,0.5950,0.0500,0.050,APPROACHING,0,1000.75,993.35,993.31,-15.32,51.40,164.00,1.00075,0.99335,0.99331,-0.26744,0.89702,2.86226,0.00654,-0.02032,-0.02303,-5.54929,5.59889,7.60205,0.00000,0.00000,0.00000,0.00000,0.00000,0.00000,0.00000,0.00000,0.00000,0.00000,0.00000,0.00000,1.00075,0.99335,0.99331,0.26744,-0.89702,-2.86226,-0.00654,0.02032,0.02303,5.54929,-5.59889,-7.60205,0.0000,,,,0.0364,,,,,,"[0.000, 0.000, 0.000, 0.000, 0.000, 0.000]",0x000000,0.5950,0,1,-2.000000,2.000000,2.000000,0.0000,NO
12,0.6450,0.6450,0.0500,0.050,APPROACHING,0,1001.08,992.33,992.16,10.37,71.72,-147.64,1.00108,0.99233,0.99216,0.18104,1.25172,-2.57684,0.00654,-0.02032,-0.02303,-6.73232,6.79398,8.79107,0.00000,0.00000,0.00000,0.00000,0.00000,0.00000,0.00000,0.00000,0.00000,0.00000,0.00000,0.00000,1.00108,0.99233,0.99216,-0.18104,-1.25172,2.57684,-0.00654,0.02032,0.02303,6.73232,-6.79398,-8.79107,0.0000,,,,0.0416,,,,,,"[0.000, 0.000, 0.000, 0.000, 0.000, 0.000]",0x000000,0.6450,0,0,0.000000,0.000000,0.000000,0.0000,NO
13,0.6950,0.6950,0.0500,0.050,APPROACHING,0,1001.40,991.32,991.01,81.26,65.19,-52.91,1.00140,0.99132,0.99101,1.41828,1.13784,-0.92340,0.00654,-0.02032,-0.02303,-6.73232,6.79398,8.79107,0.00000,0.00000,0.00000,0.00000,0.00000,0.00000,0.00000,0.00000,0.00000,0.00000,0.00000,0.00000,1.00140,0.99132,0.99101,-1.41828,-1.13784,0.92340,-0.00654,0.02032,0.02303,6.73232,-6.79398,-8.79107,0.0000,,,,0.0032,,,,,,"[0.001, 0.000, 1.000, 0.000, 0.000, 0.000]",0x001000,0.6950,1,1,-2.000000,2.000000,2.000000,0.0000,NO
14,0.7450,0.7450,0.0500,0.050,APPROACHING,0,1001.69,990.33,989.83,90.25,38.85,-15.51,1.00169,0.99033,0.98983,1.57524,0.67801,-0.27066,0.00487,-0.01925,-0.02449,-7.91536,7.98908,9.98008,0.00000,0.00000,0.00000,0.00000,0.00000,0.00000,0.00000,0.00000,0.00000,0.00000,0.00000,0.00000,1.00169,0.99033,0.98983,-1.57524,-0.67801,0.27066,-0.00487,0.01925,0.02449,7.91536,-7.98908,-9.98008,0.0000,,,,0.0416,,,,,,"[0.000, 0.000, 0.000, 0.000, 0.000, 0.000]",0x000000,0.7450,0,1,0.000000,0.000000,0.000000,0.0000,NO
15,0.7950,0.7950,0.0500,0.050,APPROACHING,0,1001.93,989.37,988.60,79.24,12.07,12.25,1.00193,0.98937,0.98860,1.38301,0.21068,0.21373,0.00487,-0.01925,-0.02449,-7.91536,7.98908,9.98008,0.00000,0.00000,0.00000,0.00000,0.00000,0.00000,0.00000,0.00000,0.00000,0.00000,0.00000,0.00000,1.00193,0.98937,0.98860,-1.38301,-0.21068,-0.21373,-0.00487,0.01925,0.02449,7.91536,-7.98908,-9.98008,0.0000,,,,0.0096,,,,,,"[1.000, 0.000, 1.000, 0.000, 0.000, 0.000]",0x101000,0.7950,2,2,-2.000000,2.000000,2.000000,0.0000,NO
16,0.8450,0.8450,0.0500,0.050,APPROACHING,0,1002.12,988.37,987.33,55.48,-6.84,46.20,1.00212,0.98837,0.98733,0.96830,-0.11944,0.80631,0.00298,-0.02110,-0.02670,-9.09840,9.18418,11.16908,0.00000,0.00000,0.00000,0.00000,0.00000,0.00000,0.00000,0.00000,0.00000,0.00000,0.00000,0.00000,1.00212,0.98837,0.98733,-0.96830,0.11944,-0.80631,-0.00298,0.02110,0.02670,9.09840,-9.18418,-11.16908,0.0000,,,,0.0416,,,,,,"[0.000, 0.000, 0.000, 0.000, 0.000, 0.000]",0x000000,0.8450,0,2,0.000000,0.000000,0.000000,0.0000,NO
17,0.8950,0.8950,0.0500,0.050,APPROACHING,0,1002.27,987.31,985.99,23.12,-6.74,87.55,1.00227,0.98731,0.98599,0.40348,-0.11772,1.52805,0.00298,-0.02110,-0.02670,-9.09840,9.18418,11.16908,0.00000,0.00000,0.00000,0.00000,0.00000,0.00000,0.00000,0.00000,0.00000,0.00000,0.00000,0.00000,1.00227,0.98731,0.98599,-0.40348,0.11772,-1.52805,-0.00298,0.02110,0.02670,9.09840,-9.18418,-11.16908,0.0000,,,,0.0264,,,,,,"[1.000, 0.000, 0.000, 0.000, 1.000, 0.000]",0x100010,0.8950,2,2,-2.000000,2.000000,2.000000,0.0000,NO
18,0.9450,0.9450,0.0500,0.050,APPROACHING,0,1002.41,986.20,984.59,-3.05,15.53,125.10,1.00241,0.98620,0.98459,-0.05322,0.27111,2.18346,0.00323,-0.02357,-0.02905,-10.28145,10.37929,12.35806,0.00000,0.00000,0.00000,0.00000,0.00000,0.00000,0.00000,0.00000,0.00000,0.00000,0.00000,0.00000,1.00241,0.98620,0.98459,0.05322,-0.27111,-2.18346,-0.00323,0.02357,0.02905,10.28145,-10.37929,-12.35806,0.0000,,,,0.0416,,,,,,"[0.000, 0.000, 0.000, 0.000, 0.000, 0.000]",0x000000,0.9450,0,2,0.000000,0.000000,0.000000,0.0000,NO
19,0.9950,0.9950,0.0500,0.050,APPROACHING,0,1002.57,985.02,983.14,-12.93,50.88,161.27,1.00257,0.98502,0.98314,-0.22562,0.88802,2.81470,0.00323,-0.02357,-0.02905,-10.28145,10.37929,12.35806,0.00000,0.00000,0.00000,0.00000,0.00000,0.00000,0.00000,0.00000,0.00000,0.00000,0.00000,0.00000,1.00257,0.98502,0.98314,0.22562,-0.88802,-2.81470,-0.00323,0.02357,0.02905,10.28145,-10.37929,-12.35806,0.0000,,,,0.0409,,,,,,"[0.000, 0.000, 0.000, 0.000, 0.000, 0.000]",0x000000,0.9950,0,0,0.000000,0.000000,0.000000,0.0000,NO
20,1.0450,1.0450,0.0500,0.050,APPROACHING,0,1002.73,983.84,981.69,56.58,74.17,-92.58,1.00273,0.98384,0.98169,0.98749,1.29452,-1.61578,0.00323,-0.02357,-0.02905,-10.28145,10.37929,12.35806,0.00000,0.00000,0.00000,0.00000,0.00000,0.00000,0.00000,0.00000,0.00000,0.00000,0.00000,0.00000,1.00273,0.98384,0.98169,-0.98749,-1.29452,1.61578,-0.00323,0.02357,0.02905,10.28145,-10.37929,-12.35806,0.0000,,,,0.0041,,,,,,"[0.000, 0.000, 0.000, 0.000, 0.000, 0.000]",0x000000,1.0450,0,0,-2.000000,2.000000,2.000000,0.0000,NO
21,1.0950,1.0950,0.0500,0.050,APPROACHING,0,1002.90,982.66,980.24,92.76,40.16,-16.16,1.00290,0.98266,0.98024,1.61902,0.70096,-0.28197,0.00323,-0.02357,-0.02905,-11.46450,11.57441,13.54704,0.00000,0.00000,0.00000,0.00000,0.00000,0.00000,0.00000,0.00000,0.00000,0.00000,0.00000,0.00000,1.00290,0.98266,0.98024,-1.61902,-0.70096,0.28197,-0.00323,0.02357,0.02905,11.46450,-11.57441,-13.54704,0.0000,,,,0.0416,,,,,,"[0.000, 0.000, 0.000, 0.000, 0.000, 0.000]",0x000000,1.0950,0,0,0.000000,0.000000,0.000000,0.0000,NO
22,1.1450,1.1450,0.0500,0.050,APPROACHING,0,1003.06,981.48,978.78,73.85,4.45,23.23,1.00306,0.98148,0.97878,1.28895,0.07767,0.40550,0.00323,-0.02357,-0.02905,-11.46450,11.57441,13.54704,0.00000,0.00000,0.00000,0.00000,0.00000,0.00000,0.00000,0.00000,0.00000,0.00000,0.00000,0.00000,1.00306,0.98148,0.97878,-1.28895,-0.07767,-0.40550,-0.00323,0.02357,0.02905,11.46450,-11.57441,-13.54704,0.0000,,,,0.0415,,,,,,"[0.000, 0.000, 0.000, 0.000, 0.000, 0.000]",0x000000,1.1450,0,0,0.000000,0.000000,0.000000,0.0000,NO
23,1.1950,1.1950,0.0500,0.050,APPROACHING,0,1003.22,980.30,977.33,36.56,-9.14,71.81,1.00322,0.98030,0.97733,0.63818,-0.15945,1.25338,0.00323,-0.02357,-0.02905,-11.46450,11.57441,13.54704,0.00000,0.00000,0.00000,0.00000,0.00000,0.00000,0.00000,0.00000,0.00000,0.00000,0.00000,0.00000,1.00322,0.98030,0.97733,-0.63818,0.15945,-1.25338,-0.00323,0.02357,0.02905,11.46450,-11.57441,-13.54704,0.0000,,,,0.0242,,,,,,"[1.000, 0.000, 0.000, 0.000, 1.000, 0.000]",0x100010,1.1950,2,2,-2.000000,2.000000,2.000000,0.0000,NO
24,1.2450,1.2450,0.0500,0.050,APPROACHING,0,1003.35,979.07,975.82,0.59,11.93,120.25,1.00335,0.97907,0.97582,0.01028,0.20816,2.09880,0.00268,-0.02585,-0.03146,-12.64756,12.76953,14.73600,0.00000,0.00000,0.00000,0.00000,0.00000,0.00000,0.00000,0.00000,0.00000,0.00000,0.00000,0.00000,1.00335,0.97907,0.97582,-0.01028,-0.20816,-2.09880,-0.00268,0.02585,0.03146,12.64756,-12.76953,-14.73600,0.0000,,,,0.0416,,,,,,"[0.000, 0.000, 0.000, 0.000, 0.000, 0.000]",0x000000,1.2450,0,2,0.000000,0.000000,0.000000,0.0000,NO
25,1.2950,1.2950,0.0500,0.050,APPROACHING,0,1003.49,977.78,974.25,-11.84,54.26,164.68,1.00349,0.97778,0.97425,-0.20669,0.94694,2.87428,0.00268,-0.02585,-0.03146,-12.64756,12.76953,14.73600,0.00000,0.00000,0.00000,0.00000,0.00000,0.00000,0.00000,0.00000,0.00000,0.00000,0.00000,0.00000,1.00349,0.97778,0.97425,0.20669,-0.94694,-2.87428,-0.00268,0.02585,0.03146,12.64756,-12.76953,-14.73600,0.0000,,,,0.0416,,,,,,"[0.000, 0.000, 0.000, 0.000, 0.000, 0.000]",0x000000,1.2950,0,0,0.000000,0.000000,0.000000,0.0000,NO
26,1.3450,1.3450,0.0500,0.050,APPROACHING,0,1003.62,976.49,972.67,84.01,67.32,-55.14,1.00362,0.97649,0.97267,1.46629,1.17493,-0.96242,0.00268,-0.02585,-0.03146,-12.64756,12.76953,14.73600,0.00000,0.00000,0.00000,0.00000,0.00000,0.00000,0.00000,0.00000,0.00000,0.00000,0.00000,0.00000,1.00362,0.97649,0.97267,-1.46629,-1.17493,0.96242,-0.00268,0.02585,0.03146,12.64756,-12.76953,-14.73600,0.0000,,,,0.0379,,,,,,"[0.000, 0.000, 1.000, 0.000, 0.000, 0.000]",0x001000,1.3450,1,1,-2.000000,2.000000,2.000000,0.0000,NO
27,1.3950,1.3950,0.0500,0.050,APPROACHING,0,1003.71,975.23,971.06,87.61,22.29,1.99,1.00371,0.97523,0.97106,1.52916,0.38903,0.03471,0.00118,-0.02495,-0.03310,-13.83062,13.96466,15.92494,0.00000,0.00000,0.00000,0.00000,0.00000,0.00000,0.00000,0.00000,0.00000,0.00000,0.00000,0.00000,1.00371,0.97523,0.97106,-1.52916,-0.38903,-0.03471,-0.00118,0.02495,0.03310,13.83062,-13.96466,-15.92494,0.0000,,,,0.0416,,,,,,"[0.000, 0.000, 0.000, 0.000, 0.000, 0.000]",0x000000,1.3950,0,1,0.000000,0.000000,0.000000,0.0000,NO
28,1.4450,1.4450,0.0500,0.050,APPROACHING,0,1003.77,973.98,969.41,51.23,-7.87,54.17,1.00377,0.97398,0.96941,0.89411,-0.13740,0.94536,0.00118,-0.02495,-0.03310,-13.83062,13.96466,15.92494,0.00000,0.00000,0.00000,0.00000,0.00000,0.00000,0.00000,0.00000,0.00000,0.00000,0.00000,0.00000,1.00377,0.97398,0.96941,-0.89411,0.13740,-0.94536,-0.00118,0.02495,0.03310,13.83062,-13.96466,-15.92494,0.0000,,,,0.0416,,,,,,"[0.000, 0.000, 0.000, 0.000, 0.000, 0.000]",0x000000,1.4450,0,0,0.000000,0.000000,0.000000,0.0000,NO
29,1.4950,1.4950,0.0500,0.050,APPROACHING,0,1003.83,972.73,967.75,6.54,6.03,111.99,1.00383,0.97273,0.96775,0.11412,0.10533,1.95466,0.00118,-0.02495,-0.03310,-13.83062,13.96466,15.92494,0.00000,0.00000,0.00000,0.00000,0.00000,0.00000,0.00000,0.00000,0.00000,0.00000,0.00000,0.00000,1.00383,0.97273,0.96775,-0.11412,-0.10533,-1.95466,-0.00118,0.02495,0.03310,13.83062,-13.96466,-15.92494,0.0000,,,,0.0416,,,,,,"[0.000, 0.000, 0.000, 0.000, 0.000, 0.000]",0x000000,1.4950,0,0,0.000000,0.000000,0.000000,0.0000,NO
30,1.5450,1.5450,0.0500,0.050,APPROACHING,0,1003.89,971.48,966.10,-11.85,50.11,159.67,1.00389,0.97148,0.96610,-0.20674,0.87453,2.78675,0.00118,-0.02495,-0.03310,-13.83062,13.96466,15.92494,0.00000,0.00000,0.00000,0.00000,0.00000,0.00000,0.00000,0.00000,0.00000,0.00000,0.00000,0.00000,1.00389,0.97148,0.96610,0.20674,-0.87453,-2.78675,-0.00118,0.02495,0.03310,13.83062,-13.96466,-15.92494,0.0000,,,,0.0139,,,,,,"[0.000, 0.000, 0.000, 0.000, 0.000, 0.000]",0x000000,1.5450,0,0,-2.000000,2.000000,2.000000,0.0000,NO
31,1.5950,1.5950,0.0500,0.050,APPROACHING,0,1003.95,970.24,964.44,86.34,65.96,-51.33,1.00395,0.97024,0.96444,1.50683,1.15124,-0.89589,0.00118,-0.02495,-0.03310,-15.01369,15.15979,17.11388,0.00000,0.00000,0.00000,0.00000,0.00000,0.00000,0.00000,0.00000,0.00000,0.00000,0.00000,0.00000,1.00395,0.97024,0.96444,-1.50683,-1.15124,0.89589,-0.00118,0.02495,0.03310,15.01369,-15.15979,-17.11388,0.0000,,,,0.0415,,,,,,"[0.000, 0.000, 0.000, 0.000, 0.000, 0.000]",0x000000,1.5950,0,0,0.000000,0.000000,0.000000,0.0000,NO
32,1.6450,1.6450,0.0500,0.050,APPROACHING,0,1004.01,968.99,962.79,84.09,15.95,9.43,1.00401,0.96899,0.96279,1.46758,0.27840,0.16454,0.00118,-0.02495,-0.03310,-15.01369,15.15979,17.11388,0.00000,0.00000,0.00000,0.00000,0.00000,0.00000,0.00000,0.00000,0.00000,0.00000,0.00000,0.00000,1.00401,0.96899,0.96279,-1.46758,-0.27840,-0.16454,-0.00118,0.02495,0.03310,15.01369,-15.15979,-17.11388,0.0000,,,,0.0415,,,,,,"[0.000, 0.000, 0.000, 0.000, 0.000, 0.000]",0x000000,1.6450,0,0,0.000000,0.000000,0.000000,0.0000,NO
33,1.6950,1.6950,0.0500,0.050,APPROACHING,0,1004.07,967.74,961.13,40.11,-8.71,68.82,1.00407,0.96774,0.96113,0.70004,-0.15194,1.20114,0.00118,-0.02495,-0.03310,-15.01369,15.15979,17.11388,0.00000,0.00000,0.00000,0.00000,0.00000,0.00000,0.00000,0.00000,0.00000,0.00000,0.00000,0.00000,1.00407,0.96774,0.96113,-0.70004,0.15194,-1.20114,-0.00118,0.02495,0.03310,15.01369,-15.15979,-17.11388,0.0000,,,,0.0415,,,,,,"[0.000, 0.000, 0.000, 0.000, 0.000, 0.000]",0x000000,1.6950,0,0,0.000000,0.000000,0.000000,0.0000,NO
34,1.7450,1.7450,0.0500,0.050,APPROACHING,0,1004.13,966.50,959.48,-2.54,18.37,127.33,1.00413,0.96650,0.95948,-0.04428,0.32055,2.22237,0.00118,-0.02495,-0.03310,-15.01369,15.15979,17.11388,0.00000,0.00000,0.00000,0.00000,0.00000,0.00000,0.00000,0.00000,0.00000,0.00000,0.00000,0.00000,1.00413,0.96650,0.95948,0.04428,-0.32055,-2.22237,-0.00118,0.02495,0.03310,15.01369,-15.15979,-17.11388,0.0000,,,,0.0415,,,,,,"[0.000, 0.000, 0.000, 0.000, 0.000, 0.000]",0x000000,1.7450,0,0,0.000000,0.000000,0.000000,0.0000,NO
35,1.7950,1.7950,0.0500,0.050,APPROACHING,0,1004.19,965.25,957.82,0.55,68.36,-167.94,1.00419,0.96525,0.95782,0.00961,1.19312,-2.93117,0.00118,-0.02495,-0.03310,-15.01369,15.15979,17.11388,0.00000,0.00000,0.00000,0.00000,0.00000,0.00000,0.00000,0.00000,0.00000,0.00000,0.00000,0.00000,1.00419,0.96525,0.95782,-0.00961,-1.19312,2.93117,-0.00118,0.02495,0.03310,15.01369,-15.15979,-17.11388,0.0000,,,,0.0042,,,,,,"[0.000, 0.000, 0.000, 0.000, 0.000, 0.000]",0x000000,1.7950,0,0,-2.000000,2.000000,2.000000,0.0000,NO
36,1.8450,1.8450,0.0500,0.050,APPROACHING,0,1004.25,964.00,956.17,94.61,43.46,-18.20,1.00425,0.96400,0.95617,1.65129,0.75858,-0.31764,0.00118,-0.02495,-0.03310,-16.19676,16.35494,18.30281,0.00000,0.00000,0.00000,0.00000,0.00000,0.00000,0.00000,0.00000,0.00000,0.00000,0.00000,0.00000,1.00425,0.96400,0.95617,-1.65129,-0.75858,0.31764,-0.00118,0.02495,0.03310,16.19676,-16.35494,-18.30281,0.0000,,,,0.0416,,,,,,"[0.000, 0.000, 0.000, 0.000, 0.000, 0.000]",0x000000,1.8450,0,0,0.000000,0.000000,0.000000,0.0000,NO
37,1.8950,1.8950,0.0500,0.050,APPROACHING,0,1004.31,962.75,954.51,64.69,-2.42,38.11,1.00431,0.96275,0.95451,1.12909,-0.04222,0.66522,0.00118,-0.02495,-0.03310,-16.19676,16.35494,18.30281,0.00000,0.00000,0.00000,0.00000,0.00000,0.00000,0.00000,0.00000,0.00000,0.00000,0.00000,0.00000,1.00431,0.96275,0.95451,-1.12909,0.04222,-0.66522,-0.00118,0.02495,0.03310,16.19676,-16.35494,-18.30281,0.0000,,,,0.0416,,,,,,"[0.000, 0.000, 0.000, 0.000, 0.000, 0.000]",0x000000,1.8950,0,0,0.000000,0.000000,0.000000,0.0000,NO
38,1.9450,1.9450,0.0500,0.050,APPROACHING,0,1004.37,961.51,952.86,11.73,2.40,106.05,1.00437,0.96151,0.95286,0.20471,0.04193,1.85095,0.00118,-0.02495,-0.03310,-16.19676,16.35494,18.30281,0.00000,0.00000,0.00000,0.00000,0.00000,0.00000,0.00000,0.00000,0.00000,0.00000,0.00000,0.00000,1.00437,0.96151,0.95286,-0.20471,-0.04193,-1.85095,-0.00118,0.02495,0.03310,16.19676,-16.35494,-18.30281,0.0000,,,,0.0416,,,,,,"[0.000, 0.000, 0.000, 0.000, 0.000, 0.000]",0x000000,1.9450,0,0,0.000000,0.000000,0.000000,0.0000,NO
39,1.9950,1.9950,0.0500,0.050,APPROACHING,0,1004.42,960.26,951.20,-10.98,52.08,162.42,1.00442,0.96026,0.95120,-0.19158,0.90899,2.83469,0.00118,-0.02495,-0.03310,-16.19676,16.35494,18.30281,0.00000,0.00000,0.00000,0.00000,0.00000,0.00000,0.00000,0.00000,0.00000,0.00000,0.00000,0.00000,1.00442,0.96026,0.95120,0.19158,-0.90899,-2.83469,-0.00118,0.02495,0.03310,16.19676,-16.35494,-18.30281,0.0000,,,,0.0415,,,,,,"[0.000, 0.000, 0.000, 0.000, 0.000, 0.000]",0x000000,1.9950,0,0,0.000000,0.000000,0.000000,0.0000,NO
40,2.0450,2.0450,0.0500,0.050,APPROACHING,0,1004.48,959.01,949.55,92.54,58.71,-37.07,1.00448,0.95901,0.94955,1.61516,1.02461,-0.64699,0.00118,-0.02495,-0.03310,-16.19676,16.35494,18.30281,0.00000,0.00000,0.00000,0.00000,0.00000,0.00000,0.00000,0.00000,0.00000,0.00000,0.00000,0.00000,1.00448,0.95901,0.94955,-1.61516,-1.02461,0.64699,-0.00118,0.02495,0.03310,16.19676,-16.35494,-18.30281,0.0000,,,,0.0234,,,,,,"[0.000, 0.000, 1.000, 0.000, 0.000, 0.000]",0x001000,2.0450,1,1,-2.000000,2.000000,2.000000,0.0000,NO
41,2.0950,2.0950,0.0500,0.050,APPROACHING,0,1004.51,957.78,947.85,75.42,5.68,23.48,1.00451,0.95778,0.94785,1.31637,0.09909,0.40973,-0.00000,-0.02461,-0.03510,-17.37984,17.55009,19.49172,0.00000,0.00000,0.00000,0.00000,0.00000,0.00000,0.00000,0.00000,0.00000,0.00000,0.00000,0.00000,1.00451,0.95778,0.94785,-1.31637,-0.09909,-0.40973,0.00000,0.02461,0.03510,17.37984,-17.55009,-19.49172,0.0000,,,,0.0416,,,,,,"[0.000, 0.000, 0.000, 0.000, 0.000, 0.000]",0x000000,2.0950,0,1,0.000000,0.000000,0.000000,0.0000,NO
42,2.1450,2.1450,0.0500,0.050,APPROACHING,0,1004.51,956.55,946.09,19.79,-2.50,95.44,1.00451,0.95655,0.94609,0.34543,-0.04355,1.66580,-0.00000,-0.02461,-0.03510,-17.37984,17.55009,19.49172,0.00000,0.00000,0.00000,0.00000,0.00000,0.00000,0.00000,0.00000,0.00000,0.00000,0.00000,0.00000,1.00451,0.95655,0.94609,-0.34543,0.04355,-1.66580,0.00000,0.02461,0.03510,17.37984,-17.55009,-19.49172,0.0000,,,,0.0415,,,,,,"[0.000, 0.000, 0.000, 0.000, 0.000, 0.000]",0x000000,2.1450,0,0,0.000000,0.000000,0.000000,0.0000,NO
43,2.1950,2.1950,0.0500,0.050,APPROACHING,0,1004.51,955.32,944.34,-10.89,46.76,156.12,1.00451,0.95532,0.94434,-0.19000,0.81611,2.72485,-0.00000,-0.02461,-0.03510,-17.37984,17.55009,19.49172,0.00000,0.00000,0.00000,0.00000,0.00000,0.00000,0.00000,0.00000,0.00000,0.00000,0.00000,0.00000,1.00451,0.95532,0.94434,0.19000,-0.81611,-2.72485,0.00000,0.02461,0.03510,17.37984,-17.55009,-19.49172,0.0000,,,,0.0416,,,,,,"[0.000, 0.000, 0.000, 0.000, 0.000, 0.000]",0x000000,2.1950,0,0,0.000000,0.000000,0.000000,0.0000,NO
44,2.2450,2.2450,0.0500,0.050,APPROACHING,0,1004.51,954.09,942.58,91.79,60.14,-39.60,1.00451,0.95409,0.94258,1.60205,1.04962,-0.69117,-0.00000,-0.02461,-0.03510,-17.37984,17.55009,19.49172,0.00000,0.00000,0.00000,0.00000,0.00000,0.00000,0.00000,0.00000,0.00000,0.00000,0.00000,0.00000,1.00451,0.95409,0.94258,-1.60205,-1.04962,0.69117,0.00000,0.02461,0.03510,17.37984,-17.55009,-19.49172,0.0000,,,,0.0415,,,,,,"[0.000, 0.000, 0.000, 0.000, 0.000, 0.000]",0x000000,2.2450,0,0,0.000000,0.000000,0.000000,0.0000,NO
45,2.2950,2.2950,0.0500,0.050,APPROACHING,0,1004.51,952.86,940.83,75.15,5.42,23.86,1.00451,0.95286,0.94083,1.31170,0.09468,0.41648,-0.00000,-0.02461,-0.03510,-17.37984,17.55009,19.49172,0.00000,0.00000,0.00000,0.00000,0.00000,0.00000,0.00000,0.00000,0.00000,0.00000,0.00000,0.00000,1.00451,0.95286,0.94083,-1.31170,-0.09468,-0.41648,0.00000,0.02461,0.03510,17.37984,-17.55009,-19.49172,0.0000,,,,0.0415,,,,,,"[0.000, 0.000, 0.000, 0.000, 0.000, 0.000]",0x000000,2.2950,0,0,0.000000,0.000000,0.000000,0.0000,NO
46,2.3450,2.3450,0.0500,0.050,APPROACHING,0,1004.51,951.63,939.07,19.47,-2.32,95.87,1.00451,0.95163,0.93907,0.33979,-0.04050,1.67324,-0.00000,-0.02461,-0.03510,-17.37984,17.55009,19.49172,0.00000,0.00000,0.00000,0.00000,0.00000,0.00000,0.00000,0.00000,0.00000,0.00000,0.00000,0.00000,1.00451,0.95163,0.93907,-0.33979,0.04050,-1.67324,0.00000,0.02461,0.03510,17.37984,-17.55009,-19.49172,0.0000,,,,0.0042,,,,,,"[1.000, 0.000, 0.000, 0.000, 1.000, 0.000]",0x100010,2.3450,2,2,-2.000000,2.000000,2.000000,0.0000,NO
47,2.3950,2.3950,0.0500,0.050,APPROACHING,0,1004.53,950.34,937.27,-11.00,49.17,158.57,1.00453,0.95034,0.93727,-0.19203,0.85821,2.76762,0.00161,-0.02687,-0.03662,-18.56293,18.74524,20.68062,0.00000,0.00000,0.00000,0.00000,0.00000,0.00000,0.00000,0.00000,0.00000,0.00000,0.00000,0.00000,1.00453,0.95034,0.93727,0.19203,-0.85821,-2.76762,-0.00161,0.02687,0.03662,18.56293,-18.74524,-20.68062,0.0000,,,,0.0416,,,,,,"[0.000, 0.000, 0.000, 0.000, 0.000, 0.000]",0x000000,2.3950,0,2,0.000000,0.000000,0.000000,0.0000,NO
48,2.4450,2.4450,0.0500,0.050,APPROACHING,0,1004.61,948.99,935.44,94.78,54.09,-30.07,1.00461,0.94899,0.93544,1.65427,0.94412,-0.52484,0.00161,-0.02687,-0.03662,-18.56293,18.74524,20.68062,0.00000,0.00000,0.00000,0.00000,0.00000,0.00000,0.00000,0.00000,0.00000,0.00000,0.00000,0.00000,1.00461,0.94899,0.93544,-1.65427,-0.94412,0.52484,-0.00161,0.02687,0.03662,18.56293,-18.74524,-20.68062,0.0000,,,,0.0415,,,,,,"[0.000, 0.000, 0.000, 0.000, 0.000, 0.000]",0x000000,2.4450,0,0,0.000000,0.000000,0.000000,0.0000,NO
49,2.4950,2.4950,0.0500,0.050,APPROACHING,0,1004.69,947.65,933.61,67.38,-0.85,35.14,1.00469,0.94765,0.93361,1.17600,-0.01483,0.61335,0.00161,-0.02687,-0.03662,-18.56293,18.74524,20.68062,0.00000,0.00000,0.00000,0.00000,0.00000,0.00000,0.00000,0.00000,0.00000,0.00000,0.00000,0.00000,1.00469,0.94765,0.93361,-1.17600,0.01483,-0.61335,-0.00161,0.02687,0.03662,18.56293,-18.74524,-20.68062,0.0000,,,,0.0415,,,,,,"[0.000, 0.000, 0.000, 0.000, 0.000, 0.000]",0x000000,2.4950,0,0,0.000000,0.000000,0.000000,0.0000,NO
50,2.5450,2.5450,0.0500,0.050,APPROACHING,0,1004.77,946.31,931.78,8.25,6.04,111.45,1.00477,0.94631,0.93178,0.14393,0.10536,1.94516,0.00161,-0.02687,-0.03662,-18.56293,18.74524,20.68062,0.00000,0.00000,0.00000,0.00000,0.00000,0.00000,0.00000,0.00000,0.00000,0.00000,0.00000,0.00000,1.00477,0.94631,0.93178,-0.14393,-0.10536,-1.94516,-0.00161,0.02687,0.03662,18.56293,-18.74524,-20.68062,0.0000,,,,0.0415,,,,,,"[0.000, 0.000, 0.000, 0.000, 0.000, 0.000]",0x000000,2.5450,0,0,0.000000,0.000000,0.000000,0.0000,NO
51,2.5950,2.5950,0.0500,0.050,APPROACHING,0,1004.85,944.96,929.95,-4.30,64.79,-177.66,1.00485,0.94496,0.92995,-0.07510,1.13083,-3.10078,0.00161,-0.02687,-0.03662,-18.56293,18.74524,20.68062,0.00000,0.00000,0.00000,0.00000,0.00000,0.00000,0.00000,0.00000,0.00000,0.00000,0.00000,0.00000,1.00485,0.94496,0.92995,0.07510,-1.13083,3.10078,-0.00161,0.02687,0.03662,18.56293,-18.74524,-20.68062,0.0000,,,,0.0416,,,,,,"[0.000, 0.000, 0.000, 0.000, 0.000, 0.000]",0x000000,2.5950,0,0,0.000000,0.000000,0.000000,0.0000,NO
52,2.6450,2.6450,0.0500,0.050,APPROACHING,0,1004.93,943.62,928.11,94.18,38.08,-12.42,1.00493,0.94362,0.92811,1.64370,0.66462,-0.21675,0.00161,-0.02687,-0.03662,-18.56293,18.74524,20.68062,0.00000,0.00000,0.00000,0.00000,0.00000,0.00000,0.00000,0.00000,0.00000,0.00000,0.00000,0.00000,1.00493,0.94362,0.92811,-1.64370,-0.66462,0.21675,-0.00161,0.02687,0.03662,18.56293,-18.74524,-20.68062,0.0000,,,,0.0351,,,,,,"[1.000, 0.000, 1.000, 0.000, 0.000, 0.000]",0x101000,2.6450,2,2,-2.000000,2.000000,2.000000,0.0000,NO
53,2.6950,2.6950,0.0500,0.050,APPROACHING,0,1004.94,942.27,926.25,50.62,-7.29,56.72,1.00494,0.94227,0.92625,0.88346,-0.12732,0.99001,-0.00081,-0.02789,-0.03831,-19.74602,19.94040,21.86951,0.00000,0.00000,0.00000,0.00000,0.00000,0.00000,0.00000,0.00000,0.00000,0.00000,0.00000,0.00000,1.00494,0.94227,0.92625,-0.88346,0.12732,-0.99001,0.00081,0.02789,0.03831,19.74602,-19.94040,-21.86951,0.0000,,,,0.0415,,,,,,"[0.000, 0.000, 0.000, 0.000, 0.000, 0.000]",0x000000,2.6950,0,2,0.000000,0.000000,0.000000,0.0000,NO
54,2.7450,2.7450,0.0500,0.050,APPROACHING,0,1004.90,940.87,924.33,-4.53,24.20,132.84,1.00490,0.94087,0.92433,-0.07899,0.42232,2.31848,-0.00081,-0.02789,-0.03831,-19.74602,19.94040,21.86951,0.00000,0.00000,0.00000,0.00000,0.00000,0.00000,0.00000,0.00000,0.00000,0.00000,0.00000,0.00000,1.00490,0.94087,0.92433,0.07899,-0.42232,-2.31848,0.00081,0.02789,0.03831,19.74602,-19.94040,-21.86951,0.0000,,,,0.0415,,,,,,"[0.000, 0.000, 0.000, 0.000, 0.000, 0.000]",0x000000,2.7450,0,0,0.000000,0.000000,0.000000,0.0000,NO
55,2.7950,2.7950,0.0500,0.050,APPROACHING,0,1004.86,939.48,922.42,69.52,73.11,-78.16,1.00486,0.93948,0.92242,1.21337,1.27603,-1.36422,-0.00081,-0.02789,-0.03831,-19.74602,19.94040,21.86951,0.00000,0.00000,0.00000,0.00000,0.00000,0.00000,0.00000,0.00000,0.00000,0.00000,0.00000,0.00000,1.00486,0.93948,0.92242,-1.21337,-1.27603,1.36422,0.00081,0.02789,0.03831,19.74602,-19.94040,-21.86951,0.0000,,,,0.0415,,,,,,"[0.000, 0.000, 0.000, 0.000, 0.000, 0.000]",0x000000,2.7950,0,0,0.000000,0.000000,0.000000,0.0000,NO
56,2.8450,2.8450,0.0500,0.050,APPROACHING,0,1004.82,938.08,920.50,80.88,11.19,15.97,1.00482,0.93808,0.92050,1.41169,0.19523,0.27878,-0.00081,-0.02789,-0.03831,-19.74602,19.94040,21.86951,0.00000,0.00000,0.00000,0.00000,0.00000,0.00000,0.00000,0.00000,0.00000,0.00000,0.00000,0.00000,1.00482,0.93808,0.92050,-1.41169,-0.19523,-0.27878,0.00081,0.02789,0.03831,19.74602,-19.94040,-21.86951,0.0000,,,,0.0415,,,,,,"[0.000, 0.000, 0.000, 0.000, 0.000, 0.000]",0x000000,2.8450,0,0,0.000000,0.000000,0.000000,0.0000,NO
57,2.8950,2.8950,0.0500,0.050,APPROACHING,0,1004.78,936.69,918.59,19.69,-2.16,95.84,1.00478,0.93669,0.91859,0.34366,-0.03777,1.67280,-0.00081,-0.02789,-0.03831,-19.74602,19.94040,21.86951,0.00000,0.00000,0.00000,0.00000,0.00000,0.00000,0.00000,0.00000,0.00000,0.00000,0.00000,0.00000,1.00478,0.93669,0.91859,-0.34366,0.03777,-1.67280,0.00081,0.02789,0.03831,19.74602,-19.94040,-21.86951,0.0000,,,,0.0415,,,,,,"[0.000, 0.000, 0.000, 0.000, 0.000, 0.000]",0x000000,2.8950,0,0,0.000000,0.000000,0.000000,0.0000,NO
58,2.9450,2.9450,0.0500,0.050,APPROACHING,0,1004.74,935.29,916.67,-9.95,55.17,165.75,1.00474,0.93529,0.91667,-0.17359,0.96295,2.89290,-0.00081,-0.02789,-0.03831,-19.74602,19.94040,21.86951,0.00000,0.00000,0.00000,0.00000,0.00000,0.00000,0.00000,0.00000,0.00000,0.00000,0.00000,0.00000,1.00474,0.93529,0.91667,0.17359,-0.96295,-2.89290,0.00081,0.02789,0.03831,19.74602,-19.94040,-21.86951,0.0000,,,,0.0415,,,,,,"[0.000, 0.000, 0.000, 0.000, 0.000, 0.000]",0x000000,2.9450,0,0,0.000000,0.000000,0.000000,0.0000,NO
59,2.9950,2.9950,0.0500,0.050,APPROACHING,0,1004.70,933.90,914.76,95.33,44.25,-18.80,1.00470,0.93390,0.91476,1.66387,0.77236,-0.32820,-0.00081,-0.02789,-0.03831,-19.74602,19.94040,21.86951,0.00000,0.00000,0.00000,0.00000,0.00000,0.00000,0.00000,0.00000,0.00000,0.00000,0.00000,0.00000,1.00470,0.93390,0.91476,-1.66387,-0.77236,0.32820,0.00081,0.02789,0.03831,19.74602,-19.94040,-21.86951,0.0000,,,,0.0206,,,,,,"[0.000, 0.000, 1.000, 0.000, 0.000, 0.000]",0x001000,2.9950,1,1,-2.000000,2.000000,2.000000,0.0000,NO
60,3.0450,3.0450,0.0500,0.050,APPROACHING,0,1004.63,932.51,912.79,52.98,-6.68,53.79,1.00463,0.93251,0.91279,0.92464,-0.11665,0.93873,-0.00127,-0.02811,-0.04053,-20.92911,21.13557,23.05838,0.00000,0.00000,0.00000,0.00000,0.00000,0.00000,0.00000,0.00000,0.00000,0.00000,0.00000,0.00000,1.00463,0.93251,0.91279,-0.92464,0.11665,-0.93873,0.00127,0.02811,0.04053,20.92911,-21.13557,-23.05838,0.0000,,,,0.0561,,,,,,"[0.000, 0.000, 0.000, 0.000, 0.000, 0.000]",0x000000,3.0450,0,1,0.000000,0.000000,0.000000,0.0000,NO
61,3.0950,3.0950,0.0500,0.050,APPROACHING,0,1004.57,931.10,910.76,-5.05,25.81,134.22,1.00457,0.93110,0.91076,-0.08817,0.45041,2.34262,-0.00127,-0.02811,-0.04053,-20.92911,21.13557,23.05838,0.00000,0.00000,0.00000,0.00000,0.00000,0.00000,0.00000,0.00000,0.00000,0.00000,0.00000,0.00000,1.00457,0.93110,0.91076,0.08817,-0.45041,-2.34262,0.00127,0.02811,0.04053,20.92911,-21.13557,-23.05838,0.0000,,,,0.0415,,,,,,"[0.000, 0.000, 0.000, 0.000, 0.000, 0.000]",0x000000,3.0950,0,0,0.000000,0.000000,0.000000,0.0000,NO
62,3.1450,3.1450,0.0500,0.050,APPROACHING,0,1004.50,929.70,908.73,82.12,69.23,-60.23,1.00450,0.92970,0.90873,1.43335,1.20828,-1.05117,-0.00127,-0.02811,-0.04053,-20.92911,21.13557,23.05838,0.00000,0.00000,0.00000,0.00000,0.00000,0.00000,0.00000,0.00000,0.00000,0.00000,0.00000,0.00000,1.00450,0.92970,0.90873,-1.43335,-1.20828,1.05117,0.00127,0.02811,0.04053,20.92911,-21.13557,-23.05838,0.0000,,,,0.0415,,,,,,"[0.000, 0.000, 0.000, 0.000, 0.000, 0.000]",0x000000,3.1450,0,0,0.000000,0.000000,0.000000,0.0000,NO
63,3.1950,3.1950,0.0500,0.050,APPROACHING,0,1004.44,928.29,906.71,74.35,4.44,25.65,1.00444,0.92829,0.90671,1.29768,0.07757,0.44765,-0.00127,-0.02811,-0.04053,-20.92911,21.13557,23.05838,0.00000,0.00000,0.00000,0.00000,0.00000,0.00000,0.00000,0.00000,0.00000,0.00000,0.00000,0.00000,1.00444,0.92829,0.90671,-1.29768,-0.07757,-0.44765,0.00127,0.02811,0.04053,20.92911,-21.13557,-23.05838,0.0000,,,,0.0416,,,,,,"[0.000, 0.000, 0.000, 0.000, 0.000, 0.000]",0x000000,3.1950,0,0,0.000000,0.000000,0.000000,0.0000,NO
64,3.2450,3.2450,0.0500,0.050,APPROACHING,0,1004.38,926.88,904.68,9.08,5.89,110.45,1.00438,0.92688,0.90468,0.15843,0.10279,1.92764,-0.00127,-0.02811,-0.04053,-20.92911,21.13557,23.05838,0.00000,0.00000,0.00000,0.00000,0.00000,0.00000,0.00000,0.00000,0.00000,0.00000,0.00000,0.00000,1.00438,0.92688,0.90468,-0.15843,-0.10279,-1.92764,0.00127,0.02811,0.04053,20.92911,-21.13557,-23.05838,0.0000,,,,0.0416,,,,,,"[0.000, 0.000, 0.000, 0.000, 0.000, 0.000]",0x000000,3.2450,0,0,0.000000,0.000000,0.000000,0.0000,NO
65,3.2950,3.2950,0.0500,0.050,APPROACHING,0,1004.31,925.48,902.65,6.95,70.87,-159.72,1.00431,0.92548,0.90265,0.12129,1.23683,-2.78766,-0.00127,-0.02811,-0.04053,-20.92911,21.13557,23.05838,0.00000,0.00000,0.00000,0.00000,0.00000,0.00000,0.00000,0.00000,0.00000,0.00000,0.00000,0.00000,1.00431,0.92548,0.90265,-0.12129,-1.23683,2.78766,0.00127,0.02811,0.04053,20.92911,-21.13557,-23.05838,0.0000,,,,0.0415,,,,,,"[0.000, 0.000, 0.000, 0.000, 0.000, 0.000]",0x000000,3.2950,0,0,0.000000,0.000000,0.000000,0.0000,NO
66,3.3450,3.3450,0.0500,0.050,APPROACHING,0,1004.25,924.07,900.63,89.12,23.85,1.62,1.00425,0.92407,0.90063,1.55545,0.41618,0.02822,-0.00127,-0.02811,-0.04053,-20.92911,21.13557,23.05838,0.00000,0.00000,0.00000,0.00000,0.00000,0.00000,0.00000,0.00000,0.00000,0.00000,0.00000,0.00000,1.00425,0.92407,0.90063,-1.55545,-0.41618,-0.02822,0.00127,0.02811,0.04053,20.92911,-21.13557,-23.05838,0.0000,,,,0.0415,,,,,,"[0.000, 0.000, 0.000, 0.000, 0.000, 0.000]",0x000000,3.3450,0,0,0.000000,0.000000,0.000000,0.0000,NO
67,3.3950,3.3950,0.0500,0.050,APPROACHING,0,1004.19,922.67,898.60,29.95,-6.15,82.69,1.00419,0.92267,0.89860,0.52277,-0.10732,1.44313,-0.00127,-0.02811,-0.04053,-20.92911,21.13557,23.05838,0.00000,0.00000,0.00000,0.00000,0.00000,0.00000,0.00000,0.00000,0.00000,0.00000,0.00000,0.00000,1.00419,0.92267,0.89860,-0.52277,0.10732,-1.44313,0.00127,0.02811,0.04053,20.92911,-21.13557,-23.05838,0.0000,,,,0.0116,,,,,,"[1.000, 0.000, 0.000, 0.000, 1.000, 0.000]",0x100010,3.3950,2,2,-2.000000,2.000000,2.000000,0.0000,NO
68,3.4450,3.4450,0.0500,0.050,APPROACHING,0,1004.13,921.20,896.52,-10.64,50.31,159.21,1.00413,0.92120,0.89652,-0.18573,0.87802,2.77876,-0.00014,-0.03037,-0.04218,-22.11221,22.33075,24.24725,0.00000,0.00000,0.00000,0.00000,0.00000,0.00000,0.00000,0.00000,0.00000,0.00000,0.00000,0.00000,1.00413,0.92120,0.89652,0.18573,-0.87802,-2.77876,0.00014,0.03037,0.04218,22.11221,-22.33075,-24.24725,0.0000,,,,0.0415,,,,,,"[0.000, 0.000, 0.000, 0.000, 0.000, 0.000]",0x000000,3.4450,0,2,0.000000,0.000000,0.000000,0.0000,NO
69,3.4950,3.4950,0.0500,0.050,APPROACHING,0,1004.12,919.68,894.41,95.37,41.48,-15.78,1.00412,0.91968,0.89441,1.66460,0.72395,-0.27538,-0.00014,-0.03037,-0.04218,-22.11221,22.33075,24.24725,0.00000,0.00000,0.00000,0.00000,0.00000,0.00000,0.00000,0.00000,0.00000,0.00000,0.00000,0.00000,1.00412,0.91968,0.89441,-1.66460,-0.72395,0.27538,0.00014,0.03037,0.04218,22.11221,-22.33075,-24.24725,0.0000,,,,0.0415,,,,,,"[0.000, 0.000, 0.000, 0.000, 0.000, 0.000]",0x000000,3.4950,0,0,0.000000,0.000000,0.000000,0.0000,NO
70,3.5450,3.5450,0.0500,0.050,APPROACHING,0,1004.11,918.16,892.30,44.52,-7.88,64.61,1.00411,0.91816,0.89230,0.77704,-0.13762,1.12774,-0.00014,-0.03037,-0.04218,-22.11221,22.33075,24.24725,0.00000,0.00000,0.00000,0.00000,0.00000,0.00000,0.00000,0.00000,0.00000,0.00000,0.00000,0.00000,1.00411,0.91816,0.89230,-0.77704,0.13762,-1.12774,0.00014,0.03037,0.04218,22.11221,-22.33075,-24.24725,0.0000,,,,0.0415,,,,,,"[0.000, 0.000, 0.000, 0.000, 0.000, 0.000]",0x000000,3.5450,0,0,0.000000,0.000000,0.000000,0.0000,NO
71,3.5950,3.5950,0.0500,0.050,APPROACHING,0,1004.11,916.65,890.20,-9.32,37.81,146.01,1.00411,0.91665,0.89020,-0.16271,0.65985,2.54836,-0.00014,-0.03037,-0.04218,-22.11221,22.33075,24.24725,0.00000,0.00000,0.00000,0.00000,0.00000,0.00000,0.00000,0.00000,0.00000,0.00000,0.00000,0.00000,1.00411,0.91665,0.89020,0.16271,-0.65985,-2.54836,0.00014,0.03037,0.04218,22.11221,-22.33075,-24.24725,0.0000,,,,0.0415,,,,,,"[0.000, 0.000, 0.000, 0.000, 0.000, 0.000]",0x000000,3.5950,0,0,0.000000,0.000000,0.000000,0.0000,NO
72,3.6450,3.6450,0.0500,0.050,APPROACHING,0,1004.10,915.13,888.09,95.45,54.01,-29.85,1.00410,0.91513,0.88809,1.66593,0.94273,-0.52090,-0.00014,-0.03037,-0.04218,-22.11221,22.33075,24.24725,0.00000,0.00000,0.00000,0.00000,0.00000,0.00000,0.00000,0.00000,0.00000,0.00000,0.00000,0.00000,1.00410,0.91513,0.88809,-1.66593,-0.94273,0.52090,0.00014,0.03037,0.04218,22.11221,-22.33075,-24.24725,0.0000,,,,0.0415,,,,,,"[0.000, 0.000, 0.000, 0.000, 0.000, 0.000]",0x000000,3.6450,0,0,0.000000,0.000000,0.000000,0.0000,NO
73,3.6950,3.6950,0.0500,0.050,APPROACHING,0,1004.09,913.61,885.98,56.95,-5.67,49.02,1.00409,0.91361,0.88598,0.99392,-0.09895,0.85554,-0.00014,-0.03037,-0.04218,-22.11221,22.33075,24.24725,0.00000,0.00000,0.00000,0.00000,0.00000,0.00000,0.00000,0.00000,0.00000,0.00000,0.00000,0.00000,1.00409,0.91361,0.88598,-0.99392,0.09895,-0.85554,0.00014,0.03037,0.04218,22.11221,-22.33075,-24.24725,0.0000,,,,0.0415,,,,,,"[0.000, 0.000, 0.000, 0.000, 0.000, 0.000]",0x000000,3.6950,0,0,0.000000,0.000000,0.000000,0.0000,NO
74,3.7450,3.7450,0.0500,0.050,APPROACHING,0,1004.09,912.09,883.87,-5.05,25.80,134.15,1.00409,0.91209,0.88387,-0.08812,0.45037,2.34140,-0.00014,-0.03037,-0.04218,-22.11221,22.33075,24.24725,0.00000,0.00000,0.00000,0.00000,0.00000,0.00000,0.00000,0.00000,0.00000,0.00000,0.00000,0.00000,1.00409,0.91209,0.88387,0.08812,-0.45037,-2.34140,0.00014,0.03037,0.04218,22.11221,-22.33075,-24.24725,0.0000,,,,0.0415,,,,,,"[0.000, 0.000, 0.000, 0.000, 0.000, 0.000]",0x000000,3.7450,0,0,0.000000,0.000000,0.000000,0.0000,NO
75,3.7950,3.7950,0.0500,0.050,APPROACHING,0,1004.08,910.57,881.76,88.10,66.02,-50.37,1.00408,0.91057,0.88176,1.53762,1.15228,-0.87918,-0.00014,-0.03037,-0.04218,-22.11221,22.33075,24.24725,0.00000,0.00000,0.00000,0.00000,0.00000,0.00000,0.00000,0.00000,0.00000,0.00000,0.00000,0.00000,1.00408,0.91057,0.88176,-1.53762,-1.15228,0.87918,0.00014,0.03037,0.04218,22.11221,-22.33075,-24.24725,0.0000,,,,0.0300,,,,,,"[0.000, 0.000, 1.000, 0.000, 0.000, 0.000]",0x001000,3.7950,1,1,-2.000000,2.000000,2.000000,0.0000,NO
76,3.8450,3.8450,0.0500,0.050,APPROACHING,0,1004.04,909.07,879.61,66.63,-1.23,36.58,1.00404,0.90907,0.87961,1.16291,-0.02142,0.63837,-0.00118,-0.03000,-0.04412,-23.29531,23.52593,25.43610,0.00000,0.00000,0.00000,0.00000,0.00000,0.00000,0.00000,0.00000,0.00000,0.00000,0.00000,0.00000,1.00404,0.90907,0.87961,-1.16291,0.02142,-0.63837,0.00118,0.03000,0.04412,23.29531,-23.52593,-25.43610,0.0000,,,,0.0416,,,,,,"[0.000, 0.000, 0.000, 0.000, 0.000, 0.000]",0x000000,3.8450,0,1,0.000000,0.000000,0.000000,0.0000,NO
77,3.8950,3.8950,0.0500,0.050,APPROACHING,0,1003.98,907.57,877.40,-1.73,19.96,127.89,1.00398,0.90757,0.87740,-0.03026,0.34830,2.23217,-0.00118,-0.03000,-0.04412,-23.29531,23.52593,25.43610,0.00000,0.00000,0.00000,0.00000,0.00000,0.00000,0.00000,0.00000,0.00000,0.00000,0.00000,0.00000,1.00398,0.90757,0.87740,0.03026,-0.34830,-2.23217,0.00118,0.03000,0.04412,23.29531,-23.52593,-25.43610,0.0000,,,,0.0415,,,,,,"[0.000, 0.000, 0.000, 0.000, 0.000, 0.000]",0x000000,3.8950,0,0,0.000000,0.000000,0.000000,0.0000,NO
78,3.9450,3.9450,0.0500,0.050,APPROACHING,0,1003.92,906.07,875.20,84.63,68.32,-56.72,1.00392,0.90607,0.87520,1.47705,1.19244,-0.99002,-0.00118,-0.03000,-0.04412,-23.29531,23.52593,25.43610,0.00000,0.00000,0.00000,0.00000,0.00000,0.00000,0.00000,0.00000,0.00000,0.00000,0.00000,0.00000,1.00392,0.90607,0.87520,-1.47705,-1.19244,0.99002,0.00118,0.03000,0.04412,23.29531,-23.52593,-25.43610,0.0000,,,,0.0416,,,,,,"[0.000, 0.000, 0.000, 0.000, 0.000, 0.000]",0x000000,3.9450,0,0,0.000000,0.000000,0.000000,0.0000,NO
79,3.9950,3.9950,0.0500,0.050,APPROACHING,0,1003.86,904.57,872.99,67.30,-0.83,35.68,1.00386,0.90457,0.87299,1.17466,-0.01443,0.62281,-0.00118,-0.03000,-0.04412,-23.29531,23.52593,25.43610,0.00000,0.00000,0.00000,0.00000,0.00000,0.00000,0.00000,0.00000,0.00000,0.00000,0.00000,0.00000,1.00386,0.90457,0.87299,-1.17466,0.01443,-0.62281,0.00118,0.03000,0.04412,23.29531,-23.52593,-25.43610,0.0000,,,,0.0415,,,,,,"[0.000, 0.000, 0.000, 0.000, 0.000, 0.000]",0x000000,3.9950,0,0,0.000000,0.000000,0.000000,0.0000,NO
80,4.0450,4.0450,0.0500,0.050,APPROACHING,0,1003.80,903.07,870.79,-1.33,19.27,127.15,1.00380,0.90307,0.87079,-0.02314,0.33638,2.21921,-0.00118,-0.03000,-0.04412,-23.29531,23.52593,25.43610,0.00000,0.00000,0.00000,0.00000,0.00000,0.00000,0.00000,0.00000,0.00000,0.00000,0.00000,0.00000,1.00380,0.90307,0.87079,0.02314,-0.33638,-2.21921,0.00118,0.03000,0.04412,23.29531,-23.52593,-25.43610,0.0000,,,,0.0415,,,,,,"[0.000, 0.000, 0.000, 0.000, 0.000, 0.000]",0x000000,4.0450,0,0,0.000000,0.000000,0.000000,0.0000,NO
81,4.0950,4.0950,0.0500,0.050,APPROACHING,0,1003.74,901.57,868.58,83.41,68.97,-58.74,1.00374,0.90157,0.86858,1.45572,1.20369,-1.02523,-0.00118,-0.03000,-0.04412,-23.29531,23.52593,25.43610,0.00000,0.00000,0.00000,0.00000,0.00000,0.00000,0.00000,0.00000,0.00000,0.00000,0.00000,0.00000,1.00374,0.90157,0.86858,-1.45572,-1.20369,1.02523,0.00118,0.03000,0.04412,23.29531,-23.52593,-25.43610,0.0000,,,,0.0415,,,,,,"[0.000, 0.000, 0.000, 0.000, 0.000, 0.000]",0x000000,4.0950,0,0,0.000000,0.000000,0.000000,0.0000,NO
82,4.1450,4.1450,0.0500,0.050,APPROACHING,0,1003.68,900.07,866.37,67.97,-0.42,34.80,1.00368,0.90007,0.86637,1.18629,-0.00725,0.60734,-0.00118,-0.03000,-0.04412,-23.29531,23.52593,25.43610,0.00000,0.00000,0.00000,0.00000,0.00000,0.00000,0.00000,0.00000,0.00000,0.00000,0.00000,0.00000,1.00368,0.90007,0.86637,-1.18629,0.00725,-0.60734,0.00118,0.03000,0.04412,23.29531,-23.52593,-25.43610,0.0000,,,,0.0415,,,,,,"[0.000, 0.000, 0.000, 0.000, 0.000, 0.000]",0x000000,4.1450,0,0,0.000000,0.000000,0.000000,0.0000,NO
83,4.1950,4.1950,0.0500,0.050,APPROACHING,0,1003.62,898.57,864.17,-0.91,18.60,126.41,1.00362,0.89857,0.86417,-0.01589,0.32456,2.20622,-0.00118,-0.03000,-0.04412,-23.29531,23.52593,25.43610,0.00000,0.00000,0.00000,0.00000,0.00000,0.00000,0.00000,0.00000,0.00000,0.00000,0.00000,0.00000,1.00362,0.89857,0.86417,0.01589,-0.32456,-2.20622,0.00118,0.03000,0.04412,23.29531,-23.52593,-25.43610,0.0000,,,,0.0415,,,,,,"[0.000, 0.000, 0.000, 0.000, 0.000, 0.000]",0x000000,4.1950,0,0,0.000000,0.000000,0.000000,0.0000,NO
84,4.2450,4.2450,0.0500,0.050,APPROACHING,0,1003.57,897.07,861.96,82.08,69.59,-60.86,1.00357,0.89707,0.86196,1.43263,1.21465,-1.06217,-0.00118,-0.03000,-0.04412,-23.29531,23.52593,25.43610,0.00000,0.00000,0.00000,0.00000,0.00000,0.00000,0.00000,0.00000,0.00000,0.00000,0.00000,0.00000,1.00357,0.89707,0.86196,-1.43263,-1.21465,1.06217,0.00118,0.03000,0.04412,23.29531,-23.52593,-25.43610,0.0000,,,,0.0286,,,,,,"[0.000, 0.000, 1.000, 0.000, 0.000, 0.000]",0x001000,4.2450,1,1,-2.000000,2.000000,2.000000,0.0000,NO
85,4.2950,4.2950,0.0500,0.050,APPROACHING,0,1003.47,895.60,859.72,66.98,-0.94,36.18,1.00347,0.89560,0.85972,1.16899,-0.01642,0.63151,-0.00224,-0.02953,-0.04599,-24.47842,24.72112,26.62494,0.00000,0.00000,0.00000,0.00000,0.00000,0.00000,0.00000,0.00000,0.00000,0.00000,0.00000,0.00000,1.00347,0.89560,0.85972,-1.16899,0.01642,-0.63151,0.00224,0.02953,0.04599,24.47842,-24.72112,-26.62494,0.0000,,,,0.0415,,,,,,"[0.000, 0.000, 0.000, 0.000, 0.000, 0.000]",0x000000,4.2950,0,1,0.000000,0.000000,0.000000,0.0000,NO
86,4.3450,4.3450,0.0500,0.050,APPROACHING,0,1003.36,894.12,857.42,-3.33,23.22,131.22,1.00336,0.89412,0.85742,-0.05816,0.40533,2.29030,-0.00224,-0.02953,-0.04599,-24.47842,24.72112,26.62494,0.00000,0.00000,0.00000,0.00000,0.00000,0.00000,0.00000,0.00000,0.00000,0.00000,0.00000,0.00000,1.00336,0.89412,0.85742,0.05816,-0.40533,-2.29030,0.00224,0.02953,0.04599,24.47842,-24.72112,-26.62494,0.0000,,,,0.0416,,,,,,"[0.000, 0.000, 0.000, 0.000, 0.000, 0.000]",0x000000,4.3450,0,0,0.000000,0.000000,0.000000,0.0000,NO
87,4.3950,4.3950,0.0500,0.050,APPROACHING,0,1003.25,892.64,855.12,92.39,61.56,-41.35,1.00325,0.89264,0.85512,1.61251,1.07444,-0.72169,-0.00224,-0.02953,-0.04599,-24.47842,24.72112,26.62494,0.00000,0.00000,0.00000,0.00000,0.00000,0.00000,0.00000,0.00000,0.00000,0.00000,0.00000,0.00000,1.00325,0.89264,0.85512,-1.61251,-1.07444,0.72169,0.00224,0.02953,0.04599,24.47842,-24.72112,-26.62494,0.0000,,,,0.0415,,,,,,"[0.000, 0.000, 0.000, 0.000, 0.000, 0.000]",0x000000,4.3950,0,0,0.000000,0.000000,0.000000,0.0000,NO
88,4.4450,4.4450,0.0500,0.050,APPROACHING,0,1003.14,891.17,852.82,56.99,-5.44,49.12,1.00314,0.89117,0.85282,0.99460,-0.09489,0.85736,-0.00224,-0.02953,-0.04599,-24.47842,24.72112,26.62494,0.00000,0.00000,0.00000,0.00000,0.00000,0.00000,0.00000,0.00000,0.00000,0.00000,0.00000,0.00000,1.00314,0.89117,0.85282,-0.99460,0.09489,-0.85736,0.00224,0.02953,0.04599,24.47842,-24.72112,-26.62494,0.0000,,,,0.0415,,,,,,"[0.000, 0.000, 0.000, 0.000, 0.000, 0.000]",0x000000,4.4450,0,0,0.000000,0.000000,0.000000,0.0000,NO
89,4.4950,4.4950,0.0500,0.050,APPROACHING,0,1003.02,889.69,850.52,-7.67,33.48,141.54,1.00302,0.88969,0.85052,-0.13394,0.58432,2.47027,-0.00224,-0.02953,-0.04599,-24.47842,24.72112,26.62494,0.00000,0.00000,0.00000,0.00000,0.00000,0.00000,0.00000,0.00000,0.00000,0.00000,0.00000,0.00000,1.00302,0.88969,0.85052,0.13394,-0.58432,-2.47027,0.00224,0.02953,0.04599,24.47842,-24.72112,-26.62494,0.0000,,,,0.0415,,,,,,"[0.000, 0.000, 0.000, 0.000, 0.000, 0.000]",0x000000,4.4950,0,0,0.000000,0.000000,0.000000,0.0000,NO
90,4.5450,4.5450,0.0500,0.050,APPROACHING,0,1002.91,888.21,848.22,95.97,50.80,-25.98,1.00291,0.88821,0.84822,1.67503,0.88662,-0.45340,-0.00224,-0.02953,-0.04599,-24.47842,24.72112,26.62494,0.00000,0.00000,0.00000,0.00000,0.00000,0.00000,0.00000,0.00000,0.00000,0.00000,0.00000,0.00000,1.00291,0.88821,0.84822,-1.67503,-0.88662,0.45340,0.00224,0.02953,0.04599,24.47842,-24.72112,-26.62494,0.0000,,,,0.0415,,,,,,"[0.000, 0.000, 0.000, 0.000, 0.000, 0.000]",0x000000,4.5450,0,0,0.000000,0.000000,0.000000,0.0000,NO
91,4.5950,4.5950,0.0500,0.050,APPROACHING,0,1002.80,886.74,845.92,46.18,-7.52,62.73,1.00280,0.88674,0.84592,0.80591,-0.13119,1.09483,-0.00224,-0.02953,-0.04599,-24.47842,24.72112,26.62494,0.00000,0.00000,0.00000,0.00000,0.00000,0.00000,0.00000,0.00000,0.00000,0.00000,0.00000,0.00000,1.00280,0.88674,0.84592,-0.80591,0.13119,-1.09483,0.00224,0.02953,0.04599,24.47842,-24.72112,-26.62494,0.0000,,,,0.0415,,,,,,"[0.000, 0.000, 0.000, 0.000, 0.000, 0.000]",0x000000,4.5950,0,0,0.000000,0.000000,0.000000,0.0000,NO
92,4.6450,4.6450,0.0500,0.050,APPROACHING,0,1002.69,885.26,843.62,-10.08,44.26,152.40,1.00269,0.88526,0.84362,-0.17597,0.77247,2.65990,-0.00224,-0.02953,-0.04599,-24.47842,24.72112,26.62494,0.00000,0.00000,0.00000,0.00000,0.00000,0.00000,0.00000,0.00000,0.00000,0.00000,0.00000,0.00000,1.00269,0.88526,0.84362,0.17597,-0.77247,-2.65990,0.00224,0.02953,0.04599,24.47842,-24.72112,-26.62494,0.0000,,,,0.0416,,,,,,"[0.000, 0.000, 0.000, 0.000, 0.000, 0.000]",0x000000,4.6450,0,0,0.000000,0.000000,0.000000,0.0000,NO
93,4.6950,4.6950,0.0500,0.050,APPROACHING,0,1002.57,883.78,841.32,95.14,39.87,-14.19,1.00257,0.88378,0.84132,1.66052,0.69594,-0.24765,-0.00224,-0.02953,-0.04599,-24.47842,24.72112,26.62494,0.00000,0.00000,0.00000,0.00000,0.00000,0.00000,0.00000,0.00000,0.00000,0.00000,0.00000,0.00000,1.00257,0.88378,0.84132,-1.66052,-0.69594,0.24765,0.00224,0.02953,0.04599,24.47842,-24.72112,-26.62494,0.0000,,,,0.0416,,,,,,"[0.000, 0.000, 0.000, 0.000, 0.000, 0.000]",0x000000,4.6950,0,0,0.000000,0.000000,0.000000,0.0000,NO
94,4.7450,4.7450,0.0500,0.050,APPROACHING,0,1002.46,882.31,839.02,35.16,-6.99,76.51,1.00246,0.88231,0.83902,0.61364,-0.12194,1.33529,-0.00224,-0.02953,-0.04599,-24.47842,24.72112,26.62494,0.00000,0.00000,0.00000,0.00000,0.00000,0.00000,0.00000,0.00000,0.00000,0.00000,0.00000,0.00000,1.00246,0.88231,0.83902,-0.61364,0.12194,-1.33529,0.00224,0.02953,0.04599,24.47842,-24.72112,-26.62494,0.0000,,,,0.0213,,,,,,"[1.000, 0.000, 0.000, 0.000, 1.000, 0.000]",0x100010,4.7450,2,2,-2.000000,2.000000,2.000000,0.0000,NO
95,4.7950,4.7950,0.0500,0.050,APPROACHING,0,1002.35,880.77,836.67,-9.00,57.19,167.80,1.00235,0.88077,0.83667,-0.15705,0.99815,2.92866,-0.00117,-0.03168,-0.04753,-25.66154,25.91632,27.81377,0.00000,0.00000,0.00000,0.00000,0.00000,0.00000,0.00000,0.00000,0.00000,0.00000,0.00000,0.00000,1.00235,0.88077,0.83667,0.15705,-0.99815,-2.92866,0.00117,0.03168,0.04753,25.66154,-25.91632,-27.81377,0.0000,,,,0.0415,,,,,,"[0.000, 0.000, 0.000, 0.000, 0.000, 0.000]",0x000000,4.7950,0,2,0.000000,0.000000,0.000000,0.0000,NO
96,4.8450,4.8450,0.0500,0.050,APPROACHING,0,1002.29,879.19,834.29,89.58,23.81,1.97,1.00229,0.87919,0.83429,1.56348,0.41564,0.03430,-0.00117,-0.03168,-0.04753,-25.66154,25.91632,27.81377,0.00000,0.00000,0.00000,0.00000,0.00000,0.00000,0.00000,0.00000,0.00000,0.00000,0.00000,0.00000,1.00229,0.87919,0.83429,-1.56348,-0.41564,-0.03430,0.00117,0.03168,0.04753,25.66154,-25.91632,-27.81377,0.0000,,,,0.0415,,,,,,"[0.000, 0.000, 0.000, 0.000, 0.000, 0.000]",0x000000,4.8450,0,0,0.000000,0.000000,0.000000,0.0000,NO
97,4.8950,4.8950,0.0500,0.050,APPROACHING,0,1002.23,877.61,831.92,16.08,0.80,101.21,1.00223,0.87761,0.83192,0.28066,0.01388,1.76637,-0.00117,-0.03168,-0.04753,-25.66154,25.91632,27.81377,0.00000,0.00000,0.00000,0.00000,0.00000,0.00000,0.00000,0.00000,0.00000,0.00000,0.00000,0.00000,1.00223,0.87761,0.83192,-0.28066,-0.01388,-1.76637,0.00117,0.03168,0.04753,25.66154,-25.91632,-27.81377,0.0000,,,,0.0415,,,,,,"[0.000, 0.000, 0.000, 0.000, 0.000, 0.000]",0x000000,4.8950,0,0,0.000000,0.000000,0.000000,0.0000,NO
98,4.9450,4.9450,0.0500,0.050,APPROACHING,0,1002.18,876.02,829.54,28.02,75.07,-131.88,1.00218,0.87602,0.82954,0.48908,1.31026,-2.30179,-0.00117,-0.03168,-0.04753,-25.66154,25.91632,27.81377,0.00000,0.00000,0.00000,0.00000,0.00000,0.00000,0.00000,0.00000,0.00000,0.00000,0.00000,0.00000,1.00218,0.87602,0.82954,-0.48908,-1.31026,2.30179,0.00117,0.03168,0.04753,25.66154,-25.91632,-27.81377,0.0000,,,,0.0416,,,,,,"[0.000, 0.000, 0.000, 0.000, 0.000, 0.000]",0x000000,4.9450,0,0,0.000000,0.000000,0.000000,0.0000,NO
99,4.9950,4.9950,0.0500,0.050,APPROACHING,0,1002.12,874.44,827.16,75.85,5.54,24.30,1.00212,0.87444,0.82716,1.32387,0.09669,0.42419,-0.00117,-0.03168,-0.04753,-25.66154,25.91632,27.81377,0.00000,0.00000,0.00000,0.00000,0.00000,0.00000,0.00000,0.00000,0.00000,0.00000,0.00000,0.00000,1.00212,0.87444,0.82716,-1.32387,-0.09669,-0.42419,0.00117,0.03168,0.04753,25.66154,-25.91632,-27.81377,0.0000,,,,0.0415,,,,,,"[0.000, 0.000, 0.000, 0.000, 0.000, 0.000]",0x000000,4.9950,0,0,0.000000,0.000000,0.000000,0.0000,NO
100,5.0450,5.0450,0.0500,0.050,APPROACHING,0,1002.06,872.85,824.79,0.28,17.12,124.58,1.00206,0.87285,0.82479,0.00487,0.29888,2.17437,-0.00117,-0.03168,-0.04753,-25.66154,25.91632,27.81377,0.00000,0.00000,0.00000,0.00000,0.00000,0.00000,0.00000,0.00000,0.00000,0.00000,0.00000,0.00000,1.00206,0.87285,0.82479,-0.00487,-0.29888,-2.17437,0.00117,0.03168,0.04753,25.66154,-25.91632,-27.81377,0.0000,,,,0.0415,,,,,,"[0.000, 0.000, 0.000, 0.000, 0.000, 0.000]",0x000000,5.0450,0,0,0.000000,0.000000,0.000000,0.0000,NO
101,5.0950,5.0950,0.0500,0.050,APPROACHING,0,1002.00,871.27,822.41,90.32,64.48,-46.68,1.00200,0.87127,0.82241,1.57638,1.12532,-0.81464,-0.00117,-0.03168,-0.04753,-25.66154,25.91632,27.81377,0.00000,0.00000,0.00000,0.00000,0.00000,0.00000,0.00000,0.00000,0.00000,0.00000,0.00000,0.00000,1.00200,0.87127,0.82241,-1.57638,-1.12532,0.81464,0.00117,0.03168,0.04753,25.66154,-25.91632,-27.81377,0.0000,,,,0.0415,,,,,,"[0.000, 0.000, 0.000, 0.000, 0.000, 0.000]",0x000000,5.0950,0,0,0.000000,0.000000,0.000000,0.0000,NO
102,5.1450,5.1450,0.0500,0.050,APPROACHING,0,1001.94,869.69,820.03,56.28,-5.72,50.21,1.00194,0.86969,0.82003,0.98229,-0.09975,0.87638,-0.00117,-0.03168,-0.04753,-25.66154,25.91632,27.81377,0.00000,0.00000,0.00000,0.00000,0.00000,0.00000,0.00000,0.00000,0.00000,0.00000,0.00000,0.00000,1.00194,0.86969,0.82003,-0.98229,0.09975,-0.87638,0.00117,0.03168,0.04753,25.66154,-25.91632,-27.81377,0.0000,,,,0.0416,,,,,,"[0.000, 0.000, 0.000, 0.000, 0.000, 0.000]",0x000000,5.1450,0,0,0.000000,0.000000,0.000000,0.0000,NO
103,5.1950,5.1950,0.0500,0.050,APPROACHING,0,1001.88,868.10,817.66,-9.02,38.15,146.06,1.00188,0.86810,0.81766,-0.15749,0.66580,2.54930,-0.00117,-0.03168,-0.04753,-25.66154,25.91632,27.81377,0.00000,0.00000,0.00000,0.00000,0.00000,0.00000,0.00000,0.00000,0.00000,0.00000,0.00000,0.00000,1.00188,0.86810,0.81766,0.15749,-0.66580,-2.54930,0.00117,0.03168,0.04753,25.66154,-25.91632,-27.81377,0.0000,,,,0.0416,,,,,,"[0.000, 0.000, 0.000, 0.000, 0.000, 0.000]",0x000000,5.1950,0,0,0.000000,0.000000,0.000000,0.0000,NO
104,5.2450,5.2450,0.0500,0.050,APPROACHING,0,1001.83,866.52,815.28,95.79,42.15,-16.33,1.00183,0.86652,0.81528,1.67182,0.73557,-0.28495,-0.00117,-0.03168,-0.04753,-25.66154,25.91632,27.81377,0.00000,0.00000,0.00000,0.00000,0.00000,0.00000,0.00000,0.00000,0.00000,0.00000,0.00000,0.00000,1.00183,0.86652,0.81528,-1.67182,-0.73557,0.28495,0.00117,0.03168,0.04753,25.66154,-25.91632,-27.81377,0.0000,,,,0.0361,,,,,,"[1.000, 0.000, 1.000, 0.000, 0.000, 0.000]",0x101000,5.2450,2,2,-2.000000,2.000000,2.000000,0.0000,NO
105,5.2950,5.2950,0.0500,0.050,APPROACHING,0,1001.70,864.92,812.87,31.71,-6.18,80.99,1.00170,0.86492,0.81287,0.55351,-0.10785,1.41353,-0.00303,-0.03290,-0.04920,-26.84466,27.11153,29.00259,0.00000,0.00000,0.00000,0.00000,0.00000,0.00000,0.00000,0.00000,0.00000,0.00000,0.00000,0.00000,1.00170,0.86492,0.81287,-0.55351,0.10785,-1.41353,0.00303,0.03290,0.04920,26.84466,-27.11153,-29.00259,0.0000,,,,0.0415,,,,,,"[0.000, 0.000, 0.000, 0.000, 0.000, 0.000]",0x000000,5.2950,0,2,0.000000,0.000000,0.000000,0.0000,NO
106,5.3450,5.3450,0.0500,0.050,APPROACHING,0,1001.55,863.28,810.41,-2.31,66.23,-175.73,1.00155,0.86328,0.81041,-0.04031,1.15589,-3.06715,-0.00303,-0.03290,-0.04920,-26.84466,27.11153,29.00259,0.00000,0.00000,0.00000,0.00000,0.00000,0.00000,0.00000,0.00000,0.00000,0.00000,0.00000,0.00000,1.00155,0.86328,0.81041,0.04031,-1.15589,3.06715,0.00303,0.03290,0.04920,26.84466,-27.11153,-29.00259,0.0000,,,,0.0415,,,,,,"[0.000, 0.000, 0.000, 0.000, 0.000, 0.000]",0x000000,5.3450,0,0,0.000000,0.000000,0.000000,0.0000,NO
107,5.3950,5.3950,0.0500,0.050,APPROACHING,0,1001.40,861.63,807.95,82.28,12.40,14.79,1.00140,0.86163,0.80795,1.43610,0.21644,0.25807,-0.00303,-0.03290,-0.04920,-26.84466,27.11153,29.00259,0.00000,0.00000,0.00000,0.00000,0.00000,0.00000,0.00000,0.00000,0.00000,0.00000,0.00000,0.00000,1.00140,0.86163,0.80795,-1.43610,-0.21644,-0.25807,0.00303,0.03290,0.04920,26.84466,-27.11153,-29.00259,0.0000,,,,0.0416,,,,,,"[0.000, 0.000, 0.000, 0.000, 0.000, 0.000]",0x000000,5.3950,0,0,0.000000,0.000000,0.000000,0.0000,NO
108,5.4450,5.4450,0.0500,0.050,APPROACHING,0,1001.24,859.99,805.49,3.55,12.79,119.26,1.00124,0.85999,0.80549,0.06196,0.22320,2.08152,-0.00303,-0.03290,-0.04920,-26.84466,27.11153,29.00259,0.00000,0.00000,0.00000,0.00000,0.00000,0.00000,0.00000,0.00000,0.00000,0.00000,0.00000,0.00000,1.00124,0.85999,0.80549,-0.06196,-0.22320,-2.08152,0.00303,0.03290,0.04920,26.84466,-27.11153,-29.00259,0.0000,,,,0.0415,,,,,,"[0.000, 0.000, 0.000, 0.000, 0.000, 0.000]",0x000000,5.4450,0,0,0.000000,0.000000,0.000000,0.0000,NO
109,5.4950,5.4950,0.0500,0.050,APPROACHING,0,1001.09,858.34,803.03,88.99,65.79,-49.65,1.00109,0.85834,0.80303,1.55326,1.14828,-0.86657,-0.00303,-0.03290,-0.04920,-26.84466,27.11153,29.00259,0.00000,0.00000,0.00000,0.00000,0.00000,0.00000,0.00000,0.00000,0.00000,0.00000,0.00000,0.00000,1.00109,0.85834,0.80303,-1.55326,-1.14828,0.86657,0.00303,0.03290,0.04920,26.84466,-27.11153,-29.00259,0.0000,,,,0.0415,,,,,,"[0.000, 0.000, 0.000, 0.000, 0.000, 0.000]",0x000000,5.4950,0,0,0.000000,0.000000,0.000000,0.0000,NO
110,5.5450,5.5450,0.0500,0.050,APPROACHING,0,1000.94,856.70,800.57,53.95,-6.30,53.18,1.00094,0.85670,0.80057,0.94157,-0.10991,0.92814,-0.00303,-0.03290,-0.04920,-26.84466,27.11153,29.00259,0.00000,0.00000,0.00000,0.00000,0.00000,0.00000,0.00000,0.00000,0.00000,0.00000,0.00000,0.00000,1.00094,0.85670,0.80057,-0.94157,0.10991,-0.92814,0.00303,0.03290,0.04920,26.84466,-27.11153,-29.00259,0.0000,,,,0.0415,,,,,,"[0.000, 0.000, 0.000, 0.000, 0.000, 0.000]",0x000000,5.5450,0,0,0.000000,0.000000,0.000000,0.0000,NO
111,5.5950,5.5950,0.0500,0.050,APPROACHING,0,1000.79,855.05,798.11,-10.06,44.53,152.41,1.00079,0.85505,0.79811,-0.17554,0.77720,2.65998,-0.00303,-0.03290,-0.04920,-26.84466,27.11153,29.00259,0.00000,0.00000,0.00000,0.00000,0.00000,0.00000,0.00000,0.00000,0.00000,0.00000,0.00000,0.00000,1.00079,0.85505,0.79811,0.17554,-0.77720,-2.65998,0.00303,0.03290,0.04920,26.84466,-27.11153,-29.00259,0.0000,,,,0.0416,,,,,,"[0.000, 0.000, 0.000, 0.000, 0.000, 0.000]",0x000000,5.5950,0,0,0.000000,0.000000,0.000000,0.0000,NO
112,5.6450,5.6450,0.0500,0.050,APPROACHING,0,1000.64,853.41,795.65,93.23,32.08,-6.36,1.00064,0.85341,0.79565,1.62718,0.55993,-0.11102,-0.00303,-0.03290,-0.04920,-26.84466,27.11153,29.00259,0.00000,0.00000,0.00000,0.00000,0.00000,0.00000,0.00000,0.00000,0.00000,0.00000,0.00000,0.00000,1.00064,0.85341,0.79565,-1.62718,-0.55993,0.11102,0.00303,0.03290,0.04920,26.84466,-27.11153,-29.00259,0.0000,,,,0.0415,,,,,,"[0.000, 0.000, 0.000, 0.000, 0.000, 0.000]",0x000000,5.6450,0,0,0.000000,0.000000,0.000000,0.0000,NO
113,5.6950,5.6950,0.0500,0.050,APPROACHING,0,1000.49,851.76,793.19,20.36,-1.71,95.55,1.00049,0.85176,0.79319,0.35535,-0.02977,1.66759,-0.00303,-0.03290,-0.04920,-26.84466,27.11153,29.00259,0.00000,0.00000,0.00000,0.00000,0.00000,0.00000,0.00000,0.00000,0.00000,0.00000,0.00000,0.00000,1.00049,0.85176,0.79319,-0.35535,0.02977,-1.66759,0.00303,0.03290,0.04920,26.84466,-27.11153,-29.00259,0.0000,,,,0.0415,,,,,,"[0.000, 0.000, 0.000, 0.000, 0.000, 0.000]",0x000000,5.6950,0,0,0.000000,0.000000,0.000000,0.0000,NO
114,5.7450,5.7450,0.0500,0.050,APPROACHING,0,1000.33,850.12,790.73,24.59,74.74,-136.49,1.00033,0.85012,0.79073,0.42914,1.30447,-2.38221,-0.00303,-0.03290,-0.04920,-26.84466,27.11153,29.00259,0.00000,0.00000,0.00000,0.00000,0.00000,0.00000,0.00000,0.00000,0.00000,0.00000,0.00000,0.00000,1.00033,0.85012,0.79073,-0.42914,-1.30447,2.38221,0.00303,0.03290,0.04920,26.84466,-27.11153,-29.00259,0.0000,,,,0.0415,,,,,,"[0.000, 0.000, 0.000, 0.000, 0.000, 0.000]",0x000000,5.7450,0,0,0.000000,0.000000,0.000000,0.0000,NO
