Step,MPC_Start_Time,Control_Time,Actual_Time_Interval,CONTROL_DT,Mission_Phase,Waypoint_Number,Telemetry_X_mm,Telemetry_Y_mm,Telemetry_Z_mm,Telemetry_Roll_deg,Telemetry_Pitch_deg,Telemetry_Yaw_deg,Current_X,Current_Y,Current_Z,Current_Roll,Current_Pitch,Current_Yaw,Current_VX,Current_VY,Current_VZ,Current_WX,Current_WY,Current_WZ,Target_X,Target_Y,Target_Z,Target_Roll,Target_Pitch,Target_Yaw,Target_VX,Target_VY,Target_VZ,Target_WX,Target_WY,Target_WZ,Error_X,Error_Y,Error_Z,Error_Roll,Error_Pitch,Error_Yaw,Error_VX,Error_VY,Error_VZ,Error_WX,Error_WY,Error_WZ,MPC_Computation_Time,MPC_Status,MPC_Solver,MPC_Solver_Time_Limit,MPC_Solve_Time,MPC_Time_Limit_Exceeded,MPC_Fallback_Used,MPC_Objective,MPC_Iterations,MPC_Optimality_Gap,Command_Vector,Command_Hex,Command_Sent_Time,Total_Active_Thrusters,Thruster_Switches,RW_Torque_X,RW_Torque_Y,RW_Torque_Z,Total_MPC_Loop_Time,Timing_Violation
0,0.0450,0.0450,0.0500,0.050,APPROACHING,0,1000.00,1000.00,0.00,0.00,0.00,0.00,1.00000,1.00000,0.00000,0.00000,0.00000,0.00000,0.00000,0.00000,0.00000,0.00000,0.00000,0.00000,0.00000,0.00000,0.00000,0.00000,0.00000,0.00000,0.00000,0.00000,0.00000,0.00000,0.00000,0.00000,1.00000,1.00000,0.00000,0.00000,0.00000,0.00000,0.00000,0.00000,0.00000,0.00000,0.00000,0.00000,0.0000,,,,0.0108,,,,,,"[1.000, 0.000, 1.000, 0.000, 0.000, 0.000]",0x101000,0.0450,2,0,0.000000,0.000000,0.000000,0.0000,NO
1,0.0950,0.0950,0.0500,0.050,APPROACHING,0,999.94,999.95,-0.00,0.00,0.00,0.00,0.99994,0.99995,-0.00000,0.00000,0.00000,0.00000,-0.00221,-0.00214,-0.00000,0.00000,0.00000,0.00000,0.00000,0.00000,0.00000,0.00000,0.00000,0.00000,0.00000,0.00000,0.00000,0.00000,0.00000,0.00000,0.99994,0.99995,-0.00000,0.00000,0.00000,0.00000,0.00221,0.00214,0.00000,-0.00000,-0.00000,-0.00000,0.0000,,,,0.0087,,,,,,"[0.999, 0.001, 0.999, 0.001, 0.000, 0.000]",0x101000,0.0950,2,0,-0.000000,-0.000000,-0.000000,0.0000,NO
2,0.1450,0.1450,0.0500,0.050,APPROACHING,0,999.78,999.79,-0.00,0.00,0.00,0.00,0.99978,0.99979,-0.00000,0.00000,0.00000,0.00000,-0.00441,-0.00428,-0.00000,-0.00000,0.00000,-0.00000,0.00000,0.00000,0.00000,0.00000,0.00000,0.00000,0.00000,0.00000,0.00000,0.00000,0.00000,0.00000,0.99978,0.99979,-0.00000,0.00000,0.00000,0.00000,0.00441,0.00428,0.00000,0.00000,-0.00000,0.00000,0.0000,,,,0.0032,,,,,,"[0.998, 0.002, 0.998, 0.002, 0.000, 0.000]",0x101000,0.1450,2,0,-0.000000,-0.000000,0.000000,0.0000,NO
3,0.1950,0.1950,0.0500,0.050,APPROACHING,0,999.50,999.52,-0.00,0.00,0.00,0.00,0.99950,0.99952,-0.00000,0.00000,0.00000,0.00000,-0.00662,-0.00642,-0.00000,-0.00000,0.00000,0.00000,0.00000,0.00000,0.00000,0.00000,0.00000,0.00000,0.00000,0.00000,0.00000,0.00000,0.00000,0.00000,0.99950,0.99952,-0.00000,0.00000,0.00000,0.00000,0.00662,0.00642,0.00000,0.00000,-0.00000,-0.00000,0.0000,,,,0.0028,,,,,,"[0.998, 0.002, 0.998, 0.002, 0.000, 0.000]",0x101000,0.1950,2,0,-0.000000,-0.000000,-0.000000,0.0000,NO
4,0.2450,0.2450,0.0500,0.050,APPROACHING,0,999.12,999.14,-0.00,0.00,0.00,0.00,0.99912,0.99914,-0.00000,0.00000,0.00000,0.00000,-0.00883,-0.00855,-0.00000,-0.00000,-0.00000,-0.00000,0.00000,0.00000,0.00000,0.00000,0.00000,0.00000,0.00000,0.00000,0.00000,0.00000,0.00000,0.00000,0.99912,0.99914,-0.00000,0.00000,0.00000,0.00000,0.00883,0.00855,0.00000,0.00000,0.00000,0.00000,0.0000,,,,0.0149,,,,,,"[0.999, 0.001, 0.998, 0.002, 0.000, 0.000]",0x101000,0.2450,2,0,-0.000000,0.000000,0.000000,0.0000,NO
5,0.2950,0.2950,0.0500,0.050,APPROACHING,0,998.62,998.66,-0.00,0.00,0.00,0.00,0.99862,0.99866,-0.00000,0.00000,0.00000,0.00000,-0.01104,-0.01069,-0.00000,-0.00000,0.00000,0.00000,0.00000,0.00000,0.00000,0.00000,0.00000,0.00000,0.00000,0.00000,0.00000,0.00000,0.00000,0.00000,0.99862,0.99866,-0.00000,0.00000,0.00000,0.00000,0.01104,0.01069,0.00000,0.00000,-0.00000,-0.00000,0.0000,,,,0.0030,,,,,,"[0.999, 0.001, 0.999, 0.001, 0.000, 0.000]",0x101000,0.2950,2,0,-0.000000,-0.000000,-0.000000,0.0000,NO
6,0.3450,0.3450,0.0500,0.050,APPROACHING,0,998.01,998.08,-0.00,0.00,0.00,0.00,0.99801,0.99808,-0.00000,0.00000,0.00000,0.00000,-0.01324,-0.01283,-0.00000,-0.00000,-0.00000,-0.00000,0.00000,0.00000,0.00000,0.00000,0.00000,0.00000,0.00000,0.00000,0.00000,0.00000,0.00000,0.00000,0.99801,0.99808,-0.00000,0.00000,0.00000,0.00000,0.01324,0.01283,0.00000,0.00000,0.00000,0.00000,0.0000,,,,0.0032,,,,,,"[0.999, 0.001, 0.999, 0.001, 0.000, 0.000]",0x101000,0.3450,2,0,-0.000000,0.000000,0.000000,0.0000,NO
7,0.3950,0.3950,0.0500,0.050,APPROACHING,0,997.30,997.38,-0.00,0.00,0.00,0.00,0.99730,0.99738,-0.00000,0.00000,0.00000,0.00000,-0.01545,-0.01497,-0.00000,-0.00000,-0.00000,-0.00000,0.00000,0.00000,0.00000,0.00000,0.00000,0.00000,0.00000,0.00000,0.00000,0.00000,0.00000,0.00000,0.99730,0.99738,-0.00000,0.00000,0.00000,0.00000,0.01545,0.01497,0.00000,0.00000,0.00000,0.00000,0.0000,,,,0.0050,,,,,,"[0.998, 0.002, 0.999, 0.001, 0.000, 0.000]",0x101000,0.3950,2,0,-0.000000,0.000000,0.000000,0.0000,NO
8,0.4450,0.4450,0.0500,0.050,APPROACHING,0,996.47,996.58,-0.00,0.00,0.00,0.00,0.99647,0.99658,-0.00000,0.00000,0.00000,0.00000,-0.01766,-0.01711,-0.00000,-0.00000,0.00000,0.00000,0.00000,0.00000,0.00000,0.00000,0.00000,0.00000,0.00000,0.00000,0.00000,0.00000,0.00000,0.00000,0.99647,0.99658,-0.00000,0.00000,0.00000,0.00000,0.01766,0.01711,0.00000,0.00000,-0.00000,-0.00000,0.0000,,,,0.0042,,,,,,"[0.998, 0.002, 0.999, 0.001, 0.000, 0.000]",0x101000,0.4450,2,0,0.000000,-0.000000,-0.000000,0.0000,NO
9,0.4950,0.4950,0.0500,0.050,APPROACHING,0,995.53,995.67,-0.00,0.00,0.00,0.00,0.99553,0.99567,-0.00000,0.00000,0.00000,0.00000,-0.01987,-0.01925,-0.00000,-0.00000,0.00000,0.00000,0.00000,0.00000,0.00000,0.00000,0.00000,0.00000,0.00000,0.00000,0.00000,0.00000,0.00000,0.00000,0.99553,0.99567,-0.00000,0.00000,0.00000,0.00000,0.01987,0.01925,0.00000,0.00000,-0.00000,-0.00000,0.0000,,,,0.0043,,,,,,"[0.998, 0.002, 0.998, 0.002, 0.000, 0.000]",0x101000,0.4950,2,0,-0.000000,-0.000000,-0.000000,0.0000,NO
10,0.5450,0.5450,0.0500,0.050,APPROACHING,0,994.48,994.65,-0.00,0.00,0.00,0.00,0.99448,0.99465,-0.00000,0.00000,0.00000,0.00000,-0.02207,-0.02139,-0.00000,-0.00000,0.00000,0.00000,0.00000,0.00000,0.00000,0.00000,0.00000,0.00000,0.00000,0.00000,0.00000,0.00000,0.00000,0.00000,0.99448,0.99465,-0.00000,0.00000,0.00000,0.00000,0.02207,0.02139,0.00000,0.00000,-0.00000,-0.00000,0.0000,,,,0.0028,,,,,,"[0.998, 0.002, 0.998, 0.002, 0.000, 0.000]",0x101000,0.5450,2,0,-0.000000,-0.000000,-0.000000,0.0000,NO
11,0.5950,0.5950,0.0500,0.050,APPROACHING,0,993.32,993.53,-0.00,0.00,0.00,0.00,0.99332,0.99353,-0.00000,0.00000,0.00000,0.00000,-0.02428,-0.02352,-0.00000,-0.00000,0.00000,0.00000,0.00000,0.00000,0.00000,0.00000,0.00000,0.00000,0.00000,0.00000,0.00000,0.00000,0.00000,0.00000,0.99332,0.99353,-0.00000,0.00000,0.00000,0.00000,0.02428,0.02352,0.00000,0.00000,-0.00000,-0.00000,0.0000,,,,0.0088,,,,,,"[0.998, 0.002, 0.998, 0.002, 0.000, 0.000]",0x101000,0.5950,2,0,-0.000000,-0.000000,-0.000000,0.0000,NO
12,0.6450,0.6450,0.0500,0.050,APPROACHING,0,992.05,992.30,-0.00,0.00,0.00,0.00,0.99205,0.99230,-0.00000,0.00000,0.00000,0.00000,-0.02649,-0.02566,-0.00000,-0.00000,-0.00000,-0.00000,0.00000,0.00000,0.00000,0.00000,0.00000,0.00000,0.00000,0.00000,0.00000,0.00000,0.00000,0.00000,0.99205,0.99230,-0.00000,0.00000,0.00000,0.00000,0.02649,0.02566,0.00000,0.00000,0.00000,0.00000,0.0000,,,,0.0038,,,,,,"[0.998, 0.002, 0.998, 0.002, 0.000, 0.000]",0x101000,0.6450,2,0,-0.000000,0.000000,0.000000,0.0000,NO
13,0.6950,0.6950,0.0500,0.050,APPROACHING,0,990.67,990.96,-0.00,0.00,0.00,0.00,0.99067,0.99096,-0.00000,0.00000,0.00000,0.00000,-0.02869,-0.02780,-0.00000,-0.00000,0.00000,0.00000,0.00000,0.00000,0.00000,0.00000,0.00000,0.00000,0.00000,0.00000,0.00000,0.00000,0.00000,0.00000,0.99067,0.99096,-0.00000,0.00000,0.00000,0.00000,0.02869,0.02780,0.00000,0.00000,-0.00000,-0.00000,0.0000,,,,0.0056,,,,,,"[0.998, 0.002, 0.998, 0.002, 0.000, 0.000]",0x101000,0.6950,2,0,-0.000000,-0.000000,-0.000000,0.0000,NO
14,0.7450,0.7450,0.0500,0.050,APPROACHING,0,989.18,989.52,-0.00,0.00,0.00,0.00,0.98918,0.98952,-0.00000,0.00000,0.00000,0.00000,-0.03090,-0.02994,-0.00000,-0.00000,-0.00000,-0.00000,0.00000,0.00000,0.00000,0.00000,0.00000,0.00000,0.00000,0.00000,0.00000,0.00000,0.00000,0.00000,0.98918,0.98952,-0.00000,0.00000,0.00000,0.00000,0.03090,0.02994,0.00000,0.00000,0.00000,0.00000,0.0000,,,,0.0029,,,,,,"[0.998, 0.002, 0.998, 0.002, 0.000, 0.000]",0x101000,0.7450,2,0,-0.000000,0.000000,0.000000,0.0000,NO
15,0.7950,0.7950,0.0500,0.050,APPROACHING,0,987.58,987.97,-0.00,0.00,0.00,0.00,0.98758,0.98797,-0.00000,0.00000,0.00000,0.00000,-0.03311,-0.03208,-0.00000,-0.00000,0.00000,0.00000,0.00000,0.00000,0.00000,0.00000,0.00000,0.00000,0.00000,0.00000,0.00000,0.00000,0.00000,0.00000,0.98758,0.98797,-0.00000,0.00000,0.00000,0.00000,0.03311,0.03208,0.00000,0.00000,-0.00000,-0.00000,0.0000,,,,0.0053,,,,,,"[0.998, 0.001, 0.998, 0.002, 0.000, 0.000]",0x101000,0.7950,2,0,-0.000000,-0.000000,-0.000000,0.0000,NO
16,0.8450,0.8450,0.0500,0.050,APPROACHING,0,985.87,986.31,-0.00,0.00,0.00,0.00,0.98587,0.98631,-0.00000,0.00000,0.00000,0.00000,-0.03532,-0.03422,-0.00000,-0.00000,0.00000,-0.00000,0.00000,0.00000,0.00000,0.00000,0.00000,0.00000,0.00000,0.00000,0.00000,0.00000,0.00000,0.00000,0.98587,0.98631,-0.00000,0.00000,0.00000,0.00000,0.03532,0.03422,0.00000,0.00000,-0.00000,0.00000,0.0000,,,,0.0044,,,,,,"[0.998, 0.002, 0.998, 0.002, 0.000, 0.000]",0x101000,0.8450,2,0,-0.000000,-0.000000,0.000000,0.0000,NO
17,0.8950,0.8950,0.0500,0.050,APPROACHING,0,984.05,984.55,-0.00,0.00,0.00,0.00,0.98405,0.98455,-0.00000,0.00000,0.00000,0.00000,-0.03752,-0.03636,-0.00000,-0.00000,0.00000,0.00000,0.00000,0.00000,0.00000,0.00000,0.00000,0.00000,0.00000,0.00000,0.00000,0.00000,0.00000,0.00000,0.98405,0.98455,-0.00000,0.00000,0.00000,0.00000,0.03752,0.03636,0.00000,0.00000,-0.00000,-0.00000,0.0000,,,,0.0030,,,,,,"[0.998, 0.002, 0.999, 0.001, 0.000, 0.000]",0x101000,0.8950,2,0,-0.000000,-0.000000,-0.000000,0.0000,NO
18,0.9450,0.9450,0.0500,0.050,APPROACHING,0,982.12,982.68,-0.00,0.00,0.00,0.00,0.98212,0.98268,-0.00000,0.00000,0.00000,0.00000,-0.03973,-0.03849,-0.00000,-0.00000,-0.00000,-0.00000,0.00000,0.00000,0.00000,0.00000,0.00000,0.00000,0.00000,0.00000,0.00000,0.00000,0.00000,0.00000,0.98212,0.98268,-0.00000,0.00000,0.00000,0.00000,0.03973,0.03849,0.00000,0.00000,0.00000,0.00000,0.0000,,,,0.0090,,,,,,"[1.000, 0.000, 1.000, 0.000, 0.000, 0.000]",0x101000,0.9450,2,0,-0.000000,0.000000,0.000000,0.0000,NO
19,0.9950,0.9950,0.0500,0.050,APPROACHING,0,980.08,980.70,-0.00,0.00,0.00,0.00,0.98008,0.98070,-0.00000,0.00000,0.00000,0.00000,-0.04194,-0.04063,-0.00000,-0.00000,0.00000,0.00000,0.00000,0.00000,0.00000,0.00000,0.00000,0.00000,0.00000,0.00000,0.00000,0.00000,0.00000,0.00000,0.98008,0.98070,-0.00000,0.00000,0.00000,0.00000,0.04194,0.04063,0.00000,0.00000,-0.00000,-0.00000,0.0000,,,,0.0060,,,,,,"[1.000, 0.000, 1.000, 0.000, 0.000, 0.000]",0x101000,0.9950,2,0,-0.000000,-0.000000,-0.000000,0.0000,NO
20,1.0450,1.0450,0.0500,0.050,APPROACHING,0,977.93,978.61,-0.00,0.00,0.00,0.00,0.97793,0.97861,-0.00000,0.00000,0.00000,0.00000,-0.04414,-0.04277,-0.00000,-0.00000,0.00000,0.00000,0.00000,0.00000,0.00000,0.00000,0.00000,0.00000,0.00000,0.00000,0.00000,0.00000,0.00000,0.00000,0.97793,0.97861,-0.00000,0.00000,0.00000,0.00000,0.04414,0.04277,0.00000,0.00000,-0.00000,-0.00000,0.0000,,,,0.0040,,,,,,"[1.000, 0.000, 1.000, 0.000, 0.000, 0.000]",0x101000,1.0450,2,0,-0.000000,-0.000000,-0.000000,0.0000,NO
21,1.0950,1.0950,0.0500,0.050,APPROACHING,0,975.67,976.42,-0.00,0.00,0.00,0.00,0.97567,0.97642,-0.00000,0.00000,0.00000,0.00000,-0.04635,-0.04491,-0.00000,-0.00000,0.00000,-0.00000,0.00000,0.00000,0.00000,0.00000,0.00000,0.00000,0.00000,0.00000,0.00000,0.00000,0.00000,0.00000,0.97567,0.97642,-0.00000,0.00000,0.00000,0.00000,0.04635,0.04491,0.00000,0.00000,-0.00000,0.00000,0.0000,,,,0.0046,,,,,,"[1.000, 0.000, 1.000, 0.000, 0.000, 0.000]",0x101000,1.0950,2,0,0.000000,-0.000000,0.000000,0.0000,NO
22,1.1450,1.1450,0.0500,0.050,APPROACHING,0,973.29,974.12,-0.00,0.00,0.00,0.00,0.97329,0.97412,-0.00000,0.00000,0.00000,0.00000,-0.04856,-0.04705,-0.00000,-0.00000,-0.00000,0.00000,0.00000,0.00000,0.00000,0.00000,0.00000,0.00000,0.00000,0.00000,0.00000,0.00000,0.00000,0.00000,0.97329,0.97412,-0.00000,0.00000,0.00000,0.00000,0.04856,0.04705,0.00000,0.00000,0.00000,-0.00000,0.0000,,,,0.0042,,,,,,"[0.999, 0.000, 1.000, 0.000, 0.000, 0.000]",0x101000,1.1450,2,0,-0.000000,0.000000,-0.000000,0.0000,NO
23,1.1950,1.1950,0.0500,0.050,APPROACHING,0,970.81,971.72,-0.00,0.00,0.00,0.00,0.97081,0.97172,-0.00000,0.00000,0.00000,0.00000,-0.05077,-0.04919,-0.00000,-0.00000,-0.00000,-0.00000,0.00000,0.00000,0.00000,0.00000,0.00000,0.00000,0.00000,0.00000,0.00000,0.00000,0.00000,0.00000,0.97081,0.97172,-0.00000,0.00000,0.00000,0.00000,0.05077,0.04919,0.00000,0.00000,0.00000,0.00000,0.0000,,,,0.0041,,,,,,"[1.000, 0.000, 1.000, 0.000, 0.000, 0.000]",0x101000,1.1950,2,0,-0.000000,0.000000,0.000000,0.0000,NO
24,1.2450,1.2450,0.0500,0.050,APPROACHING,0,968.22,969.20,-0.00,0.00,0.00,0.00,0.96822,0.96920,-0.00000,0.00000,0.00000,0.00000,-0.05297,-0.05133,-0.00000,-0.00000,0.00000,0.00000,0.00000,0.00000,0.00000,0.00000,0.00000,0.00000,0.00000,0.00000,0.00000,0.00000,0.00000,0.00000,0.96822,0.96920,-0.00000,0.00000,0.00000,0.00000,0.05297,0.05133,0.00000,0.00000,-0.00000,-0.00000,0.0000,,,,0.0043,,,,,,"[1.000, 0.000, 1.000, 0.000, 0.000, 0.000]",0x101000,1.2450,2,0,-0.000000,-0.000000,-0.000000,0.0000,NO
25,1.2950,1.2950,0.0500,0.050,APPROACHING,0,965.51,966.58,-0.00,0.00,0.00,0.00,0.96551,0.96658,-0.00000,0.00000,0.00000,0.00000,-0.05518,-0.05346,-0.00000,-0.00000,-0.00000,-0.00000,0.00000,0.00000,0.00000,0.00000,0.00000,0.00000,0.00000,0.00000,0.00000,0.00000,0.00000,0.00000,0.96551,0.96658,-0.00000,0.00000,0.00000,0.00000,0.05518,0.05346,0.00000,0.00000,0.00000,0.00000,0.0000,,,,0.0056,,,,,,"[0.998, 0.002, 0.998, 0.002, 0.000, 0.000]",0x101000,1.2950,2,0,-0.000000,0.000000,0.000000,0.0000,NO
26,1.3450,1.3450,0.0500,0.050,APPROACHING,0,962.70,963.86,-0.00,0.00,0.00,0.00,0.96270,0.96386,-0.00000,0.00000,0.00000,0.00000,-0.05739,-0.05560,-0.00000,-0.00000,0.00000,0.00000,0.00000,0.00000,0.00000,0.00000,0.00000,0.00000,0.00000,0.00000,0.00000,0.00000,0.00000,0.00000,0.96270,0.96386,-0.00000,0.00000,0.00000,0.00000,0.05739,0.05560,0.00000,0.00000,-0.00000,-0.00000,0.0000,,,,0.0079,,,,,,"[0.999, 0.000, 1.000, 0.000, 0.000, 0.000]",0x101000,1.3450,2,0,-0.000000,-0.000000,-0.000000,0.0000,NO
27,1.3950,1.3950,0.0500,0.050,APPROACHING,0,959.77,961.02,-0.00,0.00,0.00,0.00,0.95977,0.96102,-0.00000,0.00000,0.00000,0.00000,-0.05960,-0.05774,-0.00000,-0.00000,-0.00000,-0.00000,0.00000,0.00000,0.00000,0.00000,0.00000,0.00000,0.00000,0.00000,0.00000,0.00000,0.00000,0.00000,0.95977,0.96102,-0.00000,0.00000,0.00000,0.00000,0.05960,0.05774,0.00000,0.00000,0.00000,0.00000,0.0000,,,,0.0062,,,,,,"[0.999, 0.001, 1.000, 0.000, 0.000, 0.000]",0x101000,1.3950,2,0,-0.000000,0.000000,0.000000,0.0000,NO
28,1.4450,1.4450,0.0500,0.050,APPROACHING,0,956.74,958.08,-0.00,0.00,0.00,0.00,0.95674,0.95808,-0.00000,0.00000,0.00000,0.00000,-0.06180,-0.05988,-0.00000,-0.00000,0.00000,0.00000,0.00000,0.00000,0.00000,0.00000,0.00000,0.00000,0.00000,0.00000,0.00000,0.00000,0.00000,0.00000,0.95674,0.95808,-0.00000,0.00000,0.00000,0.00000,0.06180,0.05988,0.00000,0.00000,-0.00000,-0.00000,0.0000,,,,0.0067,,,,,,"[0.999, 0.001, 1.000, 0.000, 0.000, 0.000]",0x101000,1.4450,2,0,-0.000000,-0.000000,-0.000000,0.0000,NO
29,1.4950,1.4950,0.0500,0.050,APPROACHING,0,953.59,955.04,-0.00,0.00,0.00,0.00,0.95359,0.95504,-0.00000,0.00000,0.00000,0.00000,-0.06401,-0.06202,-0.00000,-0.00000,-0.00000,-0.00000,0.00000,0.00000,0.00000,0.00000,0.00000,0.00000,0.00000,0.00000,0.00000,0.00000,0.00000,0.00000,0.95359,0.95504,-0.00000,0.00000,0.00000,0.00000,0.06401,0.06202,0.00000,0.00000,0.00000,0.00000,0.0000,,,,0.0057,,,,,,"[0.999, 0.001, 1.000, 0.001, 0.000, 0.000]",0x101000,1.4950,2,0,-0.000000,0.000000,0.000000,0.0000,NO
30,1.5450,1.5450,0.0500,0.050,APPROACHING,0,950.34,951.88,-0.00,0.00,0.00,0.00,0.95034,0.95188,-0.00000,0.00000,0.00000,0.00000,-0.06622,-0.06416,-0.00000,-0.00000,0.00000,0.00000,0.00000,0.00000,0.00000,0.00000,0.00000,0.00000,0.00000,0.00000,0.00000,0.00000,0.00000,0.00000,0.95034,0.95188,-0.00000,0.00000,0.00000,0.00000,0.06622,0.06416,0.00000,0.00000,-0.00000,-0.00000,0.0000,,,,0.0042,,,,,,"[1.000, 0.000, 1.000, 0.001, 0.000, 0.000]",0x101000,1.5450,2,0,-0.000000,-0.000000,-0.000000,0.0000,NO
31,1.5950,1.5950,0.0500,0.050,APPROACHING,0,946.97,948.62,-0.00,0.00,0.00,0.00,0.94697,0.94862,-0.00000,0.00000,0.00000,0.00000,-0.06842,-0.06630,-0.00000,-0.00000,0.00000,-0.00000,0.00000,0.00000,0.00000,0.00000,0.00000,0.00000,0.00000,0.00000,0.00000,0.00000,0.00000,0.00000,0.94697,0.94862,-0.00000,0.00000,0.00000,0.00000,0.06842,0.06630,0.00000,0.00000,-0.00000,0.00000,0.0000,,,,0.0041,,,,,,"[1.000, 0.000, 0.999, 0.001, 0.000, 0.000]",0x101000,1.5950,2,0,-0.000000,-0.000000,0.000000,0.0000,NO
32,1.6450,1.6450,0.0500,0.050,APPROACHING,0,943.49,945.25,-0.00,0.00,0.00,0.00,0.94349,0.94525,-0.00000,0.00000,0.00000,0.00000,-0.07063,-0.06843,-0.00000,-0.00000,-0.00000,0.00000,0.00000,0.00000,0.00000,0.00000,0.00000,0.00000,0.00000,0.00000,0.00000,0.00000,0.00000,0.00000,0.94349,0.94525,-0.00000,0.00000,0.00000,0.00000,0.07063,0.06843,0.00000,0.00000,0.00000,-0.00000,0.0000,,,,0.0043,,,,,,"[1.000, 0.000, 1.000, 0.000, 0.000, 0.000]",0x101000,1.6450,2,0,-0.000000,0.000000,-0.000000,0.0000,NO
33,1.6950,1.6950,0.0500,0.050,APPROACHING,0,939.91,941.78,-0.00,0.00,0.00,0.00,0.93991,0.94178,-0.00000,0.00000,0.00000,0.00000,-0.07284,-0.07057,-0.00000,-0.00000,0.00000,0.00000,0.00000,0.00000,0.00000,0.00000,0.00000,0.00000,0.00000,0.00000,0.00000,0.00000,0.00000,0.00000,0.93991,0.94178,-0.00000,0.00000,0.00000,0.00000,0.07284,0.07057,0.00000,0.00000,-0.00000,-0.00000,0.0000,,,,0.0042,,,,,,"[0.999, 0.001, 1.000, 0.000, 0.000, 0.000]",0x101000,1.6950,2,0,-0.000000,-0.000000,-0.000000,0.0000,NO
34,1.7450,1.7450,0.0500,0.050,APPROACHING,0,936.21,938.20,-0.00,0.00,0.00,0.00,0.93621,0.93820,-0.00000,0.00000,0.00000,0.00000,-0.07505,-0.07271,-0.00000,-0.00000,-0.00000,-0.00000,0.00000,0.00000,0.00000,0.00000,0.00000,0.00000,0.00000,0.00000,0.00000,0.00000,0.00000,0.00000,0.93621,0.93820,-0.00000,0.00000,0.00000,0.00000,0.07505,0.07271,0.00000,0.00000,0.00000,0.00000,0.0000,,,,0.0043,,,,,,"[0.999, 0.001, 1.000, 0.000, 0.000, 0.000]",0x101000,1.7450,2,0,-0.000000,0.000000,0.000000,0.0000,NO
35,1.7950,1.7950,0.0500,0.050,APPROACHING,0,932.40,934.51,-0.00,0.00,0.00,0.00,0.93240,0.93451,-0.00000,0.00000,0.00000,0.00000,-0.07725,-0.07485,-0.00000,-0.00000,0.00000,0.00000,0.00000,0.00000,0.00000,0.00000,0.00000,0.00000,0.00000,0.00000,0.00000,0.00000,0.00000,0.00000,0.93240,0.93451,-0.00000,0.00000,0.00000,0.00000,0.07725,0.07485,0.00000,0.00000,-0.00000,-0.00000,0.0000,,,,0.0044,,,,,,"[0.999, 0.001, 0.999, 0.001, 0.000, 0.000]",0x101000,1.7950,2,0,-0.000000,-0.000000,-0.000000,0.0000,NO
36,1.8450,1.8450,0.0500,0.050,APPROACHING,0,928.49,930.71,-0.00,0.00,0.00,0.00,0.92849,0.93071,-0.00000,0.00000,0.00000,0.00000,-0.07946,-0.07699,-0.00000,-0.00000,-0.00000,-0.00000,0.00000,0.00000,0.00000,0.00000,0.00000,0.00000,0.00000,0.00000,0.00000,0.00000,0.00000,0.00000,0.92849,0.93071,-0.00000,0.00000,0.00000,0.00000,0.07946,0.07699,0.00000,0.00000,0.00000,0.00000,0.0000,,,,0.0065,,,,,,"[1.000, 0.000, 0.999, 0.001, 0.000, 0.000]",0x101000,1.8450,2,0,-0.000000,0.000000,0.000000,0.0000,NO
37,1.8950,1.8950,0.0500,0.050,APPROACHING,0,924.46,926.81,-0.00,0.00,0.00,0.00,0.92446,0.92681,-0.00000,0.00000,0.00000,0.00000,-0.08167,-0.07913,-0.00000,-0.00000,0.00000,0.00000,0.00000,0.00000,0.00000,0.00000,0.00000,0.00000,0.00000,0.00000,0.00000,0.00000,0.00000,0.00000,0.92446,0.92681,-0.00000,0.00000,0.00000,0.00000,0.08167,0.07913,0.00000,0.00000,-0.00000,-0.00000,0.0000,,,,0.0044,,,,,,"[1.000, 0.000, 0.999, 0.001, 0.000, 0.000]",0x101000,1.8950,2,0,-0.000000,-0.000000,-0.000000,0.0000,NO
38,1.9450,1.9450,0.0500,0.050,APPROACHING,0,920.32,922.80,-0.00,0.00,0.00,0.00,0.92032,0.92280,-0.00000,0.00000,0.00000,0.00000,-0.08388,-0.08127,-0.00000,-0.00000,-0.00000,0.00000,0.00000,0.00000,0.00000,0.00000,0.00000,0.00000,0.00000,0.00000,0.00000,0.00000,0.00000,0.00000,0.92032,0.92280,-0.00000,0.00000,0.00000,0.00000,0.08388,0.08127,0.00000,0.00000,0.00000,-0.00000,0.0000,,,,0.0076,,,,,,"[0.999, 0.001, 1.000, 0.000, 0.000, 0.000]",0x101000,1.9450,2,0,-0.000000,0.000000,-0.000000,0.0000,NO
39,1.9950,1.9950,0.0500,0.050,APPROACHING,0,916.07,918.68,-0.00,0.00,0.00,0.00,0.91607,0.91868,-0.00000,0.00000,0.00000,0.00000,-0.08608,-0.08340,-0.00000,-0.00000,-0.00000,-0.00000,0.00000,0.00000,0.00000,0.00000,0.00000,0.00000,0.00000,0.00000,0.00000,0.00000,0.00000,0.00000,0.91607,0.91868,-0.00000,0.00000,0.00000,0.00000,0.08608,0.08340,0.00000,0.00000,0.00000,0.00000,0.0000,,,,0.0043,,,,,,"[0.999, 0.001, 1.000, 0.000, 0.000, 0.000]",0x101000,1.9950,2,0,-0.000000,0.000000,0.000000,0.0000,NO
40,2.0450,2.0450,0.0500,0.050,APPROACHING,0,911.71,914.46,-0.00,0.00,0.00,0.00,0.91171,0.91446,-0.00000,0.00000,0.00000,0.00000,-0.08829,-0.08554,-0.00000,-0.00000,0.00000,0.00000,0.00000,0.00000,0.00000,0.00000,0.00000,0.00000,0.00000,0.00000,0.00000,0.00000,0.00000,0.00000,0.91171,0.91446,-0.00000,0.00000,0.00000,0.00000,0.08829,0.08554,0.00000,0.00000,-0.00000,-0.00000,0.0000,,,,0.0044,,,,,,"[0.999, 0.001, 0.999, 0.001, 0.000, 0.000]",0x101000,2.0450,2,0,-0.000000,-0.000000,-0.000000,0.0000,NO
41,2.0950,2.0950,0.0500,0.050,APPROACHING,0,907.24,910.13,-0.00,0.00,0.00,0.00,0.90724,0.91013,-0.00000,0.00000,0.00000,0.00000,-0.09050,-0.08768,-0.00000,-0.00000,0.00000,-0.00000,0.00000,0.00000,0.00000,0.00000,0.00000,0.00000,0.00000,0.00000,0.00000,0.00000,0.00000,0.00000,0.90724,0.91013,-0.00000,0.00000,0.00000,0.00000,0.09050,0.08768,0.00000,0.00000,-0.00000,0.00000,0.0000,,,,0.0043,,,,,,"[1.000, 0.000, 0.999, 0.001, 0.000, 0.000]",0x101000,2.0950,2,0,0.000000,-0.000000,0.000000,0.0000,NO
42,2.1450,2.1450,0.0500,0.050,APPROACHING,0,902.66,905.69,-0.00,0.00,0.00,0.00,0.90266,0.90569,-0.00000,0.00000,0.00000,0.00000,-0.09270,-0.08982,-0.00000,-0.00000,-0.00000,0.00000,0.00000,0.00000,0.00000,0.00000,0.00000,0.00000,0.00000,0.00000,0.00000,0.00000,0.00000,0.00000,0.90266,0.90569,-0.00000,0.00000,0.00000,0.00000,0.09270,0.08982,0.00000,0.00000,0.00000,-0.00000,0.0000,,,,0.0064,,,,,,"[1.000, 0.000, 1.000, 0.000, 0.000, 0.000]",0x101000,2.1450,2,0,-0.000000,0.000000,-0.000000,0.0000,NO
43,2.1950,2.1950,0.0500,0.050,APPROACHING,0,897.97,901.14,-0.00,0.00,0.00,0.00,0.89797,0.90114,-0.00000,0.00000,0.00000,0.00000,-0.09491,-0.09196,-0.00000,-0.00000,0.00000,0.00000,0.00000,0.00000,0.00000,0.00000,0.00000,0.00000,0.00000,0.00000,0.00000,0.00000,0.00000,0.00000,0.89797,0.90114,-0.00000,0.00000,0.00000,0.00000,0.09491,0.09196,0.00000,0.00000,-0.00000,-0.00000,0.0000,,,,0.0043,,,,,,"[0.999, 0.001, 1.000, 0.000, 0.000, 0.000]",0x101000,2.1950,2,0,-0.000000,-0.000000,-0.000000,0.0000,NO
44,2.2450,2.2450,0.0500,0.050,APPROACHING,0,893.17,896.49,-0.00,0.00,0.00,0.00,0.89317,0.89649,-0.00000,0.00000,0.00000,0.00000,-0.09712,-0.09410,-0.00000,-0.00000,0.00000,0.00000,0.00000,0.00000,0.00000,0.00000,0.00000,0.00000,0.00000,0.00000,0.00000,0.00000,0.00000,0.00000,0.89317,0.89649,-0.00000,0.00000,0.00000,0.00000,0.09712,0.09410,0.00000,0.00000,-0.00000,-0.00000,0.0000,,,,0.0138,,,,,,"[0.999, 0.001, 1.000, 0.000, 0.000, 0.000]",0x101000,2.2450,2,0,-0.000000,-0.000000,-0.000000,0.0000,NO
45,2.2950,2.2950,0.0500,0.050,APPROACHING,0,888.26,891.73,-0.00,0.00,0.00,0.00,0.88826,0.89173,-0.00000,0.00000,0.00000,0.00000,-0.09933,-0.09624,-0.00000,-0.00000,0.00000,-0.00000,0.00000,0.00000,0.00000,0.00000,0.00000,0.00000,0.00000,0.00000,0.00000,0.00000,0.00000,0.00000,0.88826,0.89173,-0.00000,0.00000,0.00000,0.00000,0.09933,0.09624,0.00000,0.00000,-0.00000,0.00000,0.0000,,,,0.0054,,,,,,"[1.000, 0.000, 0.999, 0.001, 0.000, 0.000]",0x101000,2.2950,2,0,-0.000000,-0.000000,0.000000,0.0000,NO
46,2.3450,2.3450,0.0500,0.050,APPROACHING,0,883.24,886.87,-0.00,0.00,0.00,0.00,0.88324,0.88687,-0.00000,0.00000,0.00000,0.00000,-0.10153,-0.09837,-0.00000,-0.00000,0.00000,0.00000,0.00000,0.00000,0.00000,0.00000,0.00000,0.00000,0.00000,0.00000,0.00000,0.00000,0.00000,0.00000,0.88324,0.88687,-0.00000,0.00000,0.00000,0.00000,0.10153,0.09837,0.00000,0.00000,-0.00000,-0.00000,0.0000,,,,0.0094,,,,,,"[1.000, 0.000, 0.999, 0.001, 0.000, 0.000]",0x101000,2.3450,2,0,-0.000000,-0.000000,-0.000000,0.0000,NO
47,2.3950,2.3950,0.0500,0.050,APPROACHING,0,878.10,881.90,-0.00,0.00,0.00,0.00,0.87810,0.88190,-0.00000,0.00000,0.00000,0.00000,-0.10374,-0.10051,-0.00000,-0.00000,0.00000,0.00000,0.00000,0.00000,0.00000,0.00000,0.00000,0.00000,0.00000,0.00000,0.00000,0.00000,0.00000,0.00000,0.87810,0.88190,-0.00000,0.00000,0.00000,0.00000,0.10374,0.10051,0.00000,0.00000,-0.00000,-0.00000,0.0000,,,,0.0043,,,,,,"[0.999, 0.001, 1.000, 0.000, 0.000, 0.000]",0x101000,2.3950,2,0,-0.000000,-0.000000,-0.000000,0.0000,NO
48,2.4450,2.4450,0.0500,0.050,APPROACHING,0,872.86,876.82,-0.00,0.00,0.00,0.00,0.87286,0.87682,-0.00000,0.00000,0.00000,0.00000,-0.10595,-0.10265,-0.00000,-0.00000,0.00000,-0.00000,0.00000,0.00000,0.00000,0.00000,0.00000,0.00000,0.00000,0.00000,0.00000,0.00000,0.00000,0.00000,0.87286,0.87682,-0.00000,0.00000,0.00000,0.00000,0.10595,0.10265,0.00000,0.00000,-0.00000,0.00000,0.0000,,,,0.0033,,,,,,"[0.998, 0.002, 0.999, 0.002, 0.000, 0.000]",0x101000,2.4450,2,0,-0.000000,-0.000000,0.000000,0.0000,NO
49,2.4950,2.4950,0.0500,0.050,APPROACHING,0,867.51,871.63,-0.00,0.00,0.00,0.00,0.86751,0.87163,-0.00000,0.00000,0.00000,0.00000,-0.10816,-0.10479,-0.00000,-0.00000,0.00000,0.00000,0.00000,0.00000,0.00000,0.00000,0.00000,0.00000,0.00000,0.00000,0.00000,0.00000,0.00000,0.00000,0.86751,0.87163,-0.00000,0.00000,0.00000,0.00000,0.10816,0.10479,0.00000,0.00000,-0.00000,-0.00000,0.0000,,,,0.0044,,,,,,"[1.000, 0.000, 0.999, 0.001, 0.000, 0.000]",0x101000,2.4950,2,0,-0.000000,-0.000000,-0.000000,0.0000,NO
50,2.5450,2.5450,0.0500,0.050,APPROACHING,0,862.05,866.34,-0.00,0.00,0.00,0.00,0.86205,0.86634,-0.00000,0.00000,0.00000,0.00000,-0.11036,-0.10693,-0.00000,-0.00000,-0.00000,-0.00000,0.00000,0.00000,0.00000,0.00000,0.00000,0.00000,0.00000,0.00000,0.00000,0.00000,0.00000,0.00000,0.86205,0.86634,-0.00000,0.00000,0.00000,0.00000,0.11036,0.10693,0.00000,0.00000,0.00000,0.00000,0.0000,,,,0.0046,,,,,,"[0.999, 0.001, 1.000, 0.000, 0.000, 0.000]",0x101000,2.5450,2,0,-0.000000,0.000000,0.000000,0.0000,NO
51,2.5950,2.5950,0.0500,0.050,APPROACHING,0,856.47,860.94,-0.00,0.00,0.00,0.00,0.85647,0.86094,-0.00000,0.00000,0.00000,0.00000,-0.11257,-0.10907,-0.00000,-0.00000,0.00000,0.00000,0.00000,0.00000,0.00000,0.00000,0.00000,0.00000,0.00000,0.00000,0.00000,0.00000,0.00000,0.00000,0.85647,0.86094,-0.00000,0.00000,0.00000,0.00000,0.11257,0.10907,0.00000,0.00000,-0.00000,-0.00000,0.0000,,,,0.0040,,,,,,"[1.000, 0.000, 1.000, 0.000, 0.000, 0.000]",0x101000,2.5950,2,0,-0.000000,-0.000000,-0.000000,0.0000,NO
52,2.6450,2.6450,0.0500,0.050,APPROACHING,0,850.79,855.43,-0.00,0.00,0.00,0.00,0.85079,0.85543,-0.00000,0.00000,0.00000,0.00000,-0.11478,-0.11121,-0.00000,-0.00000,0.00000,0.00000,0.00000,0.00000,0.00000,0.00000,0.00000,0.00000,0.00000,0.00000,0.00000,0.00000,0.00000,0.00000,0.85079,0.85543,-0.00000,0.00000,0.00000,0.00000,0.11478,0.11121,0.00000,0.00000,-0.00000,-0.00000,0.0000,,,,0.0049,,,,,,"[1.000, 0.000, 0.999, 0.001, 0.000, 0.000]",0x101000,2.6450,2,0,0.000000,-0.000000,-0.000000,0.0000,NO
53,2.6950,2.6950,0.0500,0.050,APPROACHING,0,845.00,849.82,-0.00,0.00,0.00,0.00,0.84500,0.84982,-0.00000,0.00000,0.00000,0.00000,-0.11698,-0.11334,-0.00000,-0.00000,-0.00000,0.00000,0.00000,0.00000,0.00000,0.00000,0.00000,0.00000,0.00000,0.00000,0.00000,0.00000,0.00000,0.00000,0.84500,0.84982,-0.00000,0.00000,0.00000,0.00000,0.11698,0.11334,0.00000,0.00000,0.00000,-0.00000,0.0000,,,,0.0069,,,,,,"[0.999, 0.001, 1.000, 0.000, 0.000, 0.000]",0x101000,2.6950,2,0,-0.000000,0.000000,-0.000000,0.0000,NO
54,2.7450,2.7450,0.0500,0.050,APPROACHING,0,839.09,844.10,-0.00,0.00,0.00,0.00,0.83909,0.84410,-0.00000,0.00000,0.00000,0.00000,-0.11919,-0.11548,-0.00000,-0.00000,-0.00000,-0.00000,0.00000,0.00000,0.00000,0.00000,0.00000,0.00000,0.00000,0.00000,0.00000,0.00000,0.00000,0.00000,0.83909,0.84410,-0.00000,0.00000,0.00000,0.00000,0.11919,0.11548,0.00000,0.00000,0.00000,0.00000,0.0000,,,,0.0030,,,,,,"[0.999, 0.001, 0.999, 0.001, 0.000, 0.000]",0x101000,2.7450,2,0,-0.000000,0.000000,0.000000,0.0000,NO
55,2.7950,2.7950,0.0500,0.050,APPROACHING,0,833.08,838.27,-0.00,0.00,0.00,0.00,0.83308,0.83827,-0.00000,0.00000,0.00000,0.00000,-0.12140,-0.11762,-0.00000,-0.00000,0.00000,0.00000,0.00000,0.00000,0.00000,0.00000,0.00000,0.00000,0.00000,0.00000,0.00000,0.00000,0.00000,0.00000,0.83308,0.83827,-0.00000,0.00000,0.00000,0.00000,0.12140,0.11762,0.00000,0.00000,-0.00000,-0.00000,0.0000,,,,0.0156,,,,,,"[1.000, 0.000, 0.999, 0.001, 0.000, 0.000]",0x101000,2.7950,2,0,-0.000000,-0.000000,-0.000000,0.0000,NO
56,2.8450,2.8450,0.0500,0.050,APPROACHING,0,826.95,832.34,-0.00,0.00,0.00,0.00,0.82695,0.83234,-0.00000,0.00000,0.00000,0.00000,-0.12361,-0.11976,-0.00000,-0.00000,-0.00000,-0.00000,0.00000,0.00000,0.00000,0.00000,0.00000,0.00000,0.00000,0.00000,0.00000,0.00000,0.00000,0.00000,0.82695,0.83234,-0.00000,0.00000,0.00000,0.00000,0.12361,0.11976,0.00000,0.00000,0.00000,0.00000,0.0000,,,,0.0060,,,,,,"[0.999, 0.001, 1.000, 0.000, 0.000, 0.000]",0x101000,2.8450,2,0,-0.000000,0.000000,0.000000,0.0000,NO
57,2.8950,2.8950,0.0500,0.050,APPROACHING,0,820.72,826.29,-0.00,0.00,0.00,0.00,0.82072,0.82629,-0.00000,0.00000,0.00000,0.00000,-0.12581,-0.12190,-0.00000,-0.00000,0.00000,0.00000,0.00000,0.00000,0.00000,0.00000,0.00000,0.00000,0.00000,0.00000,0.00000,0.00000,0.00000,0.00000,0.82072,0.82629,-0.00000,0.00000,0.00000,0.00000,0.12581,0.12190,0.00000,0.00000,-0.00000,-0.00000,0.0000,,,,0.0057,,,,,,"[0.999, 0.001, 0.999, 0.001, 0.000, 0.000]",0x101000,2.8950,2,0,-0.000000,-0.000000,-0.000000,0.0000,NO
58,2.9450,2.9450,0.0500,0.050,APPROACHING,0,814.37,820.15,-0.00,0.00,0.00,0.00,0.81437,0.82015,-0.00000,0.00000,0.00000,0.00000,-0.12802,-0.12404,-0.00000,-0.00000,0.00000,-0.00000,0.00000,0.00000,0.00000,0.00000,0.00000,0.00000,0.00000,0.00000,0.00000,0.00000,0.00000,0.00000,0.81437,0.82015,-0.00000,0.00000,0.00000,0.00000,0.12802,0.12404,0.00000,0.00000,-0.00000,0.00000,0.0000,,,,0.0045,,,,,,"[0.999, 0.001, 0.999, 0.001, 0.000, 0.000]",0x101000,2.9450,2,0,-0.000000,-0.000000,0.000000,0.0000,NO
59,2.9950,2.9950,0.0500,0.050,APPROACHING,0,807.91,813.89,-0.00,0.00,0.00,0.00,0.80791,0.81389,-0.00000,0.00000,0.00000,0.00000,-0.13023,-0.12618,-0.00000,-0.00000,0.00000,0.00000,0.00000,0.00000,0.00000,0.00000,0.00000,0.00000,0.00000,0.00000,0.00000,0.00000,0.00000,0.00000,0.80791,0.81389,-0.00000,0.00000,0.00000,0.00000,0.13023,0.12618,0.00000,0.00000,-0.00000,-0.00000,0.0000,,,,0.0120,,,,,,"[0.999, 0.001, 0.999, 0.001, 0.000, 0.000]",0x101000,2.9950,2,0,-0.000000,-0.000000,-0.000000,0.0000,NO
60,3.0450,3.0450,0.0500,0.050,APPROACHING,0,801.35,807.53,-0.00,0.00,0.00,0.00,0.80135,0.80753,-0.00000,0.00000,0.00000,0.00000,-0.13244,-0.12831,-0.00000,-0.00000,0.00000,0.00000,0.00000,0.00000,0.00000,0.00000,0.00000,0.00000,0.00000,0.00000,0.00000,0.00000,0.00000,0.00000,0.80135,0.80753,-0.00000,0.00000,0.00000,0.00000,0.13244,0.12831,0.00000,0.00000,-0.00000,-0.00000,0.0000,,,,0.0043,,,,,,"[0.999, 0.001, 0.999, 0.001, 0.000, 0.000]",0x101000,3.0450,2,0,-0.000000,-0.000000,-0.000000,0.0000,NO
61,3.0950,3.0950,0.0500,0.050,APPROACHING,0,794.67,801.06,-0.00,0.00,0.00,0.00,0.79467,0.80106,-0.00000,0.00000,0.00000,0.00000,-0.13464,-0.13045,-0.00000,-0.00000,-0.00000,-0.00000,0.00000,0.00000,0.00000,0.00000,0.00000,0.00000,0.00000,0.00000,0.00000,0.00000,0.00000,0.00000,0.79467,0.80106,-0.00000,0.00000,0.00000,0.00000,0.13464,0.13045,0.00000,0.00000,0.00000,0.00000,0.0000,,,,0.0046,,,,,,"[0.999, 0.001, 0.999, 0.001, 0.000, 0.000]",0x101000,3.0950,2,0,-0.000000,0.000000,0.000000,0.0000,NO
62,3.1450,3.1450,0.0500,0.050,APPROACHING,0,787.88,794.48,-0.00,0.00,0.00,0.00,0.78788,0.79448,-0.00000,0.00000,0.00000,0.00000,-0.13685,-0.13259,-0.00000,-0.00000,0.00000,0.00000,0.00000,0.00000,0.00000,0.00000,0.00000,0.00000,0.00000,0.00000,0.00000,0.00000,0.00000,0.00000,0.78788,0.79448,-0.00000,0.00000,0.00000,0.00000,0.13685,0.13259,0.00000,0.00000,-0.00000,-0.00000,0.0000,,,,0.0041,,,,,,"[1.000, 0.000, 1.000, 0.000, 0.000, 0.000]",0x101000,3.1450,2,0,-0.000000,-0.000000,-0.000000,0.0000,NO
63,3.1950,3.1950,0.0500,0.050,APPROACHING,0,780.99,787.80,-0.00,0.00,0.00,0.00,0.78099,0.78780,-0.00000,0.00000,0.00000,0.00000,-0.13906,-0.13473,-0.00000,-0.00000,-0.00000,-0.00000,0.00000,0.00000,0.00000,0.00000,0.00000,0.00000,0.00000,0.00000,0.00000,0.00000,0.00000,0.00000,0.78099,0.78780,-0.00000,0.00000,0.00000,0.00000,0.13906,0.13473,0.00000,0.00000,0.00000,0.00000,0.0000,,,,0.0046,,,,,,"[1.000, 0.000, 0.999, 0.001, 0.000, 0.000]",0x101000,3.1950,2,0,-0.000000,0.000000,0.000000,0.0000,NO
64,3.2450,3.2450,0.0500,0.050,APPROACHING,0,773.98,781.01,-0.00,0.00,0.00,0.00,0.77398,0.78101,-0.00000,0.00000,0.00000,0.00000,-0.14126,-0.13687,-0.00000,-0.00000,0.00000,-0.00000,0.00000,0.00000,0.00000,0.00000,0.00000,0.00000,0.00000,0.00000,0.00000,0.00000,0.00000,0.00000,0.77398,0.78101,-0.00000,0.00000,0.00000,0.00000,0.14126,0.13687,0.00000,0.00000,-0.00000,0.00000,0.0000,,,,0.0064,,,,,,"[0.999, 0.001, 1.000, 0.000, 0.000, 0.000]",0x101000,3.2450,2,0,-0.000000,-0.000000,0.000000,0.0000,NO
65,3.2950,3.2950,0.0500,0.050,APPROACHING,0,766.86,774.11,-0.00,0.00,0.00,0.00,0.76686,0.77411,-0.00000,0.00000,0.00000,0.00000,-0.14347,-0.13901,-0.00000,-0.00000,0.00000,0.00000,0.00000,0.00000,0.00000,0.00000,0.00000,0.00000,0.00000,0.00000,0.00000,0.00000,0.00000,0.00000,0.76686,0.77411,-0.00000,0.00000,0.00000,0.00000,0.14347,0.13901,0.00000,0.00000,-0.00000,-0.00000,0.0000,,,,0.0029,,,,,,"[1.000, 0.000, 1.000, 0.000, 0.000, 0.000]",0x101000,3.2950,2,0,-0.000000,-0.000000,-0.000000,0.0000,NO
66,3.3450,3.3450,0.0500,0.050,APPROACHING,0,759.63,767.11,-0.00,0.00,0.00,0.00,0.75963,0.76711,-0.00000,0.00000,0.00000,0.00000,-0.14568,-0.14115,-0.00000,-0.00000,0.00000,-0.00000,0.00000,0.00000,0.00000,0.00000,0.00000,0.00000,0.00000,0.00000,0.00000,0.00000,0.00000,0.00000,0.75963,0.76711,-0.00000,0.00000,0.00000,0.00000,0.14568,0.14115,0.00000,0.00000,-0.00000,0.00000,0.0000,,,,0.0046,,,,,,"[0.998, 0.002, 0.998, 0.002, 0.000, 0.000]",0x101000,3.3450,2,0,-0.000000,-0.000000,0.000000,0.0000,NO
67,3.3950,3.3950,0.0500,0.050,APPROACHING,0,752.29,760.00,-0.00,0.00,0.00,0.00,0.75229,0.76000,-0.00000,0.00000,0.00000,0.00000,-0.14789,-0.14328,-0.00000,-0.00000,0.00000,-0.00000,0.00000,0.00000,0.00000,0.00000,0.00000,0.00000,0.00000,0.00000,0.00000,0.00000,0.00000,0.00000,0.75229,0.76000,-0.00000,0.00000,0.00000,0.00000,0.14789,0.14328,0.00000,0.00000,-0.00000,0.00000,0.0000,,,,0.0040,,,,,,"[0.999, 0.001, 1.000, 0.000, 0.000, 0.000]",0x101000,3.3950,2,0,-0.000000,-0.000000,0.000000,0.0000,NO
68,3.4450,3.4450,0.0500,0.050,APPROACHING,0,744.84,752.78,-0.00,0.00,0.00,0.00,0.74484,0.75278,-0.00000,0.00000,0.00000,0.00000,-0.15009,-0.14542,-0.00000,-0.00000,0.00000,0.00000,0.00000,0.00000,0.00000,0.00000,0.00000,0.00000,0.00000,0.00000,0.00000,0.00000,0.00000,0.00000,0.74484,0.75278,-0.00000,0.00000,0.00000,0.00000,0.15009,0.14542,0.00000,0.00000,-0.00000,-0.00000,0.0000,,,,0.0064,,,,,,"[1.000, 0.000, 1.000, 0.001, 0.000, 0.000]",0x101000,3.4450,2,0,-0.000000,-0.000000,-0.000000,0.0000,NO
69,3.4950,3.4950,0.0500,0.050,APPROACHING,0,737.28,745.46,-0.00,0.00,0.00,0.00,0.73728,0.74546,-0.00000,0.00000,0.00000,0.00000,-0.15230,-0.14756,-0.00000,-0.00000,0.00000,-0.00000,0.00000,0.00000,0.00000,0.00000,0.00000,0.00000,0.00000,0.00000,0.00000,0.00000,0.00000,0.00000,0.73728,0.74546,-0.00000,0.00000,0.00000,0.00000,0.15230,0.14756,0.00000,0.00000,-0.00000,0.00000,0.0000,,,,0.0045,,,,,,"[1.000, 0.000, 1.000, 0.000, 0.000, 0.000]",0x101000,3.4950,2,0,-0.000000,-0.000000,0.000000,0.0000,NO
70,3.5450,3.5450,0.0500,0.050,APPROACHING,0,729.61,738.02,-0.00,0.00,0.00,0.00,0.72961,0.73802,-0.00000,0.00000,0.00000,0.00000,-0.15451,-0.14970,-0.00000,-0.00000,0.00000,0.00000,0.00000,0.00000,0.00000,0.00000,0.00000,0.00000,0.00000,0.00000,0.00000,0.00000,0.00000,0.00000,0.72961,0.73802,-0.00000,0.00000,0.00000,0.00000,0.15451,0.14970,0.00000,0.00000,-0.00000,-0.00000,0.0000,,,,0.0029,,,,,,"[0.999, 0.001, 1.000, 0.000, 0.000, 0.000]",0x101000,3.5450,2,0,-0.000000,-0.000000,-0.000000,0.0000,NO
71,3.5950,3.5950,0.0500,0.050,APPROACHING,0,721.83,730.49,-0.00,0.00,0.00,0.00,0.72183,0.73049,-0.00000,0.00000,0.00000,0.00000,-0.15671,-0.15184,-0.00000,-0.00000,-0.00000,0.00000,0.00000,0.00000,0.00000,0.00000,0.00000,0.00000,0.00000,0.00000,0.00000,0.00000,0.00000,0.00000,0.72183,0.73049,-0.00000,0.00000,0.00000,0.00000,0.15671,0.15184,0.00000,0.00000,0.00000,-0.00000,0.0000,,,,0.0047,,,,,,"[1.000, 0.000, 0.998, 0.002, 0.000, 0.000]",0x101000,3.5950,2,0,-0.000000,0.000000,-0.000000,0.0000,NO
72,3.6450,3.6450,0.0500,0.050,APPROACHING,0,713.94,722.84,-0.00,0.00,0.00,0.00,0.71394,0.72284,-0.00000,0.00000,0.00000,0.00000,-0.15892,-0.15398,-0.00000,-0.00000,0.00000,-0.00000,0.00000,0.00000,0.00000,0.00000,0.00000,0.00000,0.00000,0.00000,0.00000,0.00000,0.00000,0.00000,0.71394,0.72284,-0.00000,0.00000,0.00000,0.00000,0.15892,0.15398,0.00000,0.00000,-0.00000,0.00000,0.0000,,,,0.0035,,,,,,"[1.000, 0.000, 1.000, 0.000, 0.000, 0.000]",0x101000,3.6450,2,0,-0.000000,-0.000000,0.000000,0.0000,NO
73,3.6950,3.6950,0.0500,0.050,APPROACHING,0,705.94,715.09,-0.00,0.00,0.00,0.00,0.70594,0.71509,-0.00000,0.00000,0.00000,0.00000,-0.16113,-0.15612,-0.00000,-0.00000,0.00000,0.00000,0.00000,0.00000,0.00000,0.00000,0.00000,0.00000,0.00000,0.00000,0.00000,0.00000,0.00000,0.00000,0.70594,0.71509,-0.00000,0.00000,0.00000,0.00000,0.16113,0.15612,0.00000,0.00000,-0.00000,-0.00000,0.0000,,,,0.0029,,,,,,"[0.998, 0.002, 1.000, 0.000, 0.000, 0.000]",0x101000,3.6950,2,0,-0.000000,-0.000000,-0.000000,0.0000,NO
74,3.7450,3.7450,0.0500,0.050,APPROACHING,0,697.83,707.23,-0.00,0.00,0.00,0.00,0.69783,0.70723,-0.00000,0.00000,0.00000,0.00000,-0.16334,-0.15825,-0.00000,-0.00000,0.00000,0.00000,0.00000,0.00000,0.00000,0.00000,0.00000,0.00000,0.00000,0.00000,0.00000,0.00000,0.00000,0.00000,0.69783,0.70723,-0.00000,0.00000,0.00000,0.00000,0.16334,0.15825,0.00000,0.00000,-0.00000,-0.00000,0.0000,,,,0.0048,,,,,,"[1.000, 0.000, 0.999, 0.001, 0.000, 0.000]",0x101000,3.7450,2,0,-0.000000,-0.000000,-0.000000,0.0000,NO
75,3.7950,3.7950,0.0500,0.050,APPROACHING,0,689.61,699.26,-0.00,0.00,0.00,0.00,0.68961,0.69926,-0.00000,0.00000,0.00000,0.00000,-0.16554,-0.16039,-0.00000,-0.00000,0.00000,-0.00000,0.00000,0.00000,0.00000,0.00000,0.00000,0.00000,0.00000,0.00000,0.00000,0.00000,0.00000,0.00000,0.68961,0.69926,-0.00000,0.00000,0.00000,0.00000,0.16554,0.16039,0.00000,0.00000,-0.00000,0.00000,0.0000,,,,0.0030,,,,,,"[1.000, 0.000, 0.999, 0.001, 0.000, 0.000]",0x101000,3.7950,2,0,-0.000000,-0.000000,0.000000,0.0000,NO
76,3.8450,3.8450,0.0500,0.050,APPROACHING,0,681.27,691.19,-0.00,0.00,0.00,0.00,0.68127,0.69119,-0.00000,0.00000,0.00000,0.00000,-0.16775,-0.16253,-0.00000,-0.00000,0.00000,0.00000,0.00000,0.00000,0.00000,0.00000,0.00000,0.00000,0.00000,0.00000,0.00000,0.00000,0.00000,0.00000,0.68127,0.69119,-0.00000,0.00000,0.00000,0.00000,0.16775,0.16253,0.00000,0.00000,-0.00000,-0.00000,0.0000,,,,0.0042,,,,,,"[1.000, 0.000, 1.000, 0.000, 0.000, 0.000]",0x101000,3.8450,2,0,-0.000000,-0.000000,-0.000000,0.0000,NO
77,3.8950,3.8950,0.0500,0.050,APPROACHING,0,672.83,683.01,-0.00,0.00,0.00,0.00,0.67283,0.68301,-0.00000,0.00000,0.00000,0.00000,-0.16996,-0.16467,-0.00000,-0.00000,0.00000,0.00000,0.00000,0.00000,0.00000,0.00000,0.00000,0.00000,0.00000,0.00000,0.00000,0.00000,0.00000,0.00000,0.67283,0.68301,-0.00000,0.00000,0.00000,0.00000,0.16996,0.16467,0.00000,0.00000,-0.00000,-0.00000,0.0000,,,,0.0030,,,,,,"[1.000, 0.000, 1.000, 0.000, 0.000, 0.000]",0x101000,3.8950,2,0,-0.000000,-0.000000,-0.000000,0.0000,NO
78,3.9450,3.9450,0.0500,0.050,APPROACHING,0,664.28,674.72,-0.00,0.00,0.00,0.00,0.66428,0.67472,-0.00000,0.00000,0.00000,0.00000,-0.17217,-0.16681,-0.00000,-0.00000,0.00000,0.00000,0.00000,0.00000,0.00000,0.00000,0.00000,0.00000,0.00000,0.00000,0.00000,0.00000,0.00000,0.00000,0.66428,0.67472,-0.00000,0.00000,0.00000,0.00000,0.17217,0.16681,0.00000,0.00000,-0.00000,-0.00000,0.0000,,,,0.0049,,,,,,"[1.000, 0.000, 1.000, 0.000, 0.000, 0.000]",0x101000,3.9450,2,0,-0.000000,-0.000000,-0.000000,0.0000,NO
79,3.9950,3.9950,0.0500,0.050,APPROACHING,0,655.61,666.33,-0.00,0.00,0.00,0.00,0.65561,0.66633,-0.00000,0.00000,0.00000,0.00000,-0.17437,-0.16895,-0.00000,-0.00000,-0.00000,-0.00000,0.00000,0.00000,0.00000,0.00000,0.00000,0.00000,0.00000,0.00000,0.00000,0.00000,0.00000,0.00000,0.65561,0.66633,-0.00000,0.00000,0.00000,0.00000,0.17437,0.16895,0.00000,0.00000,0.00000,0.00000,0.0000,,,,0.0030,,,,,,"[0.999, 0.001, 0.999, 0.001, 0.000, 0.000]",0x101000,3.9950,2,0,-0.000000,0.000000,0.000000,0.0000,NO
80,4.0450,4.0450,0.0500,0.050,APPROACHING,0,646.84,657.83,-0.00,0.00,0.00,0.00,0.64684,0.65783,-0.00000,0.00000,0.00000,0.00000,-0.17658,-0.17109,-0.00000,-0.00000,0.00000,0.00000,0.00000,0.00000,0.00000,0.00000,0.00000,0.00000,0.00000,0.00000,0.00000,0.00000,0.00000,0.00000,0.64684,0.65783,-0.00000,0.00000,0.00000,0.00000,0.17658,0.17109,0.00000,0.00000,-0.00000,-0.00000,0.0000,,,,0.0036,,,,,,"[0.999, 0.001, 0.999, 0.001, 0.000, 0.000]",0x101000,4.0450,2,0,-0.000000,-0.000000,-0.000000,0.0000,NO
81,4.0950,4.0950,0.0500,0.050,APPROACHING,0,637.96,649.22,-0.00,0.00,0.00,0.00,0.63796,0.64922,-0.00000,0.00000,0.00000,0.00000,-0.17879,-0.17322,-0.00000,-0.00000,-0.00000,-0.00000,0.00000,0.00000,0.00000,0.00000,0.00000,0.00000,0.00000,0.00000,0.00000,0.00000,0.00000,0.00000,0.63796,0.64922,-0.00000,0.00000,0.00000,0.00000,0.17879,0.17322,0.00000,0.00000,0.00000,0.00000,0.0000,,,,0.0073,,,,,,"[1.000, 0.000, 1.000, 0.000, 0.000, 0.000]",0x101000,4.0950,2,0,-0.000000,0.000000,0.000000,0.0000,NO
82,4.1450,4.1450,0.0500,0.050,APPROACHING,0,628.96,640.50,-0.00,0.00,0.00,0.00,0.62896,0.64050,-0.00000,0.00000,0.00000,0.00000,-0.18099,-0.17536,-0.00000,-0.00000,0.00000,0.00000,0.00000,0.00000,0.00000,0.00000,0.00000,0.00000,0.00000,0.00000,0.00000,0.00000,0.00000,0.00000,0.62896,0.64050,-0.00000,0.00000,0.00000,0.00000,0.18099,0.17536,0.00000,0.00000,-0.00000,-0.00000,0.0000,,,,0.0143,,,,,,"[1.000, 0.000, 1.000, 0.000, 0.000, 0.000]",0x101000,4.1450,2,0,-0.000000,-0.000000,-0.000000,0.0000,NO
83,4.1950,4.1950,0.0500,0.050,APPROACHING,0,619.86,631.68,-0.00,0.00,0.00,0.00,0.61986,0.63168,-0.00000,0.00000,0.00000,0.00000,-0.18320,-0.17750,-0.00000,-0.00000,-0.00000,-0.00000,0.00000,0.00000,0.00000,0.00000,0.00000,0.00000,0.00000,0.00000,0.00000,0.00000,0.00000,0.00000,0.61986,0.63168,-0.00000,0.00000,0.00000,0.00000,0.18320,0.17750,0.00000,0.00000,0.00000,0.00000,0.0000,,,,0.0048,,,,,,"[1.000, 0.000, 1.000, 0.000, 0.000, 0.000]",0x101000,4.1950,2,0,-0.000000,0.000000,0.000000,0.0000,NO
84,4.2450,4.2450,0.0500,0.050,APPROACHING,0,610.64,622.75,-0.00,0.00,0.00,0.00,0.61064,0.62275,-0.00000,0.00000,0.00000,0.00000,-0.18541,-0.17964,-0.00000,-0.00000,0.00000,0.00000,0.00000,0.00000,0.00000,0.00000,0.00000,0.00000,0.00000,0.00000,0.00000,0.00000,0.00000,0.00000,0.61064,0.62275,-0.00000,0.00000,0.00000,0.00000,0.18541,0.17964,0.00000,0.00000,-0.00000,-0.00000,0.0000,,,,0.0084,,,,,,"[1.000, 0.000, 1.000, 0.000, 0.000, 0.000]",0x101000,4.2450,2,0,-0.000000,-0.000000,-0.000000,0.0000,NO
85,4.2950,4.2950,0.0500,0.050,APPROACHING,0,601.32,613.72,-0.00,0.00,0.00,0.00,0.60132,0.61372,-0.00000,0.00000,0.00000,0.00000,-0.18762,-0.18178,-0.00000,-0.00000,-0.00000,-0.00000,0.00000,0.00000,0.00000,0.00000,0.00000,0.00000,0.00000,0.00000,0.00000,0.00000,0.00000,0.00000,0.60132,0.61372,-0.00000,0.00000,0.00000,0.00000,0.18762,0.18178,0.00000,0.00000,0.00000,0.00000,0.0000,,,,0.0032,,,,,,"[1.000, 0.000, 1.000, 0.000, 0.000, 0.000]",0x101000,4.2950,2,0,-0.000000,0.000000,0.000000,0.0000,NO
86,4.3450,4.3450,0.0500,0.050,APPROACHING,0,591.88,604.58,-0.00,0.00,0.00,0.00,0.59188,0.60458,-0.00000,0.00000,0.00000,0.00000,-0.18982,-0.18392,-0.00000,-0.00000,0.00000,0.00000,0.00000,0.00000,0.00000,0.00000,0.00000,0.00000,0.00000,0.00000,0.00000,0.00000,0.00000,0.00000,0.59188,0.60458,-0.00000,0.00000,0.00000,0.00000,0.18982,0.18392,0.00000,0.00000,-0.00000,-0.00000,0.0000,,,,0.0046,,,,,,"[1.000, 0.000, 1.000, 0.000, 0.000, 0.000]",0x101000,4.3450,2,0,-0.000000,-0.000000,-0.000000,0.0000,NO
87,4.3950,4.3950,0.0500,0.050,APPROACHING,0,582.33,595.33,-0.00,0.00,0.00,0.00,0.58233,0.59533,-0.00000,0.00000,0.00000,0.00000,-0.19203,-0.18606,-0.00000,-0.00000,-0.00000,-0.00000,0.00000,0.00000,0.00000,0.00000,0.00000,0.00000,0.00000,0.00000,0.00000,0.00000,0.00000,0.00000,0.58233,0.59533,-0.00000,0.00000,0.00000,0.00000,0.19203,0.18606,0.00000,0.00000,0.00000,0.00000,0.0000,,,,0.0094,,,,,,"[1.000, 0.000, 1.000, 0.000, 0.000, 0.000]",0x101000,4.3950,2,0,-0.000000,0.000000,0.000000,0.0000,NO
88,4.4450,4.4450,0.0500,0.050,APPROACHING,0,572.68,585.97,-0.00,0.00,0.00,0.00,0.57268,0.58597,-0.00000,0.00000,0.00000,0.00000,-0.19424,-0.18820,-0.00000,-0.00000,0.00000,0.00000,0.00000,0.00000,0.00000,0.00000,0.00000,0.00000,0.00000,0.00000,0.00000,0.00000,0.00000,0.00000,0.57268,0.58597,-0.00000,0.00000,0.00000,0.00000,0.19424,0.18820,0.00000,0.00000,-0.00000,-0.00000,0.0000,,,,0.0068,,,,,,"[1.000, 0.000, 1.000, 0.000, 0.000, 0.000]",0x101000,4.4450,2,0,-0.000000,-0.000000,-0.000000,0.0000,NO
89,4.4950,4.4950,0.0500,0.050,APPROACHING,0,562.91,576.51,-0.00,0.00,0.00,0.00,0.56291,0.57651,-0.00000,0.00000,0.00000,0.00000,-0.19645,-0.19033,-0.00000,-0.00000,-0.00000,-0.00000,0.00000,0.00000,0.00000,0.00000,0.00000,0.00000,0.00000,0.00000,0.00000,0.00000,0.00000,0.00000,0.56291,0.57651,-0.00000,0.00000,0.00000,0.00000,0.19645,0.19033,0.00000,0.00000,0.00000,0.00000,0.0000,,,,0.0030,,,,,,"[1.000, 0.000, 1.000, 0.000, 0.000, 0.000]",0x101000,4.4950,2,0,-0.000000,0.000000,0.000000,0.0000,NO
90,4.5450,4.5450,0.0500,0.050,APPROACHING,0,553.03,566.94,-0.00,0.00,0.00,0.00,0.55303,0.56694,-0.00000,0.00000,0.00000,0.00000,-0.19865,-0.19247,-0.00000,-0.00000,0.00000,0.00000,0.00000,0.00000,0.00000,0.00000,0.00000,0.00000,0.00000,0.00000,0.00000,0.00000,0.00000,0.00000,0.55303,0.56694,-0.00000,0.00000,0.00000,0.00000,0.19865,0.19247,0.00000,0.00000,-0.00000,-0.00000,0.0000,,,,0.0030,,,,,,"[1.000, 0.000, 1.000, 0.000, 0.000, 0.000]",0x101000,4.5450,2,0,-0.000000,-0.000000,-0.000000,0.0000,NO
91,4.5950,4.5950,0.0500,0.050,APPROACHING,0,543.04,557.26,-0.00,0.00,0.00,0.00,0.54304,0.55726,-0.00000,0.00000,0.00000,0.00000,-0.20086,-0.19461,-0.00000,-0.00000,-0.00000,-0.00000,0.00000,0.00000,0.00000,0.00000,0.00000,0.00000,0.00000,0.00000,0.00000,0.00000,0.00000,0.00000,0.54304,0.55726,-0.00000,0.00000,0.00000,0.00000,0.20086,0.19461,0.00000,0.00000,0.00000,0.00000,0.0000,,,,0.0030,,,,,,"[1.000, 0.000, 1.000, 0.000, 0.000, 0.000]",0x101000,4.5950,2,0,-0.000000,0.000000,0.000000,0.0000,NO
92,4.6450,4.6450,0.0500,0.050,APPROACHING,0,532.95,547.48,-0.00,0.00,0.00,0.00,0.53295,0.54748,-0.00000,0.00000,0.00000,0.00000,-0.20307,-0.19675,-0.00000,-0.00000,0.00000,0.00000,0.00000,0.00000,0.00000,0.00000,0.00000,0.00000,0.00000,0.00000,0.00000,0.00000,0.00000,0.00000,0.53295,0.54748,-0.00000,0.00000,0.00000,0.00000,0.20307,0.19675,0.00000,0.00000,-0.00000,-0.00000,0.0000,,,,0.0030,,,,,,"[0.999, 0.001, 1.000, 0.000, 0.000, 0.000]",0x101000,4.6450,2,0,-0.000000,-0.000000,-0.000000,0.0000,NO
93,4.6950,4.6950,0.0500,0.050,APPROACHING,0,522.74,537.59,-0.00,0.00,0.00,0.00,0.52274,0.53759,-0.00000,0.00000,0.00000,0.00000,-0.20527,-0.19889,-0.00000,-0.00000,0.00000,-0.00000,0.00000,0.00000,0.00000,0.00000,0.00000,0.00000,0.00000,0.00000,0.00000,0.00000,0.00000,0.00000,0.52274,0.53759,-0.00000,0.00000,0.00000,0.00000,0.20527,0.19889,0.00000,0.00000,-0.00000,0.00000,0.0000,,,,0.0016,,,,,,"[0.999, 0.001, 1.000, 0.000, 0.000, 0.000]",0x101000,4.6950,2,0,-0.000000,-0.000000,0.000000,0.0000,NO
94,4.7450,4.7450,0.0500,0.050,APPROACHING,0,512.42,527.59,-0.00,0.00,0.00,0.00,0.51242,0.52759,-0.00000,0.00000,0.00000,0.00000,-0.20748,-0.20103,-0.00000,-0.00000,0.00000,0.00000,0.00000,0.00000,0.00000,0.00000,0.00000,0.00000,0.00000,0.00000,0.00000,0.00000,0.00000,0.00000,0.51242,0.52759,-0.00000,0.00000,0.00000,0.00000,0.20748,0.20103,0.00000,0.00000,-0.00000,-0.00000,0.0000,,,,0.0030,,,,,,"[1.000, 0.000, 1.000, 0.000, 0.000, 0.000]",0x101000,4.7450,2,0,-0.000000,-0.000000,-0.000000,0.0000,NO
95,4.7950,4.7950,0.0500,0.050,APPROACHING,0,501.99,517.48,-0.00,0.00,0.00,0.00,0.50199,0.51748,-0.00000,0.00000,0.00000,0.00000,-0.20969,-0.20317,-0.00000,-0.00000,-0.00000,-0.00000,0.00000,0.00000,0.00000,0.00000,0.00000,0.00000,0.00000,0.00000,0.00000,0.00000,0.00000,0.00000,0.50199,0.51748,-0.00000,0.00000,0.00000,0.00000,0.20969,0.20317,0.00000,0.00000,0.00000,0.00000,0.0000,,,,0.0059,,,,,,"[1.000, 0.000, 1.000, 0.000, 0.000, 0.000]",0x101000,4.7950,2,0,-0.000000,0.000000,0.000000,0.0000,NO
96,4.8450,4.8450,0.0500,0.050,APPROACHING,0,491.45,507.27,-0.00,0.00,0.00,0.00,0.49145,0.50727,-0.00000,0.00000,0.00000,0.00000,-0.21190,-0.20530,-0.00000,-0.00000,0.00000,0.00000,0.00000,0.00000,0.00000,0.00000,0.00000,0.00000,0.00000,0.00000,0.00000,0.00000,0.00000,0.00000,0.49145,0.50727,-0.00000,0.00000,0.00000,0.00000,0.21190,0.20530,0.00000,0.00000,-0.00000,-0.00000,0.0000,,,,0.0048,,,,,,"[1.000, 0.000, 1.000, 0.000, 0.000, 0.000]",0x101000,4.8450,2,0,-0.000000,-0.000000,-0.000000,0.0000,NO
97,4.8950,4.8950,0.0500,0.050,APPROACHING,0,480.80,496.95,-0.00,0.00,0.00,0.00,0.48080,0.49695,-0.00000,0.00000,0.00000,0.00000,-0.21410,-0.20744,-0.00000,-0.00000,-0.00000,-0.00000,0.00000,0.00000,0.00000,0.00000,0.00000,0.00000,0.00000,0.00000,0.00000,0.00000,0.00000,0.00000,0.48080,0.49695,-0.00000,0.00000,0.00000,0.00000,0.21410,0.20744,0.00000,0.00000,0.00000,0.00000,0.0000,,,,0.0047,,,,,,"[1.000, 0.000, 0.999, 0.001, 0.000, 0.000]",0x101000,4.8950,2,0,-0.000000,0.000000,0.000000,0.0000,NO
98,4.9450,4.9450,0.0500,0.050,APPROACHING,0,470.04,486.53,-0.00,0.00,0.00,0.00,0.47004,0.48653,-0.00000,0.00000,0.00000,0.00000,-0.21631,-0.20958,-0.00000,-0.00000,0.00000,0.00000,0.00000,0.00000,0.00000,0.00000,0.00000,0.00000,0.00000,0.00000,0.00000,0.00000,0.00000,0.00000,0.47004,0.48653,-0.00000,0.00000,0.00000,0.00000,0.21631,0.20958,0.00000,0.00000,-0.00000,-0.00000,0.0000,,,,0.0030,,,,,,"[0.999, 0.001, 1.000, 0.000, 0.000, 0.000]",0x101000,4.9450,2,0,-0.000000,-0.000000,-0.000000,0.0000,NO
99,4.9950,4.9950,0.0500,0.050,APPROACHING,0,459.17,475.99,-0.00,0.00,0.00,0.00,0.45917,0.47599,-0.00000,0.00000,0.00000,0.00000,-0.21852,-0.21172,-0.00000,-0.00000,-0.00000,-0.00000,0.00000,0.00000,0.00000,0.00000,0.00000,0.00000,0.00000,0.00000,0.00000,0.00000,0.00000,0.00000,0.45917,0.47599,-0.00000,0.00000,0.00000,0.00000,0.21852,0.21172,0.00000,0.00000,0.00000,0.00000,0.0000,,,,0.0026,,,,,,"[0.999, 0.000, 1.000, 0.000, 0.000, 0.000]",0x101000,4.9950,2,0,-0.000000,0.000000,0.000000,0.0000,NO
100,5.0450,5.0450,0.0500,0.050,APPROACHING,0,448.19,465.35,-0.00,0.00,0.00,0.00,0.44819,0.46535,-0.00000,0.00000,0.00000,0.00000,-0.22073,-0.21386,-0.00000,-0.00000,0.00000,0.00000,0.00000,0.00000,0.00000,0.00000,0.00000,0.00000,0.00000,0.00000,0.00000,0.00000,0.00000,0.00000,0.44819,0.46535,-0.00000,0.00000,0.00000,0.00000,0.22073,0.21386,0.00000,0.00000,-0.00000,-0.00000,0.0000,,,,0.0091,,,,,,"[0.000, 1.000, 1.000, 0.000, 0.000, 0.000]",0x011000,5.0450,2,2,-0.000000,-0.000000,-0.000000,0.0000,NO
