Time,Current_X,Current_Y,Current_Z,Current_Roll,Current_Pitch,Current_Yaw,Current_VX,Current_VY,Current_VZ,Current_WX,Current_WY,Current_WZ,Target_X,Target_Y,Target_Z,Target_Roll,Target_Pitch,Target_Yaw,Error_X,Error_Y,Error_Z,Error_Roll,Error_Pitch,Error_Yaw,Command_Vector,Thruster_1_Cmd,Thruster_1_Val,Thruster_2_Cmd,Thruster_2_Val,Thruster_3_Cmd,Thruster_3_Val,Thruster_4_Cmd,Thruster_4_Val,Thruster_5_Cmd,Thruster_5_Val,Thruster_6_Cmd,Thruster_6_Val
0.0050,1.00000,1.00000,0.00000,0.00000,0.00000,0.00000,0.00000,0.00000,0.00000,0.00000,0.00000,0.00000,0.00000,0.00000,0.00000,0.00000,0.00000,0.00000,-1.00000,-1.00000,0.00000,0.00000,0.00000,0.00000,"[0.000, 0.000, 0.000, 0.000, 0.000, 0.000]",0.000,0.000,0.000,0.000,0.000,0.000,0.000,0.000,0.000,0.000,0.000,0.000
0.0100,1.00000,1.00000,0.00000,0.00000,0.00000,0.00000,0.00000,0.00000,0.00000,0.00000,0.00000,0.00000,0.00000,0.00000,0.00000,0.00000,0.00000,0.00000,-1.00000,-1.00000,0.00000,0.00000,0.00000,0.00000,"[0.000, 0.000, 0.000, 0.000, 0.000, 0.000]",0.000,0.000,0.000,0.000,0.000,0.000,0.000,0.000,0.000,0.000,0.000,0.000
0.0150,1.00000,1.00000,0.00000,0.00000,0.00000,0.00000,0.00000,0.00000,0.00000,0.00000,0.00000,0.00000,0.00000,0.00000,0.00000,0.00000,0.00000,0.00000,-1.00000,-1.00000,0.00000,0.00000,0.00000,0.00000,"[0.000, 0.000, 0.000, 0.000, 0.000, 0.000]",0.000,0.000,0.000,0.000,0.000,0.000,0.000,0.000,0.000,0.000,0.000,0.000
0.0200,1.00000,1.00000,0.00000,0.00000,0.00000,0.00000,0.00000,0.00000,0.00000,0.00000,0.00000,0.00000,0.00000,0.00000,0.00000,0.00000,0.00000,0.00000,-1.00000,-1.00000,0.00000,0.00000,0.00000,0.00000,"[0.000, 0.000, 0.000, 0.000, 0.000, 0.000]",0.000,0.000,0.000,0.000,0.000,0.000,0.000,0.000,0.000,0.000,0.000,0.000
0.0250,1.00000,1.00000,0.00000,0.00000,0.00000,0.00000,0.00000,0.00000,0.00000,0.00000,0.00000,0.00000,0.00000,0.00000,0.00000,0.00000,0.00000,0.00000,-1.00000,-1.00000,0.00000,0.00000,0.00000,0.00000,"[0.000, 0.000, 0.000, 0.000, 0.000, 0.000]",0.000,0.000,0.000,0.000,0.000,0.000,0.000,0.000,0.000,0.000,0.000,0.000
0.0300,1.00000,1.00000,0.00000,0.00000,0.00000,0.00000,0.00000,0.00000,0.00000,0.00000,0.00000,0.00000,0.00000,0.00000,0.00000,0.00000,0.00000,0.00000,-1.00000,-1.00000,0.00000,0.00000,0.00000,0.00000,"[0.000, 0.000, 0.000, 0.000, 0.000, 0.000]",0.000,0.000,0.000,0.000,0.000,0.000,0.000,0.000,0.000,0.000,0.000,0.000
0.0350,1.00000,1.00000,0.00000,0.00000,0.00000,0.00000,0.00000,0.00000,0.00000,0.00000,0.00000,0.00000,0.00000,0.00000,0.00000,0.00000,0.00000,0.00000,-1.00000,-1.00000,0.00000,0.00000,0.00000,0.00000,"[0.000, 0.000, 0.000, 0.000, 0.000, 0.000]",0.000,0.000,0.000,0.000,0.000,0.000,0.000,0.000,0.000,0.000,0.000,0.000
0.0400,1.00000,1.00000,0.00000,0.00000,0.00000,0.00000,0.00000,0.00000,0.00000,0.00000,0.00000,0.00000,0.00000,0.00000,0.00000,0.00000,0.00000,0.00000,-1.00000,-1.00000,0.00000,0.00000,0.00000,0.00000,"[0.000, 0.000, 0.000, 0.000, 0.000, 0.000]",0.000,0.000,0.000,0.000,0.000,0.000,0.000,0.000,0.000,0.000,0.000,0.000
0.0450,1.00000,1.00000,0.00000,0.00000,0.00000,0.00000,0.00000,0.00000,0.00000,0.00000,0.00000,0.00000,0.00000,0.00000,0.00000,0.00000,0.00000,0.00000,-1.00000,-1.00000,0.00000,0.00000,0.00000,0.00000,"[0.000, 0.000, 0.000, 0.000, 0.000, 0.000]",0.000,0.000,0.000,0.000,0.000,0.000,0.000,0.000,0.000,0.000,0.000,0.000
0.0500,1.00000,1.00000,0.00000,0.00000,0.00000,0.00000,-0.00022,-0.00021,0.00000,0.00000,-0.00000,-0.00000,0.00000,0.00000,0.00000,0.00000,0.00000,0.00000,-1.00000,-1.00000,0.00000,-0.00000,0.00000,0.00000,"[1.000, 0.000, 1.000, 0.000, 0.000, 0.000]",1.000,1.000,0.000,0.000,1.000,1.000,0.000,0.000,0.000,0.000,0.000,0.000
0.0550,1.00000,1.00000,-0.00000,0.00000,0.00000,0.00000,-0.00044,-0.00043,-0.00000,0.00000,-0.00000,-0.00000,0.00000,0.00000,0.00000,0.00000,0.00000,0.00000,-1.00000,-1.00000,0.00000,-0.00000,0.00000,0.00000,"[1.000, 0.000, 1.000, 0.000, 0.000, 0.000]",1.000,1.000,0.000,0.000,1.000,1.000,0.000,0.000,0.000,0.000,0.000,0.000
0.0600,1.00000,1.00000,-0.00000,0.00000,0.00000,0.00000,-0.00066,-0.00064,-0.00000,-0.00000,0.00000,0.00000,0.00000,0.00000,0.00000,0.00000,0.00000,0.00000,-1.00000,-1.00000,0.00000,-0.00000,0.00000,0.00000,"[1.000, 0.000, 1.000, 0.000, 0.000, 0.000]",1.000,1.000,0.000,0.000,1.000,1.000,0.000,0.000,0.000,0.000,0.000,0.000
0.0650,0.99999,0.99999,-0.00000,0.00000,0.00000,0.00000,-0.00088,-0.00086,-0.00000,-0.00000,-0.00000,0.00000,0.00000,0.00000,0.00000,0.00000,0.00000,0.00000,-0.99999,-0.99999,0.00000,-0.00000,0.00000,0.00000,"[1.000, 0.000, 1.000, 0.000, 0.000, 0.000]",1.000,1.000,0.000,0.000,1.000,1.000,0.000,0.000,0.000,0.000,0.000,0.000
0.0700,0.99999,0.99999,-0.00000,0.00000,0.00000,0.00000,-0.00110,-0.00107,-0.00000,-0.00000,-0.00000,0.00000,0.00000,0.00000,0.00000,0.00000,0.00000,0.00000,-0.99999,-0.99999,0.00000,-0.00000,0.00000,0.00000,"[1.000, 0.000, 1.000, 0.000, 0.000, 0.000]",1.000,1.000,0.000,0.000,1.000,1.000,0.000,0.000,0.000,0.000,0.000,0.000
0.0750,0.99998,0.99998,-0.00000,0.00000,0.00000,0.00000,-0.00132,-0.00128,-0.00000,-0.00000,-0.00000,-0.00000,0.00000,0.00000,0.00000,0.00000,0.00000,0.00000,-0.99998,-0.99998,0.00000,-0.00000,0.00000,0.00000,"[1.000, 0.000, 1.000, 0.000, 0.000, 0.000]",1.000,1.000,0.000,0.000,1.000,1.000,0.000,0.000,0.000,0.000,0.000,0.000
0.0800,0.99997,0.99997,-0.00000,0.00000,0.00000,0.00000,-0.00155,-0.00150,-0.00000,-0.00000,-0.00000,-0.00000,0.00000,0.00000,0.00000,0.00000,0.00000,0.00000,-0.99997,-0.99997,0.00000,-0.00000,0.00000,0.00000,"[1.000, 0.000, 1.000, 0.000, 0.000, 0.000]",1.000,1.000,0.000,0.000,1.000,1.000,0.000,0.000,0.000,0.000,0.000,0.000
0.0850,0.99996,0.99997,-0.00000,0.00000,0.00000,0.00000,-0.00177,-0.00171,-0.00000,0.00000,-0.00000,-0.00000,0.00000,0.00000,0.00000,0.00000,0.00000,0.00000,-0.99996,-0.99997,0.00000,-0.00000,0.00000,0.00000,"[1.000, 0.000, 1.000, 0.000, 0.000, 0.000]",1.000,1.000,0.000,0.000,1.000,1.000,0.000,0.000,0.000,0.000,0.000,0.000
0.0900,0.99996,0.99996,-0.00000,0.00000,0.00000,0.00000,-0.00199,-0.00192,-0.00000,0.00000,0.00000,-0.00000,0.00000,0.00000,0.00000,0.00000,0.00000,0.00000,-0.99996,-0.99996,0.00000,-0.00000,0.00000,0.00000,"[1.000, 0.000, 1.000, 0.000, 0.000, 0.000]",1.000,1.000,0.000,0.000,1.000,1.000,0.000,0.000,0.000,0.000,0.000,0.000
0.0950,0.99994,0.99995,-0.00000,0.00000,0.00000,0.00000,-0.00221,-0.00214,-0.00000,0.00000,0.00000,0.00000,0.00000,0.00000,0.00000,0.00000,0.00000,0.00000,-0.99994,-0.99995,0.00000,-0.00000,0.00000,0.00000,"[1.000, 0.000, 1.000, 0.000, 0.000, 0.000]",1.000,1.000,0.000,0.000,1.000,1.000,0.000,0.000,0.000,0.000,0.000,0.000
0.1000,0.99993,0.99994,-0.00000,0.00000,0.00000,0.00000,-0.00243,-0.00235,-0.00000,-0.00000,0.00000,0.00000,0.00000,0.00000,0.00000,0.00000,0.00000,0.00000,-0.99993,-0.99994,0.00000,-0.00000,0.00000,0.00000,"[0.999, 0.001, 0.999, 0.001, 0.000, 0.000]",0.999,0.999,0.001,0.001,0.999,0.999,0.001,0.001,0.000,0.000,0.000,0.000
0.1050,0.99992,0.99992,-0.00000,0.00000,0.00000,0.00000,-0.00265,-0.00257,-0.00000,-0.00000,-0.00000,0.00000,0.00000,0.00000,0.00000,0.00000,0.00000,0.00000,-0.99992,-0.99992,0.00000,-0.00000,0.00000,0.00000,"[0.999, 0.001, 0.999, 0.001, 0.000, 0.000]",0.999,0.999,0.001,0.001,0.999,0.999,0.001,0.001,0.000,0.000,0.000,0.000
0.1100,0.99991,0.99991,-0.00000,0.00000,0.00000,0.00000,-0.00287,-0.00278,-0.00000,-0.00000,0.00000,0.00000,0.00000,0.00000,0.00000,0.00000,0.00000,0.00000,-0.99991,-0.99991,0.00000,-0.00000,0.00000,0.00000,"[0.999, 0.001, 0.999, 0.001, 0.000, 0.000]",0.999,0.999,0.001,0.001,0.999,0.999,0.001,0.001,0.000,0.000,0.000,0.000
0.1150,0.99989,0.99990,-0.00000,0.00000,0.00000,0.00000,-0.00309,-0.00299,-0.00000,-0.00000,0.00000,0.00000,0.00000,0.00000,0.00000,0.00000,0.00000,0.00000,-0.99989,-0.99990,0.00000,-0.00000,0.00000,0.00000,"[0.999, 0.001, 0.999, 0.001, 0.000, 0.000]",0.999,0.999,0.001,0.001,0.999,0.999,0.001,0.001,0.000,0.000,0.000,0.000
0.1200,0.99988,0.99988,-0.00000,0.00000,0.00000,0.00000,-0.00331,-0.00321,-0.00000,-0.00000,-0.00000,0.00000,0.00000,0.00000,0.00000,0.00000,0.00000,0.00000,-0.99988,-0.99988,0.00000,-0.00000,0.00000,0.00000,"[0.999, 0.001, 0.999, 0.001, 0.000, 0.000]",0.999,0.999,0.001,0.001,0.999,0.999,0.001,0.001,0.000,0.000,0.000,0.000
0.1250,0.99986,0.99986,-0.00000,0.00000,0.00000,0.00000,-0.00353,-0.00342,-0.00000,-0.00000,-0.00000,-0.00000,0.00000,0.00000,0.00000,0.00000,0.00000,0.00000,-0.99986,-0.99986,0.00000,-0.00000,0.00000,0.00000,"[0.999, 0.001, 0.999, 0.001, 0.000, 0.000]",0.999,0.999,0.001,0.001,0.999,0.999,0.001,0.001,0.000,0.000,0.000,0.000
0.1300,0.99984,0.99985,-0.00000,0.00000,0.00000,0.00000,-0.00375,-0.00364,-0.00000,-0.00000,-0.00000,-0.00000,0.00000,0.00000,0.00000,0.00000,0.00000,0.00000,-0.99984,-0.99985,0.00000,-0.00000,0.00000,0.00000,"[0.999, 0.001, 0.999, 0.001, 0.000, 0.000]",0.999,0.999,0.001,0.001,0.999,0.999,0.001,0.001,0.000,0.000,0.000,0.000
0.1350,0.99982,0.99983,-0.00000,0.00000,0.00000,0.00000,-0.00397,-0.00385,-0.00000,-0.00000,0.00000,-0.00000,0.00000,0.00000,0.00000,0.00000,0.00000,0.00000,-0.99982,-0.99983,0.00000,-0.00000,0.00000,0.00000,"[0.999, 0.001, 0.999, 0.001, 0.000, 0.000]",0.999,0.999,0.001,0.001,0.999,0.999,0.001,0.001,0.000,0.000,0.000,0.000
0.1400,0.99980,0.99981,-0.00000,0.00000,0.00000,0.00000,-0.00419,-0.00406,-0.00000,-0.00000,0.00000,-0.00000,0.00000,0.00000,0.00000,0.00000,0.00000,0.00000,-0.99980,-0.99981,0.00000,-0.00000,0.00000,0.00000,"[0.999, 0.001, 0.999, 0.001, 0.000, 0.000]",0.999,0.999,0.001,0.001,0.999,0.999,0.001,0.001,0.000,0.000,0.000,0.000
0.1450,0.99978,0.99979,-0.00000,0.00000,0.00000,0.00000,-0.00441,-0.00428,-0.00000,-0.00000,0.00000,-0.00000,0.00000,0.00000,0.00000,0.00000,0.00000,0.00000,-0.99978,-0.99979,0.00000,-0.00000,0.00000,0.00000,"[0.999, 0.001, 0.999, 0.001, 0.000, 0.000]",0.999,0.999,0.001,0.001,0.999,0.999,0.001,0.001,0.000,0.000,0.000,0.000
0.1500,0.99976,0.99976,-0.00000,0.00000,0.00000,0.00000,-0.00464,-0.00449,-0.00000,-0.00000,-0.00000,-0.00000,0.00000,0.00000,0.00000,0.00000,0.00000,0.00000,-0.99976,-0.99976,0.00000,-0.00000,0.00000,0.00000,"[0.998, 0.002, 0.998, 0.002, 0.000, 0.000]",0.998,0.998,0.002,0.002,0.998,0.998,0.002,0.002,0.000,0.000,0.000,0.000
0.1550,0.99973,0.99974,-0.00000,0.00000,0.00000,0.00000,-0.00486,-0.00470,-0.00000,-0.00000,0.00000,0.00000,0.00000,0.00000,0.00000,0.00000,0.00000,0.00000,-0.99973,-0.99974,0.00000,-0.00000,0.00000,0.00000,"[0.998, 0.002, 0.998, 0.002, 0.000, 0.000]",0.998,0.998,0.002,0.002,0.998,0.998,0.002,0.002,0.000,0.000,0.000,0.000
0.1600,0.99971,0.99972,-0.00000,0.00000,0.00000,0.00000,-0.00508,-0.00492,-0.00000,-0.00000,0.00000,0.00000,0.00000,0.00000,0.00000,0.00000,0.00000,0.00000,-0.99971,-0.99972,0.00000,-0.00000,0.00000,0.00000,"[0.998, 0.002, 0.998, 0.002, 0.000, 0.000]",0.998,0.998,0.002,0.002,0.998,0.998,0.002,0.002,0.000,0.000,0.000,0.000
0.1650,0.99968,0.99969,-0.00000,0.00000,0.00000,0.00000,-0.00530,-0.00513,-0.00000,-0.00000,0.00000,0.00000,0.00000,0.00000,0.00000,0.00000,0.00000,0.00000,-0.99968,-0.99969,0.00000,-0.00000,0.00000,0.00000,"[0.998, 0.002, 0.998, 0.002, 0.000, 0.000]",0.998,0.998,0.002,0.002,0.998,0.998,0.002,0.002,0.000,0.000,0.000,0.000
0.1700,0.99966,0.99967,-0.00000,0.00000,0.00000,0.00000,-0.00552,-0.00535,-0.00000,-0.00000,-0.00000,-0.00000,0.00000,0.00000,0.00000,0.00000,0.00000,0.00000,-0.99966,-0.99967,0.00000,-0.00000,0.00000,0.00000,"[0.998, 0.002, 0.998, 0.002, 0.000, 0.000]",0.998,0.998,0.002,0.002,0.998,0.998,0.002,0.002,0.000,0.000,0.000,0.000
0.1750,0.99963,0.99964,-0.00000,0.00000,0.00000,0.00000,-0.00574,-0.00556,-0.00000,-0.00000,-0.00000,0.00000,0.00000,0.00000,0.00000,0.00000,0.00000,0.00000,-0.99963,-0.99964,0.00000,-0.00000,0.00000,0.00000,"[0.998, 0.002, 0.998, 0.002, 0.000, 0.000]",0.998,0.998,0.002,0.002,0.998,0.998,0.002,0.002,0.000,0.000,0.000,0.000
0.1800,0.99960,0.99961,-0.00000,0.00000,0.00000,0.00000,-0.00596,-0.00577,-0.00000,-0.00000,-0.00000,-0.00000,0.00000,0.00000,0.00000,0.00000,0.00000,0.00000,-0.99960,-0.99961,0.00000,-0.00000,0.00000,0.00000,"[0.998, 0.002, 0.998, 0.002, 0.000, 0.000]",0.998,0.998,0.002,0.002,0.998,0.998,0.002,0.002,0.000,0.000,0.000,0.000
0.1850,0.99957,0.99958,-0.00000,0.00000,0.00000,0.00000,-0.00618,-0.00599,-0.00000,-0.00000,0.00000,0.00000,0.00000,0.00000,0.00000,0.00000,0.00000,0.00000,-0.99957,-0.99958,0.00000,-0.00000,0.00000,0.00000,"[0.998, 0.002, 0.998, 0.002, 0.000, 0.000]",0.998,0.998,0.002,0.002,0.998,0.998,0.002,0.002,0.000,0.000,0.000,0.000
0.1900,0.99954,0.99955,-0.00000,0.00000,0.00000,0.00000,-0.00640,-0.00620,-0.00000,-0.00000,0.00000,0.00000,0.00000,0.00000,0.00000,0.00000,0.00000,0.00000,-0.99954,-0.99955,0.00000,-0.00000,0.00000,0.00000,"[0.998, 0.002, 0.998, 0.002, 0.000, 0.000]",0.998,0.998,0.002,0.002,0.998,0.998,0.002,0.002,0.000,0.000,0.000,0.000
0.1950,0.99950,0.99952,-0.00000,0.00000,0.00000,0.00000,-0.00662,-0.00642,-0.00000,-0.00000,0.00000,0.00000,0.00000,0.00000,0.00000,0.00000,0.00000,0.00000,-0.99950,-0.99952,0.00000,-0.00000,0.00000,0.00000,"[0.998, 0.002, 0.998, 0.002, 0.000, 0.000]",0.998,0.998,0.002,0.002,0.998,0.998,0.002,0.002,0.000,0.000,0.000,0.000
0.2000,0.99947,0.99949,-0.00000,0.00000,0.00000,0.00000,-0.00684,-0.00663,-0.00000,-0.00000,0.00000,0.00000,0.00000,0.00000,0.00000,0.00000,0.00000,0.00000,-0.99947,-0.99949,0.00000,-0.00000,0.00000,0.00000,"[0.998, 0.002, 0.998, 0.002, 0.000, 0.000]",0.998,0.998,0.002,0.002,0.998,0.998,0.002,0.002,0.000,0.000,0.000,0.000
0.2050,0.99943,0.99945,-0.00000,0.00000,0.00000,0.00000,-0.00706,-0.00684,-0.00000,-0.00000,-0.00000,-0.00000,0.00000,0.00000,0.00000,0.00000,0.00000,0.00000,-0.99943,-0.99945,0.00000,-0.00000,0.00000,0.00000,"[0.998, 0.002, 0.998, 0.002, 0.000, 0.000]",0.998,0.998,0.002,0.002,0.998,0.998,0.002,0.002,0.000,0.000,0.000,0.000
0.2100,0.99940,0.99942,-0.00000,0.00000,0.00000,0.00000,-0.00728,-0.00706,-0.00000,-0.00000,-0.00000,-0.00000,0.00000,0.00000,0.00000,0.00000,0.00000,0.00000,-0.99940,-0.99942,0.00000,-0.00000,0.00000,0.00000,"[0.998, 0.002, 0.998, 0.002, 0.000, 0.000]",0.998,0.998,0.002,0.002,0.998,0.998,0.002,0.002,0.000,0.000,0.000,0.000
0.2150,0.99936,0.99938,-0.00000,0.00000,0.00000,0.00000,-0.00750,-0.00727,-0.00000,-0.00000,0.00000,0.00000,0.00000,0.00000,0.00000,0.00000,0.00000,0.00000,-0.99936,-0.99938,0.00000,-0.00000,0.00000,0.00000,"[0.998, 0.002, 0.998, 0.002, 0.000, 0.000]",0.998,0.998,0.002,0.002,0.998,0.998,0.002,0.002,0.000,0.000,0.000,0.000
0.2200,0.99932,0.99935,-0.00000,0.00000,0.00000,0.00000,-0.00773,-0.00749,-0.00000,-0.00000,-0.00000,-0.00000,0.00000,0.00000,0.00000,0.00000,0.00000,0.00000,-0.99932,-0.99935,0.00000,-0.00000,0.00000,0.00000,"[0.998, 0.002, 0.998, 0.002, 0.000, 0.000]",0.998,0.998,0.002,0.002,0.998,0.998,0.002,0.002,0.000,0.000,0.000,0.000
0.2250,0.99928,0.99931,-0.00000,0.00000,0.00000,0.00000,-0.00795,-0.00770,-0.00000,-0.00000,-0.00000,-0.00000,0.00000,0.00000,0.00000,0.00000,0.00000,0.00000,-0.99928,-0.99931,0.00000,-0.00000,0.00000,0.00000,"[0.998, 0.002, 0.998, 0.002, 0.000, 0.000]",0.998,0.998,0.002,0.002,0.998,0.998,0.002,0.002,0.000,0.000,0.000,0.000
0.2300,0.99924,0.99927,-0.00000,0.00000,0.00000,0.00000,-0.00817,-0.00791,-0.00000,-0.00000,-0.00000,-0.00000,0.00000,0.00000,0.00000,0.00000,0.00000,0.00000,-0.99924,-0.99927,0.00000,-0.00000,0.00000,0.00000,"[0.998, 0.002, 0.998, 0.002, 0.000, 0.000]",0.998,0.998,0.002,0.002,0.998,0.998,0.002,0.002,0.000,0.000,0.000,0.000
0.2350,0.99920,0.99923,-0.00000,0.00000,0.00000,0.00000,-0.00839,-0.00813,-0.00000,-0.00000,-0.00000,-0.00000,0.00000,0.00000,0.00000,0.00000,0.00000,0.00000,-0.99920,-0.99923,0.00000,-0.00000,0.00000,0.00000,"[0.998, 0.002, 0.998, 0.002, 0.000, 0.000]",0.998,0.998,0.002,0.002,0.998,0.998,0.002,0.002,0.000,0.000,0.000,0.000
0.2400,0.99916,0.99919,-0.00000,0.00000,0.00000,0.00000,-0.00861,-0.00834,-0.00000,-0.00000,-0.00000,-0.00000,0.00000,0.00000,0.00000,0.00000,0.00000,0.00000,-0.99916,-0.99919,0.00000,-0.00000,0.00000,0.00000,"[0.998, 0.002, 0.998, 0.002, 0.000, 0.000]",0.998,0.998,0.002,0.002,0.998,0.998,0.002,0.002,0.000,0.000,0.000,0.000
0.2450,0.99912,0.99914,-0.00000,0.00000,0.00000,0.00000,-0.00883,-0.00855,-0.00000,-0.00000,-0.00000,-0.00000,0.00000,0.00000,0.00000,0.00000,0.00000,0.00000,-0.99912,-0.99914,0.00000,-0.00000,0.00000,0.00000,"[0.998, 0.002, 0.998, 0.002, 0.000, 0.000]",0.998,0.998,0.002,0.002,0.998,0.998,0.002,0.002,0.000,0.000,0.000,0.000
0.2500,0.99907,0.99910,-0.00000,0.00000,0.00000,0.00000,-0.00905,-0.00877,-0.00000,-0.00000,-0.00000,-0.00000,0.00000,0.00000,0.00000,0.00000,0.00000,0.00000,-0.99907,-0.99910,0.00000,-0.00000,0.00000,0.00000,"[0.999, 0.001, 0.998, 0.002, 0.000, 0.000]",0.999,0.999,0.001,0.001,0.998,0.998,0.002,0.002,0.000,0.000,0.000,0.000
0.2550,0.99903,0.99906,-0.00000,0.00000,0.00000,0.00000,-0.00927,-0.00898,-0.00000,-0.00000,-0.00000,-0.00000,0.00000,0.00000,0.00000,0.00000,0.00000,0.00000,-0.99903,-0.99906,0.00000,-0.00000,0.00000,0.00000,"[0.999, 0.001, 0.998, 0.002, 0.000, 0.000]",0.999,0.999,0.001,0.001,0.998,0.998,0.002,0.002,0.000,0.000,0.000,0.000
0.2600,0.99898,0.99901,-0.00000,0.00000,0.00000,0.00000,-0.00949,-0.00920,-0.00000,-0.00000,0.00000,-0.00000,0.00000,0.00000,0.00000,0.00000,0.00000,0.00000,-0.99898,-0.99901,0.00000,-0.00000,0.00000,0.00000,"[0.999, 0.001, 0.998, 0.002, 0.000, 0.000]",0.999,0.999,0.001,0.001,0.998,0.998,0.002,0.002,0.000,0.000,0.000,0.000
0.2650,0.99893,0.99896,-0.00000,0.00000,0.00000,0.00000,-0.00971,-0.00941,-0.00000,-0.00000,0.00000,-0.00000,0.00000,0.00000,0.00000,0.00000,0.00000,0.00000,-0.99893,-0.99896,0.00000,-0.00000,0.00000,0.00000,"[0.999, 0.001, 0.998, 0.002, 0.000, 0.000]",0.999,0.999,0.001,0.001,0.998,0.998,0.002,0.002,0.000,0.000,0.000,0.000
0.2700,0.99888,0.99892,-0.00000,0.00000,0.00000,0.00000,-0.00993,-0.00962,-0.00000,-0.00000,0.00000,-0.00000,0.00000,0.00000,0.00000,0.00000,0.00000,0.00000,-0.99888,-0.99892,0.00000,-0.00000,0.00000,0.00000,"[0.999, 0.001, 0.998, 0.002, 0.000, 0.000]",0.999,0.999,0.001,0.001,0.998,0.998,0.002,0.002,0.000,0.000,0.000,0.000
0.2750,0.99883,0.99887,-0.00000,0.00000,0.00000,0.00000,-0.01015,-0.00984,-0.00000,-0.00000,0.00000,-0.00000,0.00000,0.00000,0.00000,0.00000,0.00000,0.00000,-0.99883,-0.99887,0.00000,-0.00000,0.00000,0.00000,"[0.999, 0.001, 0.998, 0.002, 0.000, 0.000]",0.999,0.999,0.001,0.001,0.998,0.998,0.002,0.002,0.000,0.000,0.000,0.000
0.2800,0.99878,0.99882,-0.00000,0.00000,0.00000,0.00000,-0.01037,-0.01005,-0.00000,-0.00000,-0.00000,-0.00000,0.00000,0.00000,0.00000,0.00000,0.00000,0.00000,-0.99878,-0.99882,0.00000,-0.00000,0.00000,0.00000,"[0.999, 0.001, 0.998, 0.002, 0.000, 0.000]",0.999,0.999,0.001,0.001,0.998,0.998,0.002,0.002,0.000,0.000,0.000,0.000
0.2850,0.99873,0.99877,-0.00000,0.00000,0.00000,0.00000,-0.01059,-0.01027,-0.00000,-0.00000,0.00000,0.00000,0.00000,0.00000,0.00000,0.00000,0.00000,0.00000,-0.99873,-0.99877,0.00000,-0.00000,0.00000,0.00000,"[0.999, 0.001, 0.998, 0.002, 0.000, 0.000]",0.999,0.999,0.001,0.001,0.998,0.998,0.002,0.002,0.000,0.000,0.000,0.000
0.2900,0.99868,0.99872,-0.00000,0.00000,0.00000,0.00000,-0.01082,-0.01048,-0.00000,-0.00000,0.00000,0.00000,0.00000,0.00000,0.00000,0.00000,0.00000,0.00000,-0.99868,-0.99872,0.00000,-0.00000,0.00000,0.00000,"[0.999, 0.001, 0.998, 0.002, 0.000, 0.000]",0.999,0.999,0.001,0.001,0.998,0.998,0.002,0.002,0.000,0.000,0.000,0.000
0.2950,0.99862,0.99866,-0.00000,0.00000,0.00000,0.00000,-0.01104,-0.01069,-0.00000,-0.00000,0.00000,0.00000,0.00000,0.00000,0.00000,0.00000,0.00000,0.00000,-0.99862,-0.99866,0.00000,-0.00000,0.00000,0.00000,"[0.999, 0.001, 0.998, 0.002, 0.000, 0.000]",0.999,0.999,0.001,0.001,0.998,0.998,0.002,0.002,0.000,0.000,0.000,0.000
0.3000,0.99856,0.99861,-0.00000,0.00000,0.00000,0.00000,-0.01126,-0.01091,-0.00000,-0.00000,0.00000,0.00000,0.00000,0.00000,0.00000,0.00000,0.00000,0.00000,-0.99856,-0.99861,0.00000,-0.00000,0.00000,0.00000,"[0.999, 0.001, 0.999, 0.001, 0.000, 0.000]",0.999,0.999,0.001,0.001,0.999,0.999,0.001,0.001,0.000,0.000,0.000,0.000
0.3050,0.99851,0.99855,-0.00000,0.00000,0.00000,0.00000,-0.01148,-0.01112,-0.00000,-0.00000,0.00000,0.00000,0.00000,0.00000,0.00000,0.00000,0.00000,0.00000,-0.99851,-0.99855,0.00000,-0.00000,0.00000,0.00000,"[0.999, 0.001, 0.999, 0.001, 0.000, 0.000]",0.999,0.999,0.001,0.001,0.999,0.999,0.001,0.001,0.000,0.000,0.000,0.000
0.3100,0.99845,0.99850,-0.00000,0.00000,0.00000,0.00000,-0.01170,-0.01133,-0.00000,-0.00000,0.00000,0.00000,0.00000,0.00000,0.00000,0.00000,0.00000,0.00000,-0.99845,-0.99850,0.00000,-0.00000,0.00000,0.00000,"[0.999, 0.001, 0.999, 0.001, 0.000, 0.000]",0.999,0.999,0.001,0.001,0.999,0.999,0.001,0.001,0.000,0.000,0.000,0.000
0.3150,0.99839,0.99844,-0.00000,0.00000,0.00000,0.00000,-0.01192,-0.01155,-0.00000,-0.00000,0.00000,0.00000,0.00000,0.00000,0.00000,0.00000,0.00000,0.00000,-0.99839,-0.99844,0.00000,-0.00000,0.00000,0.00000,"[0.999, 0.001, 0.999, 0.001, 0.000, 0.000]",0.999,0.999,0.001,0.001,0.999,0.999,0.001,0.001,0.000,0.000,0.000,0.000
0.3200,0.99833,0.99838,-0.00000,0.00000,0.00000,0.00000,-0.01214,-0.01176,-0.00000,-0.00000,0.00000,0.00000,0.00000,0.00000,0.00000,0.00000,0.00000,0.00000,-0.99833,-0.99838,0.00000,-0.00000,0.00000,0.00000,"[0.999, 0.001, 0.999, 0.001, 0.000, 0.000]",0.999,0.999,0.001,0.001,0.999,0.999,0.001,0.001,0.000,0.000,0.000,0.000
0.3250,0.99827,0.99832,-0.00000,0.00000,0.00000,0.00000,-0.01236,-0.01198,-0.00000,-0.00000,0.00000,0.00000,0.00000,0.00000,0.00000,0.00000,0.00000,0.00000,-0.99827,-0.99832,0.00000,-0.00000,0.00000,0.00000,"[0.999, 0.001, 0.999, 0.001, 0.000, 0.000]",0.999,0.999,0.001,0.001,0.999,0.999,0.001,0.001,0.000,0.000,0.000,0.000
0.3300,0.99821,0.99826,-0.00000,0.00000,0.00000,0.00000,-0.01258,-0.01219,-0.00000,-0.00000,0.00000,0.00000,0.00000,0.00000,0.00000,0.00000,0.00000,0.00000,-0.99821,-0.99826,0.00000,-0.00000,0.00000,0.00000,"[0.999, 0.001, 0.999, 0.001, 0.000, 0.000]",0.999,0.999,0.001,0.001,0.999,0.999,0.001,0.001,0.000,0.000,0.000,0.000
0.3350,0.99814,0.99820,-0.00000,0.00000,0.00000,0.00000,-0.01280,-0.01240,-0.00000,-0.00000,0.00000,0.00000,0.00000,0.00000,0.00000,0.00000,0.00000,0.00000,-0.99814,-0.99820,0.00000,-0.00000,0.00000,0.00000,"[0.999, 0.001, 0.999, 0.001, 0.000, 0.000]",0.999,0.999,0.001,0.001,0.999,0.999,0.001,0.001,0.000,0.000,0.000,0.000
0.3400,0.99808,0.99814,-0.00000,0.00000,0.00000,0.00000,-0.01302,-0.01262,-0.00000,-0.00000,0.00000,0.00000,0.00000,0.00000,0.00000,0.00000,0.00000,0.00000,-0.99808,-0.99814,0.00000,-0.00000,0.00000,0.00000,"[0.999, 0.001, 0.999, 0.001, 0.000, 0.000]",0.999,0.999,0.001,0.001,0.999,0.999,0.001,0.001,0.000,0.000,0.000,0.000
0.3450,0.99801,0.99808,-0.00000,0.00000,0.00000,0.00000,-0.01324,-0.01283,-0.00000,-0.00000,-0.00000,-0.00000,0.00000,0.00000,0.00000,0.00000,0.00000,0.00000,-0.99801,-0.99808,0.00000,-0.00000,0.00000,0.00000,"[0.999, 0.001, 0.999, 0.001, 0.000, 0.000]",0.999,0.999,0.001,0.001,0.999,0.999,0.001,0.001,0.000,0.000,0.000,0.000
0.3500,0.99795,0.99801,-0.00000,0.00000,0.00000,0.00000,-0.01346,-0.01305,-0.00000,-0.00000,-0.00000,-0.00000,0.00000,0.00000,0.00000,0.00000,0.00000,0.00000,-0.99795,-0.99801,0.00000,-0.00000,0.00000,0.00000,"[0.999, 0.001, 0.999, 0.001, 0.000, 0.000]",0.999,0.999,0.001,0.001,0.999,0.999,0.001,0.001,0.000,0.000,0.000,0.000
0.3550,0.99788,0.99794,-0.00000,0.00000,0.00000,0.00000,-0.01368,-0.01326,-0.00000,-0.00000,-0.00000,-0.00000,0.00000,0.00000,0.00000,0.00000,0.00000,0.00000,-0.99788,-0.99794,0.00000,-0.00000,0.00000,0.00000,"[0.999, 0.001, 0.999, 0.001, 0.000, 0.000]",0.999,0.999,0.001,0.001,0.999,0.999,0.001,0.001,0.000,0.000,0.000,0.000
0.3600,0.99781,0.99788,-0.00000,0.00000,0.00000,0.00000,-0.01391,-0.01347,-0.00000,-0.00000,-0.00000,-0.00000,0.00000,0.00000,0.00000,0.00000,0.00000,0.00000,-0.99781,-0.99788,0.00000,-0.00000,0.00000,0.00000,"[0.999, 0.001, 0.999, 0.001, 0.000, 0.000]",0.999,0.999,0.001,0.001,0.999,0.999,0.001,0.001,0.000,0.000,0.000,0.000
0.3650,0.99774,0.99781,-0.00000,0.00000,0.00000,0.00000,-0.01413,-0.01369,-0.00000,-0.00000,-0.00000,-0.00000,0.00000,0.00000,0.00000,0.00000,0.00000,0.00000,-0.99774,-0.99781,0.00000,-0.00000,0.00000,0.00000,"[0.999, 0.001, 0.999, 0.001, 0.000, 0.000]",0.999,0.999,0.001,0.001,0.999,0.999,0.001,0.001,0.000,0.000,0.000,0.000
0.3700,0.99767,0.99774,-0.00000,0.00000,0.00000,0.00000,-0.01435,-0.01390,-0.00000,-0.00000,-0.00000,-0.00000,0.00000,0.00000,0.00000,0.00000,0.00000,0.00000,-0.99767,-0.99774,0.00000,-0.00000,0.00000,0.00000,"[0.999, 0.001, 0.999, 0.001, 0.000, 0.000]",0.999,0.999,0.001,0.001,0.999,0.999,0.001,0.001,0.000,0.000,0.000,0.000
0.3750,0.99760,0.99767,-0.00000,0.00000,0.00000,0.00000,-0.01457,-0.01411,-0.00000,-0.00000,-0.00000,-0.00000,0.00000,0.00000,0.00000,0.00000,0.00000,0.00000,-0.99760,-0.99767,0.00000,-0.00000,0.00000,0.00000,"[0.999, 0.001, 0.999, 0.001, 0.000, 0.000]",0.999,0.999,0.001,0.001,0.999,0.999,0.001,0.001,0.000,0.000,0.000,0.000
0.3800,0.99752,0.99760,-0.00000,0.00000,0.00000,0.00000,-0.01479,-0.01433,-0.00000,-0.00000,0.00000,-0.00000,0.00000,0.00000,0.00000,0.00000,0.00000,0.00000,-0.99752,-0.99760,0.00000,-0.00000,0.00000,0.00000,"[0.999, 0.001, 0.999, 0.001, 0.000, 0.000]",0.999,0.999,0.001,0.001,0.999,0.999,0.001,0.001,0.000,0.000,0.000,0.000
0.3850,0.99745,0.99753,-0.00000,0.00000,0.00000,0.00000,-0.01501,-0.01454,-0.00000,-0.00000,-0.00000,-0.00000,0.00000,0.00000,0.00000,0.00000,0.00000,0.00000,-0.99745,-0.99753,0.00000,-0.00000,0.00000,0.00000,"[0.999, 0.001, 0.999, 0.001, 0.000, 0.000]",0.999,0.999,0.001,0.001,0.999,0.999,0.001,0.001,0.000,0.000,0.000,0.000
0.3900,0.99737,0.99745,-0.00000,0.00000,0.00000,0.00000,-0.01523,-0.01476,-0.00000,-0.00000,-0.00000,-0.00000,0.00000,0.00000,0.00000,0.00000,0.00000,0.00000,-0.99737,-0.99745,0.00000,-0.00000,0.00000,0.00000,"[0.999, 0.001, 0.999, 0.001, 0.000, 0.000]",0.999,0.999,0.001,0.001,0.999,0.999,0.001,0.001,0.000,0.000,0.000,0.000
0.3950,0.99730,0.99738,-0.00000,0.00000,0.00000,0.00000,-0.01545,-0.01497,-0.00000,-0.00000,-0.00000,-0.00000,0.00000,0.00000,0.00000,0.00000,0.00000,0.00000,-0.99730,-0.99738,0.00000,-0.00000,0.00000,0.00000,"[0.999, 0.001, 0.999, 0.001, 0.000, 0.000]",0.999,0.999,0.001,0.001,0.999,0.999,0.001,0.001,0.000,0.000,0.000,0.000
0.4000,0.99722,0.99730,-0.00000,0.00000,0.00000,0.00000,-0.01567,-0.01518,-0.00000,-0.00000,0.00000,-0.00000,0.00000,0.00000,0.00000,0.00000,0.00000,0.00000,-0.99722,-0.99730,0.00000,-0.00000,0.00000,0.00000,"[0.998, 0.002, 0.999, 0.001, 0.000, 0.000]",0.998,0.998,0.002,0.002,0.999,0.999,0.001,0.001,0.000,0.000,0.000,0.000
0.4050,0.99714,0.99723,-0.00000,0.00000,0.00000,0.00000,-0.01589,-0.01540,-0.00000,-0.00000,-0.00000,-0.00000,0.00000,0.00000,0.00000,0.00000,0.00000,0.00000,-0.99714,-0.99723,0.00000,-0.00000,0.00000,0.00000,"[0.998, 0.002, 0.999, 0.001, 0.000, 0.000]",0.998,0.998,0.002,0.002,0.999,0.999,0.001,0.001,0.000,0.000,0.000,0.000
0.4100,0.99706,0.99715,-0.00000,0.00000,0.00000,0.00000,-0.01611,-0.01561,-0.00000,-0.00000,0.00000,0.00000,0.00000,0.00000,0.00000,0.00000,0.00000,0.00000,-0.99706,-0.99715,0.00000,-0.00000,0.00000,0.00000,"[0.998, 0.002, 0.999, 0.001, 0.000, 0.000]",0.998,0.998,0.002,0.002,0.999,0.999,0.001,0.001,0.000,0.000,0.000,0.000
0.4150,0.99698,0.99707,-0.00000,0.00000,0.00000,0.00000,-0.01633,-0.01583,-0.00000,-0.00000,0.00000,0.00000,0.00000,0.00000,0.00000,0.00000,0.00000,0.00000,-0.99698,-0.99707,0.00000,-0.00000,0.00000,0.00000,"[0.998, 0.002, 0.999, 0.001, 0.000, 0.000]",0.998,0.998,0.002,0.002,0.999,0.999,0.001,0.001,0.000,0.000,0.000,0.000
0.4200,0.99690,0.99699,-0.00000,0.00000,0.00000,0.00000,-0.01655,-0.01604,-0.00000,-0.00000,0.00000,0.00000,0.00000,0.00000,0.00000,0.00000,0.00000,0.00000,-0.99690,-0.99699,0.00000,-0.00000,0.00000,0.00000,"[0.998, 0.002, 0.999, 0.001, 0.000, 0.000]",0.998,0.998,0.002,0.002,0.999,0.999,0.001,0.001,0.000,0.000,0.000,0.000
0.4250,0.99681,0.99691,-0.00000,0.00000,0.00000,0.00000,-0.01678,-0.01625,-0.00000,-0.00000,0.00000,0.00000,0.00000,0.00000,0.00000,0.00000,0.00000,0.00000,-0.99681,-0.99691,0.00000,-0.00000,0.00000,0.00000,"[0.998, 0.002, 0.999, 0.001, 0.000, 0.000]",0.998,0.998,0.002,0.002,0.999,0.999,0.001,0.001,0.000,0.000,0.000,0.000
0.4300,0.99673,0.99683,-0.00000,0.00000,0.00000,0.00000,-0.01700,-0.01647,-0.00000,-0.00000,0.00000,0.00000,0.00000,0.00000,0.00000,0.00000,0.00000,0.00000,-0.99673,-0.99683,0.00000,-0.00000,0.00000,0.00000,"[0.998, 0.002, 0.999, 0.001, 0.000, 0.000]",0.998,0.998,0.002,0.002,0.999,0.999,0.001,0.001,0.000,0.000,0.000,0.000
0.4350,0.99664,0.99675,-0.00000,0.00000,0.00000,0.00000,-0.01722,-0.01668,-0.00000,-0.00000,0.00000,-0.00000,0.00000,0.00000,0.00000,0.00000,0.00000,0.00000,-0.99664,-0.99675,0.00000,-0.00000,0.00000,0.00000,"[0.998, 0.002, 0.999, 0.001, 0.000, 0.000]",0.998,0.998,0.002,0.002,0.999,0.999,0.001,0.001,0.000,0.000,0.000,0.000
0.4400,0.99656,0.99666,-0.00000,0.00000,0.00000,0.00000,-0.01744,-0.01689,-0.00000,-0.00000,-0.00000,-0.00000,0.00000,0.00000,0.00000,0.00000,0.00000,0.00000,-0.99656,-0.99666,0.00000,-0.00000,0.00000,0.00000,"[0.998, 0.002, 0.999, 0.001, 0.000, 0.000]",0.998,0.998,0.002,0.002,0.999,0.999,0.001,0.001,0.000,0.000,0.000,0.000
0.4450,0.99647,0.99658,-0.00000,0.00000,0.00000,0.00000,-0.01766,-0.01711,-0.00000,-0.00000,0.00000,0.00000,0.00000,0.00000,0.00000,0.00000,0.00000,0.00000,-0.99647,-0.99658,0.00000,-0.00000,0.00000,0.00000,"[0.998, 0.002, 0.999, 0.001, 0.000, 0.000]",0.998,0.998,0.002,0.002,0.999,0.999,0.001,0.001,0.000,0.000,0.000,0.000
0.4500,0.99638,0.99649,-0.00000,0.00000,0.00000,0.00000,-0.01788,-0.01732,-0.00000,-0.00000,0.00000,0.00000,0.00000,0.00000,0.00000,0.00000,0.00000,0.00000,-0.99638,-0.99649,0.00000,-0.00000,0.00000,0.00000,"[0.998, 0.002, 0.999, 0.001, 0.000, 0.000]",0.998,0.998,0.002,0.002,0.999,0.999,0.001,0.001,0.000,0.000,0.000,0.000
0.4550,0.99629,0.99641,-0.00000,0.00000,0.00000,0.00000,-0.01810,-0.01754,-0.00000,-0.00000,0.00000,0.00000,0.00000,0.00000,0.00000,0.00000,0.00000,0.00000,-0.99629,-0.99641,0.00000,-0.00000,0.00000,0.00000,"[0.998, 0.002, 0.999, 0.001, 0.000, 0.000]",0.998,0.998,0.002,0.002,0.999,0.999,0.001,0.001,0.000,0.000,0.000,0.000
0.4600,0.99620,0.99632,-0.00000,0.00000,0.00000,0.00000,-0.01832,-0.01775,-0.00000,-0.00000,0.00000,0.00000,0.00000,0.00000,0.00000,0.00000,0.00000,0.00000,-0.99620,-0.99632,0.00000,-0.00000,0.00000,0.00000,"[0.998, 0.002, 0.999, 0.001, 0.000, 0.000]",0.998,0.998,0.002,0.002,0.999,0.999,0.001,0.001,0.000,0.000,0.000,0.000
0.4650,0.99611,0.99623,-0.00000,0.00000,0.00000,0.00000,-0.01854,-0.01796,-0.00000,-0.00000,0.00000,0.00000,0.00000,0.00000,0.00000,0.00000,0.00000,0.00000,-0.99611,-0.99623,0.00000,-0.00000,0.00000,0.00000,"[0.998, 0.002, 0.999, 0.001, 0.000, 0.000]",0.998,0.998,0.002,0.002,0.999,0.999,0.001,0.001,0.000,0.000,0.000,0.000
0.4700,0.99601,0.99614,-0.00000,0.00000,0.00000,0.00000,-0.01876,-0.01818,-0.00000,-0.00000,0.00000,0.00000,0.00000,0.00000,0.00000,0.00000,0.00000,0.00000,-0.99601,-0.99614,0.00000,-0.00000,0.00000,0.00000,"[0.998, 0.002, 0.999, 0.001, 0.000, 0.000]",0.998,0.998,0.002,0.002,0.999,0.999,0.001,0.001,0.000,0.000,0.000,0.000
0.4750,0.99592,0.99605,-0.00000,0.00000,0.00000,0.00000,-0.01898,-0.01839,-0.00000,-0.00000,0.00000,-0.00000,0.00000,0.00000,0.00000,0.00000,0.00000,0.00000,-0.99592,-0.99605,0.00000,-0.00000,0.00000,0.00000,"[0.998, 0.002, 0.999, 0.001, 0.000, 0.000]",0.998,0.998,0.002,0.002,0.999,0.999,0.001,0.001,0.000,0.000,0.000,0.000
0.4800,0.99582,0.99595,-0.00000,0.00000,0.00000,0.00000,-0.01920,-0.01861,-0.00000,-0.00000,0.00000,-0.00000,0.00000,0.00000,0.00000,0.00000,0.00000,0.00000,-0.99582,-0.99595,0.00000,-0.00000,0.00000,0.00000,"[0.998, 0.002, 0.999, 0.001, 0.000, 0.000]",0.998,0.998,0.002,0.002,0.999,0.999,0.001,0.001,0.000,0.000,0.000,0.000
0.4850,0.99573,0.99586,-0.00000,0.00000,0.00000,0.00000,-0.01942,-0.01882,-0.00000,-0.00000,0.00000,-0.00000,0.00000,0.00000,0.00000,0.00000,0.00000,0.00000,-0.99573,-0.99586,0.00000,-0.00000,0.00000,0.00000,"[0.998, 0.002, 0.999, 0.001, 0.000, 0.000]",0.998,0.998,0.002,0.002,0.999,0.999,0.001,0.001,0.000,0.000,0.000,0.000
0.4900,0.99563,0.99577,-0.00000,0.00000,0.00000,0.00000,-0.01964,-0.01903,-0.00000,-0.00000,0.00000,0.00000,0.00000,0.00000,0.00000,0.00000,0.00000,0.00000,-0.99563,-0.99577,0.00000,-0.00000,0.00000,0.00000,"[0.998, 0.002, 0.999, 0.001, 0.000, 0.000]",0.998,0.998,0.002,0.002,0.999,0.999,0.001,0.001,0.000,0.000,0.000,0.000
0.4950,0.99553,0.99567,-0.00000,0.00000,0.00000,0.00000,-0.01987,-0.01925,-0.00000,-0.00000,0.00000,0.00000,0.00000,0.00000,0.00000,0.00000,0.00000,0.00000,-0.99553,-0.99567,0.00000,-0.00000,0.00000,0.00000,"[0.998, 0.002, 0.999, 0.001, 0.000, 0.000]",0.998,0.998,0.002,0.002,0.999,0.999,0.001,0.001,0.000,0.000,0.000,0.000
0.5000,0.99543,0.99557,-0.00000,0.00000,0.00000,0.00000,-0.02009,-0.01946,-0.00000,-0.00000,-0.00000,-0.00000,0.00000,0.00000,0.00000,0.00000,0.00000,0.00000,-0.99543,-0.99557,0.00000,-0.00000,0.00000,0.00000,"[0.998, 0.002, 0.998, 0.002, 0.000, 0.000]",0.998,0.998,0.002,0.002,0.998,0.998,0.002,0.002,0.000,0.000,0.000,0.000
0.5050,0.99533,0.99547,-0.00000,0.00000,0.00000,0.00000,-0.02031,-0.01967,-0.00000,-0.00000,-0.00000,-0.00000,0.00000,0.00000,0.00000,0.00000,0.00000,0.00000,-0.99533,-0.99547,0.00000,-0.00000,0.00000,0.00000,"[0.998, 0.002, 0.998, 0.002, 0.000, 0.000]",0.998,0.998,0.002,0.002,0.998,0.998,0.002,0.002,0.000,0.000,0.000,0.000
0.5100,0.99523,0.99538,-0.00000,0.00000,0.00000,0.00000,-0.02053,-0.01989,-0.00000,-0.00000,0.00000,0.00000,0.00000,0.00000,0.00000,0.00000,0.00000,0.00000,-0.99523,-0.99538,0.00000,-0.00000,0.00000,0.00000,"[0.998, 0.002, 0.998, 0.002, 0.000, 0.000]",0.998,0.998,0.002,0.002,0.998,0.998,0.002,0.002,0.000,0.000,0.000,0.000
0.5150,0.99512,0.99528,-0.00000,0.00000,0.00000,0.00000,-0.02075,-0.02010,-0.00000,-0.00000,0.00000,-0.00000,0.00000,0.00000,0.00000,0.00000,0.00000,0.00000,-0.99512,-0.99528,0.00000,-0.00000,0.00000,0.00000,"[0.998, 0.002, 0.998, 0.002, 0.000, 0.000]",0.998,0.998,0.002,0.002,0.998,0.998,0.002,0.002,0.000,0.000,0.000,0.000
0.5200,0.99502,0.99517,-0.00000,0.00000,0.00000,0.00000,-0.02097,-0.02032,-0.00000,-0.00000,-0.00000,-0.00000,0.00000,0.00000,0.00000,0.00000,0.00000,0.00000,-0.99502,-0.99517,0.00000,-0.00000,0.00000,0.00000,"[0.998, 0.002, 0.998, 0.002, 0.000, 0.000]",0.998,0.998,0.002,0.002,0.998,0.998,0.002,0.002,0.000,0.000,0.000,0.000
0.5250,0.99491,0.99507,-0.00000,0.00000,0.00000,0.00000,-0.02119,-0.02053,-0.00000,-0.00000,0.00000,0.00000,0.00000,0.00000,0.00000,0.00000,0.00000,0.00000,-0.99491,-0.99507,0.00000,-0.00000,0.00000,0.00000,"[0.998, 0.002, 0.998, 0.002, 0.000, 0.000]",0.998,0.998,0.002,0.002,0.998,0.998,0.002,0.002,0.000,0.000,0.000,0.000
0.5300,0.99481,0.99497,-0.00000,0.00000,0.00000,0.00000,-0.02141,-0.02074,-0.00000,-0.00000,-0.00000,-0.00000,0.00000,0.00000,0.00000,0.00000,0.00000,0.00000,-0.99481,-0.99497,0.00000,-0.00000,0.00000,0.00000,"[0.998, 0.002, 0.998, 0.002, 0.000, 0.000]",0.998,0.998,0.002,0.002,0.998,0.998,0.002,0.002,0.000,0.000,0.000,0.000
0.5350,0.99470,0.99487,-0.00000,0.00000,0.00000,0.00000,-0.02163,-0.02096,-0.00000,-0.00000,-0.00000,-0.00000,0.00000,0.00000,0.00000,0.00000,0.00000,0.00000,-0.99470,-0.99487,0.00000,-0.00000,0.00000,0.00000,"[0.998, 0.002, 0.998, 0.002, 0.000, 0.000]",0.998,0.998,0.002,0.002,0.998,0.998,0.002,0.002,0.000,0.000,0.000,0.000
0.5400,0.99459,0.99476,-0.00000,0.00000,0.00000,0.00000,-0.02185,-0.02117,-0.00000,-0.00000,-0.00000,-0.00000,0.00000,0.00000,0.00000,0.00000,0.00000,0.00000,-0.99459,-0.99476,0.00000,-0.00000,0.00000,0.00000,"[0.998, 0.002, 0.998, 0.002, 0.000, 0.000]",0.998,0.998,0.002,0.002,0.998,0.998,0.002,0.002,0.000,0.000,0.000,0.000
0.5450,0.99448,0.99465,-0.00000,0.00000,0.00000,0.00000,-0.02207,-0.02139,-0.00000,-0.00000,0.00000,0.00000,0.00000,0.00000,0.00000,0.00000,0.00000,0.00000,-0.99448,-0.99465,0.00000,-0.00000,0.00000,0.00000,"[0.998, 0.002, 0.998, 0.002, 0.000, 0.000]",0.998,0.998,0.002,0.002,0.998,0.998,0.002,0.002,0.000,0.000,0.000,0.000
0.5500,0.99437,0.99455,-0.00000,0.00000,0.00000,0.00000,-0.02229,-0.02160,-0.00000,-0.00000,0.00000,0.00000,0.00000,0.00000,0.00000,0.00000,0.00000,0.00000,-0.99437,-0.99455,0.00000,-0.00000,0.00000,0.00000,"[0.998, 0.002, 0.998, 0.002, 0.000, 0.000]",0.998,0.998,0.002,0.002,0.998,0.998,0.002,0.002,0.000,0.000,0.000,0.000
0.5550,0.99426,0.99444,-0.00000,0.00000,0.00000,0.00000,-0.02251,-0.02181,-0.00000,-0.00000,0.00000,0.00000,0.00000,0.00000,0.00000,0.00000,0.00000,0.00000,-0.99426,-0.99444,0.00000,-0.00000,0.00000,0.00000,"[0.998, 0.002, 0.998, 0.002, 0.000, 0.000]",0.998,0.998,0.002,0.002,0.998,0.998,0.002,0.002,0.000,0.000,0.000,0.000
0.5600,0.99415,0.99433,-0.00000,0.00000,0.00000,0.00000,-0.02273,-0.02203,-0.00000,-0.00000,0.00000,0.00000,0.00000,0.00000,0.00000,0.00000,0.00000,0.00000,-0.99415,-0.99433,0.00000,-0.00000,0.00000,0.00000,"[0.998, 0.002, 0.998, 0.002, 0.000, 0.000]",0.998,0.998,0.002,0.002,0.998,0.998,0.002,0.002,0.000,0.000,0.000,0.000
0.5650,0.99403,0.99422,-0.00000,0.00000,0.00000,0.00000,-0.02296,-0.02224,-0.00000,-0.00000,0.00000,0.00000,0.00000,0.00000,0.00000,0.00000,0.00000,0.00000,-0.99403,-0.99422,0.00000,-0.00000,0.00000,0.00000,"[0.998, 0.002, 0.998, 0.002, 0.000, 0.000]",0.998,0.998,0.002,0.002,0.998,0.998,0.002,0.002,0.000,0.000,0.000,0.000
0.5700,0.99392,0.99411,-0.00000,0.00000,0.00000,0.00000,-0.02318,-0.02246,-0.00000,-0.00000,0.00000,0.00000,0.00000,0.00000,0.00000,0.00000,0.00000,0.00000,-0.99392,-0.99411,0.00000,-0.00000,0.00000,0.00000,"[0.998, 0.002, 0.998, 0.002, 0.000, 0.000]",0.998,0.998,0.002,0.002,0.998,0.998,0.002,0.002,0.000,0.000,0.000,0.000
0.5750,0.99380,0.99399,-0.00000,0.00000,0.00000,0.00000,-0.02340,-0.02267,-0.00000,-0.00000,0.00000,0.00000,0.00000,0.00000,0.00000,0.00000,0.00000,0.00000,-0.99380,-0.99399,0.00000,-0.00000,0.00000,0.00000,"[0.998, 0.002, 0.998, 0.002, 0.000, 0.000]",0.998,0.998,0.002,0.002,0.998,0.998,0.002,0.002,0.000,0.000,0.000,0.000
0.5800,0.99368,0.99388,-0.00000,0.00000,0.00000,0.00000,-0.02362,-0.02288,-0.00000,-0.00000,0.00000,0.00000,0.00000,0.00000,0.00000,0.00000,0.00000,0.00000,-0.99368,-0.99388,0.00000,-0.00000,0.00000,0.00000,"[0.998, 0.002, 0.998, 0.002, 0.000, 0.000]",0.998,0.998,0.002,0.002,0.998,0.998,0.002,0.002,0.000,0.000,0.000,0.000
0.5850,0.99356,0.99376,-0.00000,0.00000,0.00000,0.00000,-0.02384,-0.02310,-0.00000,-0.00000,0.00000,0.00000,0.00000,0.00000,0.00000,0.00000,0.00000,0.00000,-0.99356,-0.99376,0.00000,-0.00000,0.00000,0.00000,"[0.998, 0.002, 0.998, 0.002, 0.000, 0.000]",0.998,0.998,0.002,0.002,0.998,0.998,0.002,0.002,0.000,0.000,0.000,0.000
0.5900,0.99344,0.99365,-0.00000,0.00000,0.00000,0.00000,-0.02406,-0.02331,-0.00000,-0.00000,0.00000,0.00000,0.00000,0.00000,0.00000,0.00000,0.00000,0.00000,-0.99344,-0.99365,0.00000,-0.00000,0.00000,0.00000,"[0.998, 0.002, 0.998, 0.002, 0.000, 0.000]",0.998,0.998,0.002,0.002,0.998,0.998,0.002,0.002,0.000,0.000,0.000,0.000
0.5950,0.99332,0.99353,-0.00000,0.00000,0.00000,0.00000,-0.02428,-0.02352,-0.00000,-0.00000,0.00000,0.00000,0.00000,0.00000,0.00000,0.00000,0.00000,0.00000,-0.99332,-0.99353,0.00000,-0.00000,0.00000,0.00000,"[0.998, 0.002, 0.998, 0.002, 0.000, 0.000]",0.998,0.998,0.002,0.002,0.998,0.998,0.002,0.002,0.000,0.000,0.000,0.000
0.6000,0.99320,0.99341,-0.00000,0.00000,0.00000,0.00000,-0.02450,-0.02374,-0.00000,-0.00000,-0.00000,-0.00000,0.00000,0.00000,0.00000,0.00000,0.00000,0.00000,-0.99320,-0.99341,0.00000,-0.00000,0.00000,0.00000,"[0.998, 0.002, 0.998, 0.002, 0.000, 0.000]",0.998,0.998,0.002,0.002,0.998,0.998,0.002,0.002,0.000,0.000,0.000,0.000
0.6050,0.99308,0.99329,-0.00000,0.00000,0.00000,0.00000,-0.02472,-0.02395,-0.00000,-0.00000,0.00000,-0.00000,0.00000,0.00000,0.00000,0.00000,0.00000,0.00000,-0.99308,-0.99329,0.00000,-0.00000,0.00000,0.00000,"[0.998, 0.002, 0.998, 0.002, 0.000, 0.000]",0.998,0.998,0.002,0.002,0.998,0.998,0.002,0.002,0.000,0.000,0.000,0.000
0.6100,0.99295,0.99317,-0.00000,0.00000,0.00000,0.00000,-0.02494,-0.02417,-0.00000,-0.00000,-0.00000,-0.00000,0.00000,0.00000,0.00000,0.00000,0.00000,0.00000,-0.99295,-0.99317,0.00000,-0.00000,0.00000,0.00000,"[0.998, 0.002, 0.998, 0.002, 0.000, 0.000]",0.998,0.998,0.002,0.002,0.998,0.998,0.002,0.002,0.000,0.000,0.000,0.000
0.6150,0.99283,0.99305,-0.00000,0.00000,0.00000,0.00000,-0.02516,-0.02438,-0.00000,-0.00000,-0.00000,0.00000,0.00000,0.00000,0.00000,0.00000,0.00000,0.00000,-0.99283,-0.99305,0.00000,-0.00000,0.00000,0.00000,"[0.998, 0.002, 0.998, 0.002, 0.000, 0.000]",0.998,0.998,0.002,0.002,0.998,0.998,0.002,0.002,0.000,0.000,0.000,0.000
0.6200,0.99270,0.99293,-0.00000,0.00000,0.00000,0.00000,-0.02538,-0.02459,-0.00000,-0.00000,0.00000,0.00000,0.00000,0.00000,0.00000,0.00000,0.00000,0.00000,-0.99270,-0.99293,0.00000,-0.00000,0.00000,0.00000,"[0.998, 0.002, 0.998, 0.002, 0.000, 0.000]",0.998,0.998,0.002,0.002,0.998,0.998,0.002,0.002,0.000,0.000,0.000,0.000
0.6250,0.99257,0.99281,-0.00000,0.00000,0.00000,0.00000,-0.02560,-0.02481,-0.00000,-0.00000,-0.00000,-0.00000,0.00000,0.00000,0.00000,0.00000,0.00000,0.00000,-0.99257,-0.99281,0.00000,-0.00000,0.00000,0.00000,"[0.998, 0.002, 0.998, 0.002, 0.000, 0.000]",0.998,0.998,0.002,0.002,0.998,0.998,0.002,0.002,0.000,0.000,0.000,0.000
0.6300,0.99245,0.99268,-0.00000,0.00000,0.00000,0.00000,-0.02582,-0.02502,-0.00000,-0.00000,-0.00000,-0.00000,0.00000,0.00000,0.00000,0.00000,0.00000,0.00000,-0.99245,-0.99268,0.00000,-0.00000,0.00000,0.00000,"[0.998, 0.002, 0.998, 0.002, 0.000, 0.000]",0.998,0.998,0.002,0.002,0.998,0.998,0.002,0.002,0.000,0.000,0.000,0.000
0.6350,0.99232,0.99256,-0.00000,0.00000,0.00000,0.00000,-0.02605,-0.02524,-0.00000,-0.00000,-0.00000,-0.00000,0.00000,0.00000,0.00000,0.00000,0.00000,0.00000,-0.99232,-0.99256,0.00000,-0.00000,0.00000,0.00000,"[0.998, 0.002, 0.998, 0.002, 0.000, 0.000]",0.998,0.998,0.002,0.002,0.998,0.998,0.002,0.002,0.000,0.000,0.000,0.000
0.6400,0.99219,0.99243,-0.00000,0.00000,0.00000,0.00000,-0.02627,-0.02545,-0.00000,-0.00000,-0.00000,-0.00000,0.00000,0.00000,0.00000,0.00000,0.00000,0.00000,-0.99219,-0.99243,0.00000,-0.00000,0.00000,0.00000,"[0.998, 0.002, 0.998, 0.002, 0.000, 0.000]",0.998,0.998,0.002,0.002,0.998,0.998,0.002,0.002,0.000,0.000,0.000,0.000
0.6450,0.99205,0.99230,-0.00000,0.00000,0.00000,0.00000,-0.02649,-0.02566,-0.00000,-0.00000,-0.00000,-0.00000,0.00000,0.00000,0.00000,0.00000,0.00000,0.00000,-0.99205,-0.99230,0.00000,-0.00000,0.00000,0.00000,"[0.998, 0.002, 0.998, 0.002, 0.000, 0.000]",0.998,0.998,0.002,0.002,0.998,0.998,0.002,0.002,0.000,0.000,0.000,0.000
0.6500,0.99192,0.99217,-0.00000,0.00000,0.00000,0.00000,-0.02671,-0.02588,-0.00000,-0.00000,-0.00000,-0.00000,0.00000,0.00000,0.00000,0.00000,0.00000,0.00000,-0.99192,-0.99217,0.00000,-0.00000,0.00000,0.00000,"[0.998, 0.002, 0.998, 0.002, 0.000, 0.000]",0.998,0.998,0.002,0.002,0.998,0.998,0.002,0.002,0.000,0.000,0.000,0.000
0.6550,0.99179,0.99204,-0.00000,0.00000,0.00000,0.00000,-0.02693,-0.02609,-0.00000,-0.00000,0.00000,-0.00000,0.00000,0.00000,0.00000,0.00000,0.00000,0.00000,-0.99179,-0.99204,0.00000,-0.00000,0.00000,0.00000,"[0.998, 0.002, 0.998, 0.002, 0.000, 0.000]",0.998,0.998,0.002,0.002,0.998,0.998,0.002,0.002,0.000,0.000,0.000,0.000
0.6600,0.99165,0.99191,-0.00000,0.00000,0.00000,0.00000,-0.02715,-0.02630,-0.00000,-0.00000,0.00000,0.00000,0.00000,0.00000,0.00000,0.00000,0.00000,0.00000,-0.99165,-0.99191,0.00000,-0.00000,0.00000,0.00000,"[0.998, 0.002, 0.998, 0.002, 0.000, 0.000]",0.998,0.998,0.002,0.002,0.998,0.998,0.002,0.002,0.000,0.000,0.000,0.000
0.6650,0.99152,0.99178,-0.00000,0.00000,0.00000,0.00000,-0.02737,-0.02652,-0.00000,-0.00000,-0.00000,-0.00000,0.00000,0.00000,0.00000,0.00000,0.00000,0.00000,-0.99152,-0.99178,0.00000,-0.00000,0.00000,0.00000,"[0.998, 0.002, 0.998, 0.002, 0.000, 0.000]",0.998,0.998,0.002,0.002,0.998,0.998,0.002,0.002,0.000,0.000,0.000,0.000
0.6700,0.99138,0.99165,-0.00000,0.00000,0.00000,0.00000,-0.02759,-0.02673,-0.00000,-0.00000,-0.00000,-0.00000,0.00000,0.00000,0.00000,0.00000,0.00000,0.00000,-0.99138,-0.99165,0.00000,-0.00000,0.00000,0.00000,"[0.998, 0.002, 0.998, 0.002, 0.000, 0.000]",0.998,0.998,0.002,0.002,0.998,0.998,0.002,0.002,0.000,0.000,0.000,0.000
0.6750,0.99124,0.99151,-0.00000,0.00000,0.00000,0.00000,-0.02781,-0.02695,-0.00000,-0.00000,-0.00000,-0.00000,0.00000,0.00000,0.00000,0.00000,0.00000,0.00000,-0.99124,-0.99151,0.00000,-0.00000,0.00000,0.00000,"[0.998, 0.002, 0.998, 0.002, 0.000, 0.000]",0.998,0.998,0.002,0.002,0.998,0.998,0.002,0.002,0.000,0.000,0.000,0.000
0.6800,0.99110,0.99138,-0.00000,0.00000,0.00000,0.00000,-0.02803,-0.02716,-0.00000,-0.00000,-0.00000,-0.00000,0.00000,0.00000,0.00000,0.00000,0.00000,0.00000,-0.99110,-0.99138,0.00000,-0.00000,0.00000,0.00000,"[0.998, 0.002, 0.998, 0.002, 0.000, 0.000]",0.998,0.998,0.002,0.002,0.998,0.998,0.002,0.002,0.000,0.000,0.000,0.000
0.6850,0.99096,0.99124,-0.00000,0.00000,0.00000,0.00000,-0.02825,-0.02737,-0.00000,-0.00000,-0.00000,0.00000,0.00000,0.00000,0.00000,0.00000,0.00000,0.00000,-0.99096,-0.99124,0.00000,-0.00000,0.00000,0.00000,"[0.998, 0.002, 0.998, 0.002, 0.000, 0.000]",0.998,0.998,0.002,0.002,0.998,0.998,0.002,0.002,0.000,0.000,0.000,0.000
0.6900,0.99082,0.99110,-0.00000,0.00000,0.00000,0.00000,-0.02847,-0.02759,-0.00000,-0.00000,-0.00000,0.00000,0.00000,0.00000,0.00000,0.00000,0.00000,0.00000,-0.99082,-0.99110,0.00000,-0.00000,0.00000,0.00000,"[0.998, 0.002, 0.998, 0.002, 0.000, 0.000]",0.998,0.998,0.002,0.002,0.998,0.998,0.002,0.002,0.000,0.000,0.000,0.000
0.6950,0.99067,0.99096,-0.00000,0.00000,0.00000,0.00000,-0.02869,-0.02780,-0.00000,-0.00000,0.00000,0.00000,0.00000,0.00000,0.00000,0.00000,0.00000,0.00000,-0.99067,-0.99096,0.00000,-0.00000,0.00000,0.00000,"[0.998, 0.002, 0.998, 0.002, 0.000, 0.000]",0.998,0.998,0.002,0.002,0.998,0.998,0.002,0.002,0.000,0.000,0.000,0.000
0.7000,0.99053,0.99082,-0.00000,0.00000,0.00000,0.00000,-0.02891,-0.02802,-0.00000,-0.00000,0.00000,0.00000,0.00000,0.00000,0.00000,0.00000,0.00000,0.00000,-0.99053,-0.99082,0.00000,-0.00000,0.00000,0.00000,"[0.998, 0.002, 0.998, 0.002, 0.000, 0.000]",0.998,0.998,0.002,0.002,0.998,0.998,0.002,0.002,0.000,0.000,0.000,0.000
0.7050,0.99039,0.99068,-0.00000,0.00000,0.00000,0.00000,-0.02914,-0.02823,-0.00000,-0.00000,-0.00000,-0.00000,0.00000,0.00000,0.00000,0.00000,0.00000,0.00000,-0.99039,-0.99068,0.00000,-0.00000,0.00000,0.00000,"[0.998, 0.002, 0.998, 0.002, 0.000, 0.000]",0.998,0.998,0.002,0.002,0.998,0.998,0.002,0.002,0.000,0.000,0.000,0.000
0.7100,0.99024,0.99054,-0.00000,0.00000,0.00000,0.00000,-0.02936,-0.02844,-0.00000,-0.00000,-0.00000,-0.00000,0.00000,0.00000,0.00000,0.00000,0.00000,0.00000,-0.99024,-0.99054,0.00000,-0.00000,0.00000,0.00000,"[0.998, 0.002, 0.998, 0.002, 0.000, 0.000]",0.998,0.998,0.002,0.002,0.998,0.998,0.002,0.002,0.000,0.000,0.000,0.000
0.7150,0.99009,0.99040,-0.00000,0.00000,0.00000,0.00000,-0.02958,-0.02866,-0.00000,-0.00000,-0.00000,-0.00000,0.00000,0.00000,0.00000,0.00000,0.00000,0.00000,-0.99009,-0.99040,0.00000,-0.00000,0.00000,0.00000,"[0.998, 0.002, 0.998, 0.002, 0.000, 0.000]",0.998,0.998,0.002,0.002,0.998,0.998,0.002,0.002,0.000,0.000,0.000,0.000
0.7200,0.98994,0.99026,-0.00000,0.00000,0.00000,0.00000,-0.02980,-0.02887,-0.00000,-0.00000,-0.00000,-0.00000,0.00000,0.00000,0.00000,0.00000,0.00000,0.00000,-0.98994,-0.99026,0.00000,-0.00000,0.00000,0.00000,"[0.998, 0.002, 0.998, 0.002, 0.000, 0.000]",0.998,0.998,0.002,0.002,0.998,0.998,0.002,0.002,0.000,0.000,0.000,0.000
0.7250,0.98979,0.99011,-0.00000,0.00000,0.00000,0.00000,-0.03002,-0.02908,-0.00000,-0.00000,-0.00000,-0.00000,0.00000,0.00000,0.00000,0.00000,0.00000,0.00000,-0.98979,-0.99011,0.00000,-0.00000,0.00000,0.00000,"[0.998, 0.002, 0.998, 0.002, 0.000, 0.000]",0.998,0.998,0.002,0.002,0.998,0.998,0.002,0.002,0.000,0.000,0.000,0.000
0.7300,0.98964,0.98997,-0.00000,0.00000,0.00000,0.00000,-0.03024,-0.02930,-0.00000,-0.00000,-0.00000,-0.00000,0.00000,0.00000,0.00000,0.00000,0.00000,0.00000,-0.98964,-0.98997,0.00000,-0.00000,0.00000,0.00000,"[0.998, 0.002, 0.998, 0.002, 0.000, 0.000]",0.998,0.998,0.002,0.002,0.998,0.998,0.002,0.002,0.000,0.000,0.000,0.000
0.7350,0.98949,0.98982,-0.00000,0.00000,0.00000,0.00000,-0.03046,-0.02951,-0.00000,-0.00000,-0.00000,-0.00000,0.00000,0.00000,0.00000,0.00000,0.00000,0.00000,-0.98949,-0.98982,0.00000,-0.00000,0.00000,0.00000,"[0.998, 0.002, 0.998, 0.002, 0.000, 0.000]",0.998,0.998,0.002,0.002,0.998,0.998,0.002,0.002,0.000,0.000,0.000,0.000
0.7400,0.98934,0.98967,-0.00000,0.00000,0.00000,0.00000,-0.03068,-0.02973,-0.00000,-0.00000,-0.00000,-0.00000,0.00000,0.00000,0.00000,0.00000,0.00000,0.00000,-0.98934,-0.98967,0.00000,-0.00000,0.00000,0.00000,"[0.998, 0.002, 0.998, 0.002, 0.000, 0.000]",0.998,0.998,0.002,0.002,0.998,0.998,0.002,0.002,0.000,0.000,0.000,0.000
0.7450,0.98918,0.98952,-0.00000,0.00000,0.00000,0.00000,-0.03090,-0.02994,-0.00000,-0.00000,-0.00000,-0.00000,0.00000,0.00000,0.00000,0.00000,0.00000,0.00000,-0.98918,-0.98952,0.00000,-0.00000,0.00000,0.00000,"[0.998, 0.002, 0.998, 0.002, 0.000, 0.000]",0.998,0.998,0.002,0.002,0.998,0.998,0.002,0.002,0.000,0.000,0.000,0.000
0.7500,0.98903,0.98937,-0.00000,0.00000,0.00000,0.00000,-0.03112,-0.03015,-0.00000,-0.00000,-0.00000,-0.00000,0.00000,0.00000,0.00000,0.00000,0.00000,0.00000,-0.98903,-0.98937,0.00000,-0.00000,0.00000,0.00000,"[0.998, 0.002, 0.998, 0.002, 0.000, 0.000]",0.998,0.998,0.002,0.002,0.998,0.998,0.002,0.002,0.000,0.000,0.000,0.000
0.7550,0.98887,0.98922,-0.00000,0.00000,0.00000,0.00000,-0.03134,-0.03037,-0.00000,-0.00000,-0.00000,-0.00000,0.00000,0.00000,0.00000,0.00000,0.00000,0.00000,-0.98887,-0.98922,0.00000,-0.00000,0.00000,0.00000,"[0.998, 0.002, 0.998, 0.002, 0.000, 0.000]",0.998,0.998,0.002,0.002,0.998,0.998,0.002,0.002,0.000,0.000,0.000,0.000
0.7600,0.98872,0.98907,-0.00000,0.00000,0.00000,0.00000,-0.03156,-0.03058,-0.00000,-0.00000,-0.00000,-0.00000,0.00000,0.00000,0.00000,0.00000,0.00000,0.00000,-0.98872,-0.98907,0.00000,-0.00000,0.00000,0.00000,"[0.998, 0.002, 0.998, 0.002, 0.000, 0.000]",0.998,0.998,0.002,0.002,0.998,0.998,0.002,0.002,0.000,0.000,0.000,0.000
0.7650,0.98856,0.98891,-0.00000,0.00000,0.00000,0.00000,-0.03178,-0.03080,-0.00000,-0.00000,-0.00000,-0.00000,0.00000,0.00000,0.00000,0.00000,0.00000,0.00000,-0.98856,-0.98891,0.00000,-0.00000,0.00000,0.00000,"[0.998, 0.002, 0.998, 0.002, 0.000, 0.000]",0.998,0.998,0.002,0.002,0.998,0.998,0.002,0.002,0.000,0.000,0.000,0.000
0.7700,0.98840,0.98876,-0.00000,0.00000,0.00000,0.00000,-0.03201,-0.03101,-0.00000,-0.00000,0.00000,0.00000,0.00000,0.00000,0.00000,0.00000,0.00000,0.00000,-0.98840,-0.98876,0.00000,-0.00000,0.00000,0.00000,"[0.998, 0.002, 0.998, 0.002, 0.000, 0.000]",0.998,0.998,0.002,0.002,0.998,0.998,0.002,0.002,0.000,0.000,0.000,0.000
0.7750,0.98824,0.98860,-0.00000,0.00000,0.00000,0.00000,-0.03223,-0.03122,-0.00000,-0.00000,0.00000,0.00000,0.00000,0.00000,0.00000,0.00000,0.00000,0.00000,-0.98824,-0.98860,0.00000,-0.00000,0.00000,0.00000,"[0.998, 0.002, 0.998, 0.002, 0.000, 0.000]",0.998,0.998,0.002,0.002,0.998,0.998,0.002,0.002,0.000,0.000,0.000,0.000
0.7800,0.98808,0.98845,-0.00000,0.00000,0.00000,0.00000,-0.03245,-0.03144,-0.00000,-0.00000,0.00000,0.00000,0.00000,0.00000,0.00000,0.00000,0.00000,0.00000,-0.98808,-0.98845,0.00000,-0.00000,0.00000,0.00000,"[0.998, 0.002, 0.998, 0.002, 0.000, 0.000]",0.998,0.998,0.002,0.002,0.998,0.998,0.002,0.002,0.000,0.000,0.000,0.000
0.7850,0.98791,0.98829,-0.00000,0.00000,0.00000,0.00000,-0.03267,-0.03165,-0.00000,-0.00000,0.00000,0.00000,0.00000,0.00000,0.00000,0.00000,0.00000,0.00000,-0.98791,-0.98829,0.00000,-0.00000,0.00000,0.00000,"[0.998, 0.002, 0.998, 0.002, 0.000, 0.000]",0.998,0.998,0.002,0.002,0.998,0.998,0.002,0.002,0.000,0.000,0.000,0.000
0.7900,0.98775,0.98813,-0.00000,0.00000,0.00000,0.00000,-0.03289,-0.03186,-0.00000,-0.00000,0.00000,0.00000,0.00000,0.00000,0.00000,0.00000,0.00000,0.00000,-0.98775,-0.98813,0.00000,-0.00000,0.00000,0.00000,"[0.998, 0.002, 0.998, 0.002, 0.000, 0.000]",0.998,0.998,0.002,0.002,0.998,0.998,0.002,0.002,0.000,0.000,0.000,0.000
0.7950,0.98758,0.98797,-0.00000,0.00000,0.00000,0.00000,-0.03311,-0.03208,-0.00000,-0.00000,0.00000,0.00000,0.00000,0.00000,0.00000,0.00000,0.00000,0.00000,-0.98758,-0.98797,0.00000,-0.00000,0.00000,0.00000,"[0.998, 0.002, 0.998, 0.002, 0.000, 0.000]",0.998,0.998,0.002,0.002,0.998,0.998,0.002,0.002,0.000,0.000,0.000,0.000
0.8000,0.98742,0.98781,-0.00000,0.00000,0.00000,0.00000,-0.03333,-0.03229,-0.00000,-0.00000,0.00000,0.00000,0.00000,0.00000,0.00000,0.00000,0.00000,0.00000,-0.98742,-0.98781,0.00000,-0.00000,0.00000,0.00000,"[0.998, 0.001, 0.998, 0.002, 0.000, 0.000]",0.998,0.998,0.001,0.001,0.998,0.998,0.002,0.002,0.000,0.000,0.000,0.000
0.8050,0.98725,0.98765,-0.00000,0.00000,0.00000,0.00000,-0.03355,-0.03251,-0.00000,-0.00000,0.00000,0.00000,0.00000,0.00000,0.00000,0.00000,0.00000,0.00000,-0.98725,-0.98765,0.00000,-0.00000,0.00000,0.00000,"[0.998, 0.001, 0.998, 0.002, 0.000, 0.000]",0.998,0.998,0.001,0.001,0.998,0.998,0.002,0.002,0.000,0.000,0.000,0.000
0.8100,0.98708,0.98748,-0.00000,0.00000,0.00000,0.00000,-0.03377,-0.03272,-0.00000,-0.00000,0.00000,0.00000,0.00000,0.00000,0.00000,0.00000,0.00000,0.00000,-0.98708,-0.98748,0.00000,-0.00000,0.00000,0.00000,"[0.998, 0.001, 0.998, 0.002, 0.000, 0.000]",0.998,0.998,0.001,0.001,0.998,0.998,0.002,0.002,0.000,0.000,0.000,0.000
0.8150,0.98691,0.98732,-0.00000,0.00000,0.00000,0.00000,-0.03399,-0.03293,-0.00000,-0.00000,0.00000,0.00000,0.00000,0.00000,0.00000,0.00000,0.00000,0.00000,-0.98691,-0.98732,0.00000,-0.00000,0.00000,0.00000,"[0.998, 0.001, 0.998, 0.002, 0.000, 0.000]",0.998,0.998,0.001,0.001,0.998,0.998,0.002,0.002,0.000,0.000,0.000,0.000
0.8200,0.98674,0.98716,-0.00000,0.00000,0.00000,0.00000,-0.03421,-0.03315,-0.00000,-0.00000,-0.00000,0.00000,0.00000,0.00000,0.00000,0.00000,0.00000,0.00000,-0.98674,-0.98716,0.00000,-0.00000,0.00000,0.00000,"[0.998, 0.001, 0.998, 0.002, 0.000, 0.000]",0.998,0.998,0.001,0.001,0.998,0.998,0.002,0.002,0.000,0.000,0.000,0.000
0.8250,0.98657,0.98699,-0.00000,0.00000,0.00000,0.00000,-0.03443,-0.03336,-0.00000,-0.00000,-0.00000,-0.00000,0.00000,0.00000,0.00000,0.00000,0.00000,0.00000,-0.98657,-0.98699,0.00000,-0.00000,0.00000,0.00000,"[0.998, 0.001, 0.998, 0.002, 0.000, 0.000]",0.998,0.998,0.001,0.001,0.998,0.998,0.002,0.002,0.000,0.000,0.000,0.000
0.8300,0.98640,0.98682,-0.00000,0.00000,0.00000,0.00000,-0.03465,-0.03358,-0.00000,-0.00000,-0.00000,-0.00000,0.00000,0.00000,0.00000,0.00000,0.00000,0.00000,-0.98640,-0.98682,0.00000,-0.00000,0.00000,0.00000,"[0.998, 0.001, 0.998, 0.002, 0.000, 0.000]",0.998,0.998,0.001,0.001,0.998,0.998,0.002,0.002,0.000,0.000,0.000,0.000
0.8350,0.98622,0.98665,-0.00000,0.00000,0.00000,0.00000,-0.03487,-0.03379,-0.00000,-0.00000,0.00000,-0.00000,0.00000,0.00000,0.00000,0.00000,0.00000,0.00000,-0.98622,-0.98665,0.00000,-0.00000,0.00000,0.00000,"[0.998, 0.001, 0.998, 0.002, 0.000, 0.000]",0.998,0.998,0.001,0.001,0.998,0.998,0.002,0.002,0.000,0.000,0.000,0.000
0.8400,0.98605,0.98648,-0.00000,0.00000,0.00000,0.00000,-0.03510,-0.03400,-0.00000,-0.00000,-0.00000,-0.00000,0.00000,0.00000,0.00000,0.00000,0.00000,0.00000,-0.98605,-0.98648,0.00000,-0.00000,0.00000,0.00000,"[0.998, 0.001, 0.998, 0.002, 0.000, 0.000]",0.998,0.998,0.001,0.001,0.998,0.998,0.002,0.002,0.000,0.000,0.000,0.000
0.8450,0.98587,0.98631,-0.00000,0.00000,0.00000,0.00000,-0.03532,-0.03422,-0.00000,-0.00000,0.00000,-0.00000,0.00000,0.00000,0.00000,0.00000,0.00000,0.00000,-0.98587,-0.98631,0.00000,-0.00000,0.00000,0.00000,"[0.998, 0.001, 0.998, 0.002, 0.000, 0.000]",0.998,0.998,0.001,0.001,0.998,0.998,0.002,0.002,0.000,0.000,0.000,0.000
0.8500,0.98570,0.98614,-0.00000,0.00000,0.00000,0.00000,-0.03554,-0.03443,-0.00000,-0.00000,0.00000,-0.00000,0.00000,0.00000,0.00000,0.00000,0.00000,0.00000,-0.98570,-0.98614,0.00000,-0.00000,0.00000,0.00000,"[0.998, 0.002, 0.998, 0.002, 0.000, 0.000]",0.998,0.998,0.002,0.002,0.998,0.998,0.002,0.002,0.000,0.000,0.000,0.000
0.8550,0.98552,0.98597,-0.00000,0.00000,0.00000,0.00000,-0.03576,-0.03464,-0.00000,-0.00000,-0.00000,-0.00000,0.00000,0.00000,0.00000,0.00000,0.00000,0.00000,-0.98552,-0.98597,0.00000,-0.00000,0.00000,0.00000,"[0.998, 0.002, 0.998, 0.002, 0.000, 0.000]",0.998,0.998,0.002,0.002,0.998,0.998,0.002,0.002,0.000,0.000,0.000,0.000
0.8600,0.98534,0.98580,-0.00000,0.00000,0.00000,0.00000,-0.03598,-0.03486,-0.00000,-0.00000,0.00000,0.00000,0.00000,0.00000,0.00000,0.00000,0.00000,0.00000,-0.98534,-0.98580,0.00000,-0.00000,0.00000,0.00000,"[0.998, 0.002, 0.998, 0.002, 0.000, 0.000]",0.998,0.998,0.002,0.002,0.998,0.998,0.002,0.002,0.000,0.000,0.000,0.000
0.8650,0.98516,0.98562,-0.00000,0.00000,0.00000,0.00000,-0.03620,-0.03507,-0.00000,-0.00000,0.00000,0.00000,0.00000,0.00000,0.00000,0.00000,0.00000,0.00000,-0.98516,-0.98562,0.00000,-0.00000,0.00000,0.00000,"[0.998, 0.002, 0.998, 0.002, 0.000, 0.000]",0.998,0.998,0.002,0.002,0.998,0.998,0.002,0.002,0.000,0.000,0.000,0.000
0.8700,0.98498,0.98544,-0.00000,0.00000,0.00000,0.00000,-0.03642,-0.03529,-0.00000,-0.00000,0.00000,0.00000,0.00000,0.00000,0.00000,0.00000,0.00000,0.00000,-0.98498,-0.98544,0.00000,-0.00000,0.00000,0.00000,"[0.998, 0.002, 0.998, 0.002, 0.000, 0.000]",0.998,0.998,0.002,0.002,0.998,0.998,0.002,0.002,0.000,0.000,0.000,0.000
0.8750,0.98479,0.98527,-0.00000,0.00000,0.00000,0.00000,-0.03664,-0.03550,-0.00000,-0.00000,0.00000,0.00000,0.00000,0.00000,0.00000,0.00000,0.00000,0.00000,-0.98479,-0.98527,0.00000,-0.00000,0.00000,0.00000,"[0.998, 0.002, 0.998, 0.002, 0.000, 0.000]",0.998,0.998,0.002,0.002,0.998,0.998,0.002,0.002,0.000,0.000,0.000,0.000
0.8800,0.98461,0.98509,-0.00000,0.00000,0.00000,0.00000,-0.03686,-0.03571,-0.00000,-0.00000,0.00000,0.00000,0.00000,0.00000,0.00000,0.00000,0.00000,0.00000,-0.98461,-0.98509,0.00000,-0.00000,0.00000,0.00000,"[0.998, 0.002, 0.998, 0.002, 0.000, 0.000]",0.998,0.998,0.002,0.002,0.998,0.998,0.002,0.002,0.000,0.000,0.000,0.000
0.8850,0.98443,0.98491,-0.00000,0.00000,0.00000,0.00000,-0.03708,-0.03593,-0.00000,-0.00000,0.00000,0.00000,0.00000,0.00000,0.00000,0.00000,0.00000,0.00000,-0.98443,-0.98491,0.00000,-0.00000,0.00000,0.00000,"[0.998, 0.002, 0.998, 0.002, 0.000, 0.000]",0.998,0.998,0.002,0.002,0.998,0.998,0.002,0.002,0.000,0.000,0.000,0.000
0.8900,0.98424,0.98473,-0.00000,0.00000,0.00000,0.00000,-0.03730,-0.03614,-0.00000,-0.00000,0.00000,0.00000,0.00000,0.00000,0.00000,0.00000,0.00000,0.00000,-0.98424,-0.98473,0.00000,-0.00000,0.00000,0.00000,"[0.998, 0.002, 0.998, 0.002, 0.000, 0.000]",0.998,0.998,0.002,0.002,0.998,0.998,0.002,0.002,0.000,0.000,0.000,0.000
0.8950,0.98405,0.98455,-0.00000,0.00000,0.00000,0.00000,-0.03752,-0.03636,-0.00000,-0.00000,0.00000,0.00000,0.00000,0.00000,0.00000,0.00000,0.00000,0.00000,-0.98405,-0.98455,0.00000,-0.00000,0.00000,0.00000,"[0.998, 0.002, 0.998, 0.002, 0.000, 0.000]",0.998,0.998,0.002,0.002,0.998,0.998,0.002,0.002,0.000,0.000,0.000,0.000
0.9000,0.98386,0.98437,-0.00000,0.00000,0.00000,0.00000,-0.03774,-0.03657,-0.00000,-0.00000,0.00000,0.00000,0.00000,0.00000,0.00000,0.00000,0.00000,0.00000,-0.98386,-0.98437,0.00000,-0.00000,0.00000,0.00000,"[0.998, 0.002, 0.999, 0.001, 0.000, 0.000]",0.998,0.998,0.002,0.002,0.999,0.999,0.001,0.001,0.000,0.000,0.000,0.000
0.9050,0.98368,0.98418,-0.00000,0.00000,0.00000,0.00000,-0.03796,-0.03678,-0.00000,-0.00000,0.00000,0.00000,0.00000,0.00000,0.00000,0.00000,0.00000,0.00000,-0.98368,-0.98418,0.00000,-0.00000,0.00000,0.00000,"[0.998, 0.002, 0.999, 0.001, 0.000, 0.000]",0.998,0.998,0.002,0.002,0.999,0.999,0.001,0.001,0.000,0.000,0.000,0.000
0.9100,0.98348,0.98400,-0.00000,0.00000,0.00000,0.00000,-0.03819,-0.03700,-0.00000,-0.00000,0.00000,0.00000,0.00000,0.00000,0.00000,0.00000,0.00000,0.00000,-0.98348,-0.98400,0.00000,-0.00000,0.00000,0.00000,"[0.998, 0.002, 0.999, 0.001, 0.000, 0.000]",0.998,0.998,0.002,0.002,0.999,0.999,0.001,0.001,0.000,0.000,0.000,0.000
