Step,MPC_Start_Time,Control_Time,Actual_Time_Interval,CONTROL_DT,Mission_Phase,Waypoint_Number,Telemetry_X_mm,Telemetry_Y_mm,Telemetry_Z_mm,Telemetry_Roll_deg,Telemetry_Pitch_deg,Telemetry_Yaw_deg,Current_X,Current_Y,Current_Z,Current_Roll,Current_Pitch,Current_Yaw,Current_VX,Current_VY,Current_VZ,Current_WX,Current_WY,Current_WZ,Target_X,Target_Y,Target_Z,Target_Roll,Target_Pitch,Target_Yaw,Target_VX,Target_VY,Target_VZ,Target_WX,Target_WY,Target_WZ,Error_X,Error_Y,Error_Z,Error_Roll,Error_Pitch,Error_Yaw,Error_VX,Error_VY,Error_VZ,Error_WX,Error_WY,Error_WZ,MPC_Computation_Time,MPC_Status,MPC_Solver,MPC_Solver_Time_Limit,MPC_Solve_Time,MPC_Time_Limit_Exceeded,MPC_Fallback_Used,MPC_Objective,MPC_Iterations,MPC_Optimality_Gap,Command_Vector,Command_Hex,Command_Sent_Time,Total_Active_Thrusters,Thruster_Switches,RW_Torque_X,RW_Torque_Y,RW_Torque_Z,Total_MPC_Loop_Time,Timing_Violation
0,0.0450,0.0450,0.0500,0.050,APPROACHING,0,1000.00,1000.00,1000.00,0.00,0.00,90.00,1.00000,1.00000,1.00000,0.00000,0.00000,1.57080,0.00000,0.00000,0.00000,0.00000,0.00000,0.00000,0.00000,0.00000,0.00000,0.00000,0.00000,0.00000,0.00000,0.00000,0.00000,0.00000,0.00000,0.00000,1.00000,1.00000,1.00000,0.00000,0.00000,-1.57080,0.00000,0.00000,0.00000,0.00000,0.00000,0.00000,0.0000,,,,0.0423,,,,,,"[0.000, 0.000, 0.000, 0.000, 0.000, 0.000]",0x000000,0.0450,0,0,0.000000,0.000000,0.000000,0.0000,NO
1,0.0950,0.0950,0.0500,0.050,APPROACHING,0,1000.00,1000.00,1000.00,0.00,0.00,90.00,1.00000,1.00000,1.00000,0.00000,0.00000,1.57080,0.00000,0.00000,0.00000,0.00000,0.00000,0.00000,0.00000,0.00000,0.00000,0.00000,0.00000,0.00000,0.00000,0.00000,0.00000,0.00000,0.00000,0.00000,1.00000,1.00000,1.00000,0.00000,0.00000,-1.57080,0.00000,0.00000,0.00000,0.00000,0.00000,0.00000,0.0000,,,,0.0421,,,,,,"[0.000, 0.000, 0.000, 0.000, 0.000, 0.000]",0x000000,0.0950,0,0,0.000000,0.000000,0.000000,0.0000,NO
2,0.1450,0.1450,0.0500,0.050,APPROACHING,0,1000.00,1000.00,1000.00,0.00,0.00,90.00,1.00000,1.00000,1.00000,0.00000,0.00000,1.57080,0.00000,0.00000,0.00000,0.00000,0.00000,0.00000,0.00000,0.00000,0.00000,0.00000,0.00000,0.00000,0.00000,0.00000,0.00000,0.00000,0.00000,0.00000,1.00000,1.00000,1.00000,0.00000,0.00000,-1.57080,0.00000,0.00000,0.00000,0.00000,0.00000,0.00000,0.0000,,,,0.0422,,,,,,"[0.000, 0.000, 0.000, 0.000, 0.000, 0.000]",0x000000,0.1450,0,0,0.000000,0.000000,0.000000,0.0000,NO
3,0.1950,0.1950,0.0500,0.050,APPROACHING,0,1000.00,1000.00,1000.00,0.00,0.00,90.00,1.00000,1.00000,1.00000,0.00000,0.00000,1.57080,0.00000,0.00000,0.00000,0.00000,0.00000,0.00000,0.00000,0.00000,0.00000,0.00000,0.00000,0.00000,0.00000,0.00000,0.00000,0.00000,0.00000,0.00000,1.00000,1.00000,1.00000,0.00000,0.00000,-1.57080,0.00000,0.00000,0.00000,0.00000,0.00000,0.00000,0.0000,,,,0.0421,,,,,,"[0.000, 0.000, 0.000, 0.000, 0.000, 0.000]",0x000000,0.1950,0,0,0.000000,0.000000,0.000000,0.0000,NO
4,0.2450,0.2450,0.0500,0.050,APPROACHING,0,1000.00,1000.00,1000.00,0.00,0.00,90.00,1.00000,1.00000,1.00000,0.00000,0.00000,1.57080,0.00000,0.00000,0.00000,0.00000,0.00000,0.00000,0.00000,0.00000,0.00000,0.00000,0.00000,0.00000,0.00000,0.00000,0.00000,0.00000,0.00000,0.00000,1.00000,1.00000,1.00000,0.00000,0.00000,-1.57080,0.00000,0.00000,0.00000,0.00000,0.00000,0.00000,0.0000,,,,0.0421,,,,,,"[0.000, 0.000, 0.000, 0.000, 0.000, 0.000]",0x000000,0.2450,0,0,0.000000,0.000000,0.000000,0.0000,NO
5,0.2950,0.2950,0.0500,0.050,APPROACHING,0,1000.00,1000.00,1000.00,0.00,0.00,90.00,1.00000,1.00000,1.00000,0.00000,0.00000,1.57080,0.00000,0.00000,0.00000,0.00000,0.00000,0.00000,0.00000,0.00000,0.00000,0.00000,0.00000,0.00000,0.00000,0.00000,0.00000,0.00000,0.00000,0.00000,1.00000,1.00000,1.00000,0.00000,0.00000,-1.57080,0.00000,0.00000,0.00000,0.00000,0.00000,0.00000,0.0000,,,,0.0420,,,,,,"[0.000, 0.000, 0.000, 0.000, 0.000, 0.000]",0x000000,0.2950,0,0,0.000000,0.000000,0.000000,0.0000,NO
6,0.3450,0.3450,0.0500,0.050,APPROACHING,0,1000.00,1000.00,1000.00,0.00,0.00,90.00,1.00000,1.00000,1.00000,0.00000,0.00000,1.57080,0.00000,0.00000,0.00000,0.00000,0.00000,0.00000,0.00000,0.00000,0.00000,0.00000,0.00000,0.00000,0.00000,0.00000,0.00000,0.00000,0.00000,0.00000,1.00000,1.00000,1.00000,0.00000,0.00000,-1.57080,0.00000,0.00000,0.00000,0.00000,0.00000,0.00000,0.0000,,,,0.0420,,,,,,"[0.000, 0.000, 0.000, 0.000, 0.000, 0.000]",0x000000,0.3450,0,0,0.000000,0.000000,0.000000,0.0000,NO
7,0.3950,0.3950,0.0500,0.050,APPROACHING,0,1000.00,1000.00,1000.00,0.00,0.00,90.00,1.00000,1.00000,1.00000,0.00000,0.00000,1.57080,0.00000,0.00000,0.00000,0.00000,0.00000,0.00000,0.00000,0.00000,0.00000,0.00000,0.00000,0.00000,0.00000,0.00000,0.00000,0.00000,0.00000,0.00000,1.00000,1.00000,1.00000,0.00000,0.00000,-1.57080,0.00000,0.00000,0.00000,0.00000,0.00000,0.00000,0.0000,,,,0.0128,,,,,,"[1.000, 0.000, 0.000, 0.000, 1.000, 0.000]",0x100010,0.3950,2,2,0.009659,-0.009659,-0.054708,0.0000,NO
8,0.4450,0.4450,0.0500,0.050,APPROACHING,0,1000.00,999.94,999.94,0.01,-0.01,89.95,1.00000,0.99994,0.99994,0.00014,-0.00014,1.56998,-0.00000,-0.00250,-0.00250,0.00574,-0.00574,-0.03253,0.00000,0.00000,0.00000,0.00000,0.00000,0.00000,0.00000,0.00000,0.00000,0.00000,0.00000,0.00000,1.00000,0.99994,0.99994,-0.00014,0.00014,-1.56998,0.00000,0.00250,0.00250,-0.00574,0.00574,0.03253,0.0000,,,,0.0421,,,,,,"[0.000, 0.000, 0.000, 0.000, 0.000, 0.000]",0x000000,0.4450,0,2,0.000000,0.000000,0.000000,0.0000,NO
9,0.4950,0.4950,0.0500,0.050,APPROACHING,0,1000.00,999.81,999.81,0.02,-0.02,89.86,1.00000,0.99981,0.99981,0.00043,-0.00043,1.56836,-0.00000,-0.00250,-0.00250,0.00574,-0.00574,-0.03253,0.00000,0.00000,0.00000,0.00000,0.00000,0.00000,0.00000,0.00000,0.00000,0.00000,0.00000,0.00000,1.00000,0.99981,0.99981,-0.00043,0.00043,-1.56836,0.00000,0.00250,0.00250,-0.00574,0.00574,0.03253,0.0000,,,,0.0420,,,,,,"[0.000, 0.000, 0.000, 0.000, 0.000, 0.000]",0x000000,0.4950,0,0,0.000000,0.000000,0.000000,0.0000,NO
10,0.5450,0.5450,0.0500,0.050,APPROACHING,0,1000.00,999.69,999.69,0.04,-0.04,89.77,1.00000,0.99969,0.99969,0.00072,-0.00072,1.56673,-0.00000,-0.00250,-0.00250,0.00574,-0.00574,-0.03253,0.00000,0.00000,0.00000,0.00000,0.00000,0.00000,0.00000,0.00000,0.00000,0.00000,0.00000,0.00000,1.00000,0.99969,0.99969,-0.00072,0.00072,-1.56673,0.00000,0.00250,0.00250,-0.00574,0.00574,0.03253,0.0000,,,,0.0341,,,,,,"[0.998, 0.000, 0.000, 0.000, 0.998, 0.000]",0x100010,0.5450,2,2,-0.007621,0.007578,0.043046,0.0000,NO
11,0.5950,0.5950,0.0500,0.050,APPROACHING,0,1000.00,999.50,999.50,0.05,-0.05,89.71,1.00000,0.99950,0.99950,0.00089,-0.00089,1.56574,-0.00001,-0.00500,-0.00500,0.00121,-0.00124,-0.00693,0.00000,0.00000,0.00000,0.00000,0.00000,0.00000,0.00000,0.00000,0.00000,0.00000,0.00000,0.00000,1.00000,0.99950,0.99950,-0.00089,0.00089,-1.56574,0.00001,0.00500,0.00500,-0.00121,0.00124,0.00693,0.0000,,,,0.0425,,,,,,"[0.000, 0.000, 0.000, 0.000, 0.000, 0.000]",0x000000,0.5950,0,2,0.000000,0.000000,0.000000,0.0000,NO
12,0.6450,0.6450,0.0500,0.050,APPROACHING,0,1000.00,999.25,999.25,0.05,-0.05,89.69,1.00000,0.99925,0.99925,0.00095,-0.00095,1.56540,-0.00001,-0.00500,-0.00500,0.00121,-0.00124,-0.00693,0.00000,0.00000,0.00000,0.00000,0.00000,0.00000,0.00000,0.00000,0.00000,0.00000,0.00000,0.00000,1.00000,0.99925,0.99925,-0.00095,0.00095,-1.56540,0.00001,0.00500,0.00500,-0.00121,0.00124,0.00693,0.0000,,,,0.0421,,,,,,"[0.000, 0.000, 0.000, 0.000, 0.000, 0.000]",0x000000,0.6450,0,0,0.000000,0.000000,0.000000,0.0000,NO
13,0.6950,0.6950,0.0500,0.050,APPROACHING,0,1000.00,999.00,999.00,0.06,-0.06,89.67,1.00000,0.99900,0.99900,0.00102,-0.00101,1.56505,-0.00001,-0.00500,-0.00500,0.00121,-0.00124,-0.00693,0.00000,0.00000,0.00000,0.00000,0.00000,0.00000,0.00000,0.00000,0.00000,0.00000,0.00000,0.00000,1.00000,0.99900,0.99900,-0.00102,0.00101,-1.56505,0.00001,0.00500,0.00500,-0.00121,0.00124,0.00693,0.0000,,,,0.0366,,,,,,"[0.998, 0.000, 0.000, 0.000, 0.998, 0.000]",0x100010,0.6950,2,2,0.005961,-0.005950,-0.033734,0.0000,NO
14,0.7450,0.7450,0.0500,0.050,APPROACHING,0,1000.00,998.69,998.69,0.07,-0.07,89.62,1.00000,0.99869,0.99869,0.00117,-0.00116,1.56420,-0.00003,-0.00750,-0.00750,0.00476,-0.00477,-0.02699,0.00000,0.00000,0.00000,0.00000,0.00000,0.00000,0.00000,0.00000,0.00000,0.00000,0.00000,0.00000,1.00000,0.99869,0.99869,-0.00117,0.00116,-1.56420,0.00003,0.00750,0.00750,-0.00476,0.00477,0.02699,0.0000,,,,0.0420,,,,,,"[0.000, 0.000, 0.000, 0.000, 0.000, 0.000]",0x000000,0.7450,0,2,0.000000,0.000000,0.000000,0.0000,NO
15,0.7950,0.7950,0.0500,0.050,APPROACHING,0,1000.00,998.31,998.31,0.08,-0.08,89.54,1.00000,0.99831,0.99831,0.00141,-0.00140,1.56285,-0.00003,-0.00750,-0.00750,0.00476,-0.00477,-0.02699,0.00000,0.00000,0.00000,0.00000,0.00000,0.00000,0.00000,0.00000,0.00000,0.00000,0.00000,0.00000,1.00000,0.99831,0.99831,-0.00141,0.00140,-1.56285,0.00003,0.00750,0.00750,-0.00476,0.00477,0.02699,0.0000,,,,0.0421,,,,,,"[0.000, 0.000, 0.000, 0.000, 0.000, 0.000]",0x000000,0.7950,0,0,0.000000,0.000000,0.000000,0.0000,NO
16,0.8450,0.8450,0.0500,0.050,APPROACHING,0,999.99,997.94,997.94,0.09,-0.09,89.47,0.99999,0.99794,0.99794,0.00165,-0.00164,1.56150,-0.00003,-0.00750,-0.00750,0.00476,-0.00477,-0.02699,0.00000,0.00000,0.00000,0.00000,0.00000,0.00000,0.00000,0.00000,0.00000,0.00000,0.00000,0.00000,0.99999,0.99794,0.99794,-0.00165,0.00164,-1.56150,0.00003,0.00750,0.00750,-0.00476,0.00477,0.02699,0.0000,,,,0.0421,,,,,,"[0.000, 0.000, 0.000, 0.000, 0.000, 0.000]",0x000000,0.8450,0,0,0.000000,0.000000,0.000000,0.0000,NO
17,0.8950,0.8950,0.0500,0.050,APPROACHING,0,999.99,997.56,997.56,0.11,-0.11,89.39,0.99999,0.99756,0.99756,0.00189,-0.00187,1.56015,-0.00003,-0.00750,-0.00750,0.00476,-0.00477,-0.02699,0.00000,0.00000,0.00000,0.00000,0.00000,0.00000,0.00000,0.00000,0.00000,0.00000,0.00000,0.00000,0.99999,0.99756,0.99756,-0.00189,0.00187,-1.56015,0.00003,0.00750,0.00750,-0.00476,0.00477,0.02699,0.0000,,,,0.0238,,,,,,"[0.998, 0.000, 0.000, 0.000, 0.998, 0.000]",0x100010,0.8950,2,2,-0.004733,0.004663,0.026611,0.0000,NO
18,0.9450,0.9450,0.0500,0.050,APPROACHING,0,999.99,997.13,997.12,0.12,-0.12,89.34,0.99999,0.99713,0.99712,0.00205,-0.00204,1.55920,-0.00006,-0.00999,-0.01001,0.00194,-0.00200,-0.01117,0.00000,0.00000,0.00000,0.00000,0.00000,0.00000,0.00000,0.00000,0.00000,0.00000,0.00000,0.00000,0.99999,0.99713,0.99712,-0.00205,0.00204,-1.55920,0.00006,0.00999,0.01001,-0.00194,0.00200,0.01117,0.0000,,,,0.0420,,,,,,"[0.000, 0.000, 0.000, 0.000, 0.000, 0.000]",0x000000,0.9450,0,2,0.000000,0.000000,0.000000,0.0000,NO
19,0.9950,0.9950,0.0500,0.050,APPROACHING,0,999.99,996.63,996.62,0.12,-0.12,89.30,0.99999,0.99663,0.99662,0.00215,-0.00214,1.55864,-0.00006,-0.00999,-0.01001,0.00194,-0.00200,-0.01117,0.00000,0.00000,0.00000,0.00000,0.00000,0.00000,0.00000,0.00000,0.00000,0.00000,0.00000,0.00000,0.99999,0.99663,0.99662,-0.00215,0.00214,-1.55864,0.00006,0.00999,0.01001,-0.00194,0.00200,0.01117,0.0000,,,,0.0420,,,,,,"[0.000, 0.000, 0.000, 0.000, 0.000, 0.000]",0x000000,0.9950,0,0,0.000000,0.000000,0.000000,0.0000,NO
20,1.0450,1.0450,0.0500,0.050,APPROACHING,0,999.98,996.13,996.12,0.13,-0.13,89.27,0.99998,0.99613,0.99612,0.00225,-0.00224,1.55808,-0.00006,-0.00999,-0.01001,0.00194,-0.00200,-0.01117,0.00000,0.00000,0.00000,0.00000,0.00000,0.00000,0.00000,0.00000,0.00000,0.00000,0.00000,0.00000,0.99998,0.99613,0.99612,-0.00225,0.00224,-1.55808,0.00006,0.00999,0.01001,-0.00194,0.00200,0.01117,0.0000,,,,0.0420,,,,,,"[0.000, 0.000, 0.000, 0.000, 0.000, 0.000]",0x000000,1.0450,0,0,0.000000,0.000000,0.000000,0.0000,NO
21,1.0950,1.0950,0.0500,0.050,APPROACHING,0,999.98,995.63,995.62,0.13,-0.13,89.24,0.99998,0.99563,0.99562,0.00235,-0.00234,1.55752,-0.00006,-0.00999,-0.01001,0.00194,-0.00200,-0.01117,0.00000,0.00000,0.00000,0.00000,0.00000,0.00000,0.00000,0.00000,0.00000,0.00000,0.00000,0.00000,0.99998,0.99563,0.99562,-0.00235,0.00234,-1.55752,0.00006,0.00999,0.01001,-0.00194,0.00200,0.01117,0.0000,,,,0.0267,,,,,,"[0.998, 0.000, 0.000, 0.000, 0.998, 0.000]",0x100010,1.0950,2,2,0.003663,-0.003652,-0.020814,0.0000,NO
22,1.1450,1.1450,0.0500,0.050,APPROACHING,0,999.98,995.07,995.06,0.14,-0.14,89.19,0.99998,0.99507,0.99506,0.00250,-0.00249,1.55665,-0.00010,-0.01248,-0.01252,0.00412,-0.00417,-0.02354,0.00000,0.00000,0.00000,0.00000,0.00000,0.00000,0.00000,0.00000,0.00000,0.00000,0.00000,0.00000,0.99998,0.99507,0.99506,-0.00250,0.00249,-1.55665,0.00010,0.01248,0.01252,-0.00412,0.00417,0.02354,0.0000,,,,0.0420,,,,,,"[0.000, 0.000, 0.000, 0.000, 0.000, 0.000]",0x000000,1.1450,0,2,0.000000,0.000000,0.000000,0.0000,NO
23,1.1950,1.1950,0.0500,0.050,APPROACHING,0,999.97,994.44,994.43,0.16,-0.15,89.12,0.99997,0.99444,0.99443,0.00271,-0.00269,1.55548,-0.00010,-0.01248,-0.01252,0.00412,-0.00417,-0.02354,0.00000,0.00000,0.00000,0.00000,0.00000,0.00000,0.00000,0.00000,0.00000,0.00000,0.00000,0.00000,0.99997,0.99444,0.99443,-0.00271,0.00269,-1.55548,0.00010,0.01248,0.01252,-0.00412,0.00417,0.02354,0.0000,,,,0.0420,,,,,,"[0.000, 0.000, 0.000, 0.000, 0.000, 0.000]",0x000000,1.1950,0,0,0.000000,0.000000,0.000000,0.0000,NO
24,1.2450,1.2450,0.0500,0.050,APPROACHING,0,999.97,993.82,993.81,0.17,-0.17,89.05,0.99997,0.99382,0.99381,0.00292,-0.00290,1.55430,-0.00010,-0.01248,-0.01252,0.00412,-0.00417,-0.02354,0.00000,0.00000,0.00000,0.00000,0.00000,0.00000,0.00000,0.00000,0.00000,0.00000,0.00000,0.00000,0.99997,0.99382,0.99381,-0.00292,0.00290,-1.55430,0.00010,0.01248,0.01252,-0.00412,0.00417,0.02354,0.0000,,,,0.0420,,,,,,"[0.000, 0.000, 0.000, 0.000, 0.000, 0.000]",0x000000,1.2450,0,0,0.000000,0.000000,0.000000,0.0000,NO
25,1.2950,1.2950,0.0500,0.050,APPROACHING,0,999.96,993.19,993.18,0.18,-0.18,88.99,0.99996,0.99319,0.99318,0.00313,-0.00310,1.55312,-0.00010,-0.01248,-0.01252,0.00412,-0.00417,-0.02354,0.00000,0.00000,0.00000,0.00000,0.00000,0.00000,0.00000,0.00000,0.00000,0.00000,0.00000,0.00000,0.99996,0.99319,0.99318,-0.00313,0.00310,-1.55312,0.00010,0.01248,0.01252,-0.00412,0.00417,0.02354,0.0000,,,,0.0256,,,,,,"[0.998, 0.000, 0.000, 0.000, 0.998, 0.000]",0x100010,1.2950,2,2,-0.002953,0.002878,0.016452,0.0000,NO
26,1.3450,1.3450,0.0500,0.050,APPROACHING,0,999.95,992.51,992.49,0.19,-0.19,88.93,0.99995,0.99251,0.99249,0.00330,-0.00327,1.55219,-0.00016,-0.01498,-0.01502,0.00236,-0.00246,-0.01376,0.00000,0.00000,0.00000,0.00000,0.00000,0.00000,0.00000,0.00000,0.00000,0.00000,0.00000,0.00000,0.99995,0.99251,0.99249,-0.00330,0.00327,-1.55219,0.00016,0.01498,0.01502,-0.00236,0.00246,0.01376,0.0000,,,,0.0421,,,,,,"[0.000, 0.000, 0.000, 0.000, 0.000, 0.000]",0x000000,1.3450,0,2,0.000000,0.000000,0.000000,0.0000,NO
27,1.3950,1.3950,0.0500,0.050,APPROACHING,0,999.95,991.76,991.74,0.20,-0.19,88.89,0.99995,0.99176,0.99174,0.00342,-0.00339,1.55150,-0.00016,-0.01498,-0.01502,0.00236,-0.00246,-0.01376,0.00000,0.00000,0.00000,0.00000,0.00000,0.00000,0.00000,0.00000,0.00000,0.00000,0.00000,0.00000,0.99995,0.99176,0.99174,-0.00342,0.00339,-1.55150,0.00016,0.01498,0.01502,-0.00236,0.00246,0.01376,0.0000,,,,0.0420,,,,,,"[0.000, 0.000, 0.000, 0.000, 0.000, 0.000]",0x000000,1.3950,0,0,0.000000,0.000000,0.000000,0.0000,NO
28,1.4450,1.4450,0.0500,0.050,APPROACHING,0,999.94,991.01,990.99,0.20,-0.20,88.85,0.99994,0.99101,0.99099,0.00354,-0.00351,1.55081,-0.00016,-0.01498,-0.01502,0.00236,-0.00246,-0.01376,0.00000,0.00000,0.00000,0.00000,0.00000,0.00000,0.00000,0.00000,0.00000,0.00000,0.00000,0.00000,0.99994,0.99101,0.99099,-0.00354,0.00351,-1.55081,0.00016,0.01498,0.01502,-0.00236,0.00246,0.01376,0.0000,,,,0.0420,,,,,,"[0.000, 0.000, 0.000, 0.000, 0.000, 0.000]",0x000000,1.4450,0,0,0.000000,0.000000,0.000000,0.0000,NO
29,1.4950,1.4950,0.0500,0.050,APPROACHING,0,999.93,990.26,990.24,0.21,-0.21,88.82,0.99993,0.99026,0.99024,0.00366,-0.00363,1.55012,-0.00016,-0.01498,-0.01502,0.00236,-0.00246,-0.01376,0.00000,0.00000,0.00000,0.00000,0.00000,0.00000,0.00000,0.00000,0.00000,0.00000,0.00000,0.00000,0.99993,0.99026,0.99024,-0.00366,0.00363,-1.55012,0.00016,0.01498,0.01502,-0.00236,0.00246,0.01376,0.0000,,,,0.0405,,,,,,"[0.000, 0.000, 0.000, 0.000, 0.000, 0.000]",0x000000,1.4950,0,0,0.000000,0.000000,0.000000,0.0000,NO
30,1.5450,1.5450,0.0500,0.050,APPROACHING,0,999.92,989.51,989.49,0.22,-0.21,88.78,0.99992,0.98951,0.98949,0.00378,-0.00375,1.54943,-0.00016,-0.01498,-0.01502,0.00236,-0.00246,-0.01376,0.00000,0.00000,0.00000,0.00000,0.00000,0.00000,0.00000,0.00000,0.00000,0.00000,0.00000,0.00000,0.99992,0.98951,0.98949,-0.00378,0.00375,-1.54943,0.00016,0.01498,0.01502,-0.00236,0.00246,0.01376,0.0000,,,,0.0321,,,,,,"[0.998, 0.000, 0.000, 0.000, 0.998, 0.000]",0x100010,1.5450,2,2,0.002228,-0.002240,-0.012816,0.0000,NO
31,1.5950,1.5950,0.0500,0.050,APPROACHING,0,999.91,988.70,988.67,0.23,-0.22,88.73,0.99991,0.98870,0.98867,0.00393,-0.00390,1.54856,-0.00022,-0.01746,-0.01753,0.00369,-0.00379,-0.02138,0.00000,0.00000,0.00000,0.00000,0.00000,0.00000,0.00000,0.00000,0.00000,0.00000,0.00000,0.00000,0.99991,0.98870,0.98867,-0.00393,0.00390,-1.54856,0.00022,0.01746,0.01753,-0.00369,0.00379,0.02138,0.0000,,,,0.0420,,,,,,"[0.000, 0.000, 0.000, 0.000, 0.000, 0.000]",0x000000,1.5950,0,2,0.000000,0.000000,0.000000,0.0000,NO
32,1.6450,1.6450,0.0500,0.050,APPROACHING,0,999.90,987.83,987.80,0.24,-0.23,88.66,0.99990,0.98783,0.98780,0.00412,-0.00409,1.54749,-0.00022,-0.01746,-0.01753,0.00369,-0.00379,-0.02138,0.00000,0.00000,0.00000,0.00000,0.00000,0.00000,0.00000,0.00000,0.00000,0.00000,0.00000,0.00000,0.99990,0.98783,0.98780,-0.00412,0.00409,-1.54749,0.00022,0.01746,0.01753,-0.00369,0.00379,0.02138,0.0000,,,,0.0420,,,,,,"[0.000, 0.000, 0.000, 0.000, 0.000, 0.000]",0x000000,1.6450,0,0,0.000000,0.000000,0.000000,0.0000,NO
33,1.6950,1.6950,0.0500,0.050,APPROACHING,0,999.89,986.95,986.92,0.25,-0.24,88.60,0.99989,0.98695,0.98692,0.00431,-0.00427,1.54642,-0.00022,-0.01746,-0.01753,0.00369,-0.00379,-0.02138,0.00000,0.00000,0.00000,0.00000,0.00000,0.00000,0.00000,0.00000,0.00000,0.00000,0.00000,0.00000,0.99989,0.98695,0.98692,-0.00431,0.00427,-1.54642,0.00022,0.01746,0.01753,-0.00369,0.00379,0.02138,0.0000,,,,0.0419,,,,,,"[0.000, 0.000, 0.000, 0.000, 0.000, 0.000]",0x000000,1.6950,0,0,0.000000,0.000000,0.000000,0.0000,NO
34,1.7450,1.7450,0.0500,0.050,APPROACHING,0,999.88,986.08,986.04,0.26,-0.26,88.54,0.99988,0.98608,0.98604,0.00450,-0.00446,1.54535,-0.00022,-0.01746,-0.01753,0.00369,-0.00379,-0.02138,0.00000,0.00000,0.00000,0.00000,0.00000,0.00000,0.00000,0.00000,0.00000,0.00000,0.00000,0.00000,0.99988,0.98608,0.98604,-0.00450,0.00446,-1.54535,0.00022,0.01746,0.01753,-0.00369,0.00379,0.02138,0.0000,,,,0.0420,,,,,,"[0.000, 0.000, 0.000, 0.000, 0.000, 0.000]",0x000000,1.7450,0,0,0.000000,0.000000,0.000000,0.0000,NO
35,1.7950,1.7950,0.0500,0.050,APPROACHING,0,999.87,985.21,985.17,0.27,-0.27,88.48,0.99987,0.98521,0.98517,0.00469,-0.00464,1.54428,-0.00022,-0.01746,-0.01753,0.00369,-0.00379,-0.02138,0.00000,0.00000,0.00000,0.00000,0.00000,0.00000,0.00000,0.00000,0.00000,0.00000,0.00000,0.00000,0.99987,0.98521,0.98517,-0.00469,0.00464,-1.54428,0.00022,0.01746,0.01753,-0.00369,0.00379,0.02138,0.0000,,,,0.0360,,,,,,"[0.998, 0.000, 0.000, 0.000, 0.998, 0.000]",0x100010,1.7950,2,2,-0.001861,0.001779,0.010193,0.0000,NO
36,1.8450,1.8450,0.0500,0.050,APPROACHING,0,999.86,984.27,984.23,0.28,-0.28,88.43,0.99986,0.98427,0.98423,0.00485,-0.00480,1.54336,-0.00030,-0.01995,-0.02004,0.00258,-0.00274,-0.01532,0.00000,0.00000,0.00000,0.00000,0.00000,0.00000,0.00000,0.00000,0.00000,0.00000,0.00000,0.00000,0.99986,0.98427,0.98423,-0.00485,0.00480,-1.54336,0.00030,0.01995,0.02004,-0.00258,0.00274,0.01532,0.0000,,,,0.0420,,,,,,"[0.000, 0.000, 0.000, 0.000, 0.000, 0.000]",0x000000,1.8450,0,2,0.000000,0.000000,0.000000,0.0000,NO
37,1.8950,1.8950,0.0500,0.050,APPROACHING,0,999.84,983.28,983.23,0.29,-0.28,88.38,0.99984,0.98328,0.98323,0.00498,-0.00494,1.54259,-0.00030,-0.01995,-0.02004,0.00258,-0.00274,-0.01532,0.00000,0.00000,0.00000,0.00000,0.00000,0.00000,0.00000,0.00000,0.00000,0.00000,0.00000,0.00000,0.99984,0.98328,0.98323,-0.00498,0.00494,-1.54259,0.00030,0.01995,0.02004,-0.00258,0.00274,0.01532,0.0000,,,,0.0420,,,,,,"[0.000, 0.000, 0.000, 0.000, 0.000, 0.000]",0x000000,1.8950,0,0,0.000000,0.000000,0.000000,0.0000,NO
38,1.9450,1.9450,0.0500,0.050,APPROACHING,0,999.83,982.28,982.22,0.29,-0.29,88.34,0.99983,0.98228,0.98222,0.00512,-0.00507,1.54182,-0.00030,-0.01995,-0.02004,0.00258,-0.00274,-0.01532,0.00000,0.00000,0.00000,0.00000,0.00000,0.00000,0.00000,0.00000,0.00000,0.00000,0.00000,0.00000,0.99983,0.98228,0.98222,-0.00512,0.00507,-1.54182,0.00030,0.01995,0.02004,-0.00258,0.00274,0.01532,0.0000,,,,0.0419,,,,,,"[0.000, 0.000, 0.000, 0.000, 0.000, 0.000]",0x000000,1.9450,0,0,0.000000,0.000000,0.000000,0.0000,NO
39,1.9950,1.9950,0.0500,0.050,APPROACHING,0,999.81,981.28,981.22,0.30,-0.30,88.30,0.99981,0.98128,0.98122,0.00525,-0.00520,1.54106,-0.00030,-0.01995,-0.02004,0.00258,-0.00274,-0.01532,0.00000,0.00000,0.00000,0.00000,0.00000,0.00000,0.00000,0.00000,0.00000,0.00000,0.00000,0.00000,0.99981,0.98128,0.98122,-0.00525,0.00520,-1.54106,0.00030,0.01995,0.02004,-0.00258,0.00274,0.01532,0.0000,,,,0.0420,,,,,,"[0.000, 0.000, 0.000, 0.000, 0.000, 0.000]",0x000000,1.9950,0,0,0.000000,0.000000,0.000000,0.0000,NO
40,2.0450,2.0450,0.0500,0.050,APPROACHING,0,999.80,980.28,980.22,0.31,-0.31,88.25,0.99980,0.98028,0.98022,0.00538,-0.00533,1.54029,-0.00030,-0.01995,-0.02004,0.00258,-0.00274,-0.01532,0.00000,0.00000,0.00000,0.00000,0.00000,0.00000,0.00000,0.00000,0.00000,0.00000,0.00000,0.00000,0.99980,0.98028,0.98022,-0.00538,0.00533,-1.54029,0.00030,0.01995,0.02004,-0.00258,0.00274,0.01532,0.0000,,,,0.0401,,,,,,"[0.000, 0.000, 0.000, 0.000, 0.000, 0.000]",0x000000,2.0450,0,0,0.000000,0.000000,0.000000,0.0000,NO
41,2.0950,2.0950,0.0500,0.050,APPROACHING,0,999.78,979.28,979.22,0.32,-0.31,88.21,0.99978,0.97928,0.97922,0.00551,-0.00547,1.53952,-0.00030,-0.01995,-0.02004,0.00258,-0.00274,-0.01532,0.00000,0.00000,0.00000,0.00000,0.00000,0.00000,0.00000,0.00000,0.00000,0.00000,0.00000,0.00000,0.99978,0.97928,0.97922,-0.00551,0.00547,-1.53952,0.00030,0.01995,0.02004,-0.00258,0.00274,0.01532,0.0000,,,,0.0391,,,,,,"[0.998, 0.000, 0.000, 0.000, 0.998, 0.000]",0x100010,2.0950,2,2,0.001329,-0.001366,-0.007878,0.0000,NO
42,2.1450,2.1450,0.0500,0.050,APPROACHING,0,999.76,978.23,978.15,0.32,-0.32,88.16,0.99976,0.97823,0.97815,0.00567,-0.00562,1.53864,-0.00039,-0.02244,-0.02256,0.00337,-0.00355,-0.02000,0.00000,0.00000,0.00000,0.00000,0.00000,0.00000,0.00000,0.00000,0.00000,0.00000,0.00000,0.00000,0.99976,0.97823,0.97815,-0.00567,0.00562,-1.53864,0.00039,0.02244,0.02256,-0.00337,0.00355,0.02000,0.0000,,,,0.0422,,,,,,"[0.000, 0.000, 0.000, 0.000, 0.000, 0.000]",0x000000,2.1450,0,2,0.000000,0.000000,0.000000,0.0000,NO
43,2.1950,2.1950,0.0500,0.050,APPROACHING,0,999.74,977.10,977.02,0.33,-0.33,88.10,0.99974,0.97710,0.97702,0.00584,-0.00579,1.53764,-0.00039,-0.02244,-0.02256,0.00337,-0.00355,-0.02000,0.00000,0.00000,0.00000,0.00000,0.00000,0.00000,0.00000,0.00000,0.00000,0.00000,0.00000,0.00000,0.99974,0.97710,0.97702,-0.00584,0.00579,-1.53764,0.00039,0.02244,0.02256,-0.00337,0.00355,0.02000,0.0000,,,,0.0420,,,,,,"[0.000, 0.000, 0.000, 0.000, 0.000, 0.000]",0x000000,2.1950,0,0,0.000000,0.000000,0.000000,0.0000,NO
44,2.2450,2.2450,0.0500,0.050,APPROACHING,0,999.72,975.98,975.90,0.34,-0.34,88.04,0.99972,0.97598,0.97590,0.00602,-0.00596,1.53664,-0.00039,-0.02244,-0.02256,0.00337,-0.00355,-0.02000,0.00000,0.00000,0.00000,0.00000,0.00000,0.00000,0.00000,0.00000,0.00000,0.00000,0.00000,0.00000,0.99972,0.97598,0.97590,-0.00602,0.00596,-1.53664,0.00039,0.02244,0.02256,-0.00337,0.00355,0.02000,0.0000,,,,0.0420,,,,,,"[0.000, 0.000, 0.000, 0.000, 0.000, 0.000]",0x000000,2.2450,0,0,0.000000,0.000000,0.000000,0.0000,NO
45,2.2950,2.2950,0.0500,0.050,APPROACHING,0,999.70,974.86,974.77,0.35,-0.35,87.99,0.99970,0.97486,0.97477,0.00619,-0.00613,1.53564,-0.00039,-0.02244,-0.02256,0.00337,-0.00355,-0.02000,0.00000,0.00000,0.00000,0.00000,0.00000,0.00000,0.00000,0.00000,0.00000,0.00000,0.00000,0.00000,0.99970,0.97486,0.97477,-0.00619,0.00613,-1.53564,0.00039,0.02244,0.02256,-0.00337,0.00355,0.02000,0.0000,,,,0.0421,,,,,,"[0.000, 0.000, 0.000, 0.000, 0.000, 0.000]",0x000000,2.2950,0,0,0.000000,0.000000,0.000000,0.0000,NO
46,2.3450,2.3450,0.0500,0.050,APPROACHING,0,999.68,973.74,973.64,0.36,-0.36,87.93,0.99968,0.97374,0.97364,0.00637,-0.00631,1.53463,-0.00039,-0.02244,-0.02256,0.00337,-0.00355,-0.02000,0.00000,0.00000,0.00000,0.00000,0.00000,0.00000,0.00000,0.00000,0.00000,0.00000,0.00000,0.00000,0.99968,0.97374,0.97364,-0.00637,0.00631,-1.53463,0.00039,0.02244,0.02256,-0.00337,0.00355,0.02000,0.0000,,,,0.0420,,,,,,"[0.000, 0.000, 0.000, 0.000, 0.000, 0.000]",0x000000,2.3450,0,0,0.000000,0.000000,0.000000,0.0000,NO
47,2.3950,2.3950,0.0500,0.050,APPROACHING,0,999.66,972.62,972.51,0.37,-0.37,87.87,0.99966,0.97262,0.97251,0.00654,-0.00648,1.53363,-0.00039,-0.02244,-0.02256,0.00337,-0.00355,-0.02000,0.00000,0.00000,0.00000,0.00000,0.00000,0.00000,0.00000,0.00000,0.00000,0.00000,0.00000,0.00000,0.99966,0.97262,0.97251,-0.00654,0.00648,-1.53363,0.00039,0.02244,0.02256,-0.00337,0.00355,0.02000,0.0000,,,,0.0419,,,,,,"[0.000, 0.000, 0.000, 0.000, 0.000, 0.000]",0x000000,2.3950,0,0,0.000000,0.000000,0.000000,0.0000,NO
48,2.4450,2.4450,0.0500,0.050,APPROACHING,0,999.64,971.49,971.38,0.38,-0.38,87.81,0.99964,0.97149,0.97138,0.00672,-0.00665,1.53263,-0.00039,-0.02244,-0.02256,0.00337,-0.00355,-0.02000,0.00000,0.00000,0.00000,0.00000,0.00000,0.00000,0.00000,0.00000,0.00000,0.00000,0.00000,0.00000,0.99964,0.97149,0.97138,-0.00672,0.00665,-1.53263,0.00039,0.02244,0.02256,-0.00337,0.00355,0.02000,0.0000,,,,0.0420,,,,,,"[0.000, 0.000, 0.000, 0.000, 0.000, 0.000]",0x000000,2.4450,0,0,0.000000,0.000000,0.000000,0.0000,NO
49,2.4950,2.4950,0.0500,0.050,APPROACHING,0,999.63,970.37,970.26,0.39,-0.39,87.76,0.99963,0.97037,0.97026,0.00689,-0.00682,1.53163,-0.00039,-0.02244,-0.02256,0.00337,-0.00355,-0.02000,0.00000,0.00000,0.00000,0.00000,0.00000,0.00000,0.00000,0.00000,0.00000,0.00000,0.00000,0.00000,0.99963,0.97037,0.97026,-0.00689,0.00682,-1.53163,0.00039,0.02244,0.02256,-0.00337,0.00355,0.02000,0.0000,,,,0.0421,,,,,,"[0.000, 0.000, 0.000, 0.000, 0.000, 0.000]",0x000000,2.4950,0,0,0.000000,0.000000,0.000000,0.0000,NO
50,2.5450,2.5450,0.0500,0.050,APPROACHING,0,999.61,969.25,969.13,0.40,-0.40,87.70,0.99961,0.96925,0.96913,0.00707,-0.00699,1.53063,-0.00039,-0.02244,-0.02256,0.00337,-0.00355,-0.02000,0.00000,0.00000,0.00000,0.00000,0.00000,0.00000,0.00000,0.00000,0.00000,0.00000,0.00000,0.00000,0.99961,0.96925,0.96913,-0.00707,0.00699,-1.53063,0.00039,0.02244,0.02256,-0.00337,0.00355,0.02000,0.0000,,,,0.0421,,,,,,"[0.000, 0.000, 0.000, 0.000, 0.000, 0.000]",0x000000,2.5450,0,0,0.000000,0.000000,0.000000,0.0000,NO
51,2.5950,2.5950,0.0500,0.050,APPROACHING,0,999.59,968.13,968.00,0.42,-0.41,87.64,0.99959,0.96813,0.96800,0.00724,-0.00716,1.52963,-0.00039,-0.02244,-0.02256,0.00337,-0.00355,-0.02000,0.00000,0.00000,0.00000,0.00000,0.00000,0.00000,0.00000,0.00000,0.00000,0.00000,0.00000,0.00000,0.99959,0.96813,0.96800,-0.00724,0.00716,-1.52963,0.00039,0.02244,0.02256,-0.00337,0.00355,0.02000,0.0000,,,,0.0421,,,,,,"[0.000, 0.000, 0.000, 0.000, 0.000, 0.000]",0x000000,2.5950,0,0,0.000000,0.000000,0.000000,0.0000,NO
52,2.6450,2.6450,0.0500,0.050,APPROACHING,0,999.57,967.01,966.87,0.43,-0.42,87.58,0.99957,0.96701,0.96687,0.00742,-0.00733,1.52863,-0.00039,-0.02244,-0.02256,0.00337,-0.00355,-0.02000,0.00000,0.00000,0.00000,0.00000,0.00000,0.00000,0.00000,0.00000,0.00000,0.00000,0.00000,0.00000,0.99957,0.96701,0.96687,-0.00742,0.00733,-1.52863,0.00039,0.02244,0.02256,-0.00337,0.00355,0.02000,0.0000,,,,0.0422,,,,,,"[0.000, 0.000, 0.000, 0.000, 0.000, 0.000]",0x000000,2.6450,0,0,0.000000,0.000000,0.000000,0.0000,NO
53,2.6950,2.6950,0.0500,0.050,APPROACHING,0,999.55,965.89,965.74,0.44,-0.43,87.53,0.99955,0.96589,0.96574,0.00760,-0.00750,1.52762,-0.00039,-0.02244,-0.02256,0.00337,-0.00355,-0.02000,0.00000,0.00000,0.00000,0.00000,0.00000,0.00000,0.00000,0.00000,0.00000,0.00000,0.00000,0.00000,0.99955,0.96589,0.96574,-0.00760,0.00750,-1.52762,0.00039,0.02244,0.02256,-0.00337,0.00355,0.02000,0.0000,,,,0.0349,,,,,,"[0.998, 0.000, 0.000, 0.000, 0.998, 0.000]",0x100010,2.6950,2,2,-0.001350,0.001142,0.006490,0.0000,NO
54,2.7450,2.7450,0.0500,0.050,APPROACHING,0,999.52,964.70,964.55,0.44,-0.44,87.47,0.99952,0.96470,0.96455,0.00775,-0.00765,1.52672,-0.00052,-0.02491,-0.02508,0.00257,-0.00287,-0.01615,0.00000,0.00000,0.00000,0.00000,0.00000,0.00000,0.00000,0.00000,0.00000,0.00000,0.00000,0.00000,0.99952,0.96470,0.96455,-0.00775,0.00765,-1.52672,0.00052,0.02491,0.02508,-0.00257,0.00287,0.01615,0.0000,,,,0.0421,,,,,,"[0.000, 0.000, 0.000, 0.000, 0.000, 0.000]",0x000000,2.7450,0,2,0.000000,0.000000,0.000000,0.0000,NO
55,2.7950,2.7950,0.0500,0.050,APPROACHING,0,999.50,963.46,963.30,0.45,-0.45,87.43,0.99950,0.96346,0.96330,0.00789,-0.00779,1.52591,-0.00052,-0.02491,-0.02508,0.00257,-0.00287,-0.01615,0.00000,0.00000,0.00000,0.00000,0.00000,0.00000,0.00000,0.00000,0.00000,0.00000,0.00000,0.00000,0.99950,0.96346,0.96330,-0.00789,0.00779,-1.52591,0.00052,0.02491,0.02508,-0.00257,0.00287,0.01615,0.0000,,,,0.0421,,,,,,"[0.000, 0.000, 0.000, 0.000, 0.000, 0.000]",0x000000,2.7950,0,0,0.000000,0.000000,0.000000,0.0000,NO
56,2.8450,2.8450,0.0500,0.050,APPROACHING,0,999.47,962.21,962.05,0.46,-0.45,87.38,0.99947,0.96221,0.96205,0.00802,-0.00793,1.52510,-0.00052,-0.02491,-0.02508,0.00257,-0.00287,-0.01615,0.00000,0.00000,0.00000,0.00000,0.00000,0.00000,0.00000,0.00000,0.00000,0.00000,0.00000,0.00000,0.99947,0.96221,0.96205,-0.00802,0.00793,-1.52510,0.00052,0.02491,0.02508,-0.00257,0.00287,0.01615,0.0000,,,,0.0420,,,,,,"[0.000, 0.000, 0.000, 0.000, 0.000, 0.000]",0x000000,2.8450,0,0,0.000000,0.000000,0.000000,0.0000,NO
57,2.8950,2.8950,0.0500,0.050,APPROACHING,0,999.45,960.96,960.79,0.47,-0.46,87.34,0.99945,0.96096,0.96079,0.00816,-0.00806,1.52429,-0.00052,-0.02491,-0.02508,0.00257,-0.00287,-0.01615,0.00000,0.00000,0.00000,0.00000,0.00000,0.00000,0.00000,0.00000,0.00000,0.00000,0.00000,0.00000,0.99945,0.96096,0.96079,-0.00816,0.00806,-1.52429,0.00052,0.02491,0.02508,-0.00257,0.00287,0.01615,0.0000,,,,0.0420,,,,,,"[0.000, 0.000, 0.000, 0.000, 0.000, 0.000]",0x000000,2.8950,0,0,0.000000,0.000000,0.000000,0.0000,NO
58,2.9450,2.9450,0.0500,0.050,APPROACHING,0,999.42,959.72,959.54,0.48,-0.47,87.29,0.99942,0.95972,0.95954,0.00829,-0.00820,1.52349,-0.00052,-0.02491,-0.02508,0.00257,-0.00287,-0.01615,0.00000,0.00000,0.00000,0.00000,0.00000,0.00000,0.00000,0.00000,0.00000,0.00000,0.00000,0.00000,0.99942,0.95972,0.95954,-0.00829,0.00820,-1.52349,0.00052,0.02491,0.02508,-0.00257,0.00287,0.01615,0.0000,,,,0.0326,,,,,,"[0.998, 0.000, 0.000, 0.000, 0.998, 0.000]",0x100010,2.9450,2,2,0.000932,-0.000863,-0.004989,0.0000,NO
59,2.9950,2.9950,0.0500,0.050,APPROACHING,0,999.39,958.41,958.22,0.48,-0.48,87.24,0.99939,0.95841,0.95822,0.00844,-0.00835,1.52260,-0.00066,-0.02739,-0.02760,0.00312,-0.00338,-0.01911,0.00000,0.00000,0.00000,0.00000,0.00000,0.00000,0.00000,0.00000,0.00000,0.00000,0.00000,0.00000,0.99939,0.95841,0.95822,-0.00844,0.00835,-1.52260,0.00066,0.02739,0.02760,-0.00312,0.00338,0.01911,0.0000,,,,0.0420,,,,,,"[0.000, 0.000, 0.000, 0.000, 0.000, 0.000]",0x000000,2.9950,0,2,0.000000,0.000000,0.000000,0.0000,NO
60,3.0450,3.0450,0.0500,0.050,APPROACHING,0,999.36,957.04,956.84,0.49,-0.49,87.18,0.99936,0.95704,0.95684,0.00860,-0.00851,1.52165,-0.00066,-0.02739,-0.02760,0.00312,-0.00338,-0.01911,0.00000,0.00000,0.00000,0.00000,0.00000,0.00000,0.00000,0.00000,0.00000,0.00000,0.00000,0.00000,0.99936,0.95704,0.95684,-0.00860,0.00851,-1.52165,0.00066,0.02739,0.02760,-0.00312,0.00338,0.01911,0.0000,,,,0.0420,,,,,,"[0.000, 0.000, 0.000, 0.000, 0.000, 0.000]",0x000000,3.0450,0,0,0.000000,0.000000,0.000000,0.0000,NO
61,3.0950,3.0950,0.0500,0.050,APPROACHING,0,999.32,955.67,955.46,0.50,-0.50,87.13,0.99932,0.95567,0.95546,0.00877,-0.00867,1.52069,-0.00066,-0.02739,-0.02760,0.00312,-0.00338,-0.01911,0.00000,0.00000,0.00000,0.00000,0.00000,0.00000,0.00000,0.00000,0.00000,0.00000,0.00000,0.00000,0.99932,0.95567,0.95546,-0.00877,0.00867,-1.52069,0.00066,0.02739,0.02760,-0.00312,0.00338,0.01911,0.0000,,,,0.0420,,,,,,"[0.000, 0.000, 0.000, 0.000, 0.000, 0.000]",0x000000,3.0950,0,0,0.000000,0.000000,0.000000,0.0000,NO
62,3.1450,3.1450,0.0500,0.050,APPROACHING,0,999.29,954.30,954.08,0.51,-0.51,87.07,0.99929,0.95430,0.95408,0.00893,-0.00883,1.51973,-0.00066,-0.02739,-0.02760,0.00312,-0.00338,-0.01911,0.00000,0.00000,0.00000,0.00000,0.00000,0.00000,0.00000,0.00000,0.00000,0.00000,0.00000,0.00000,0.99929,0.95430,0.95408,-0.00893,0.00883,-1.51973,0.00066,0.02739,0.02760,-0.00312,0.00338,0.01911,0.0000,,,,0.0343,,,,,,"[0.998, 0.000, 0.000, 0.000, 0.998, 0.000]",0x100010,3.1450,2,2,-0.000844,0.000706,0.004010,0.0000,NO
63,3.1950,3.1950,0.0500,0.050,APPROACHING,0,999.25,952.87,952.64,0.52,-0.51,87.02,0.99925,0.95287,0.95264,0.00909,-0.00898,1.51883,-0.00081,-0.02986,-0.03012,0.00262,-0.00296,-0.01673,0.00000,0.00000,0.00000,0.00000,0.00000,0.00000,0.00000,0.00000,0.00000,0.00000,0.00000,0.00000,0.99925,0.95287,0.95264,-0.00909,0.00898,-1.51883,0.00081,0.02986,0.03012,-0.00262,0.00296,0.01673,0.0000,,,,0.0420,,,,,,"[0.000, 0.000, 0.000, 0.000, 0.000, 0.000]",0x000000,3.1950,0,2,0.000000,0.000000,0.000000,0.0000,NO
64,3.2450,3.2450,0.0500,0.050,APPROACHING,0,999.21,951.38,951.13,0.53,-0.52,86.97,0.99921,0.95138,0.95113,0.00922,-0.00912,1.51800,-0.00081,-0.02986,-0.03012,0.00262,-0.00296,-0.01673,0.00000,0.00000,0.00000,0.00000,0.00000,0.00000,0.00000,0.00000,0.00000,0.00000,0.00000,0.00000,0.99921,0.95138,0.95113,-0.00922,0.00912,-1.51800,0.00081,0.02986,0.03012,-0.00262,0.00296,0.01673,0.0000,,,,0.0420,,,,,,"[0.000, 0.000, 0.000, 0.000, 0.000, 0.000]",0x000000,3.2450,0,0,0.000000,0.000000,0.000000,0.0000,NO
65,3.2950,3.2950,0.0500,0.050,APPROACHING,0,999.17,949.89,949.63,0.54,-0.53,86.93,0.99917,0.94989,0.94963,0.00936,-0.00926,1.51716,-0.00081,-0.02986,-0.03012,0.00262,-0.00296,-0.01673,0.00000,0.00000,0.00000,0.00000,0.00000,0.00000,0.00000,0.00000,0.00000,0.00000,0.00000,0.00000,0.99917,0.94989,0.94963,-0.00936,0.00926,-1.51716,0.00081,0.02986,0.03012,-0.00262,0.00296,0.01673,0.0000,,,,0.0421,,,,,,"[0.000, 0.000, 0.000, 0.000, 0.000, 0.000]",0x000000,3.2950,0,0,0.000000,0.000000,0.000000,0.0000,NO
66,3.3450,3.3450,0.0500,0.050,APPROACHING,0,999.13,948.39,948.12,0.54,-0.54,86.88,0.99913,0.94839,0.94812,0.00950,-0.00940,1.51632,-0.00081,-0.02986,-0.03012,0.00262,-0.00296,-0.01673,0.00000,0.00000,0.00000,0.00000,0.00000,0.00000,0.00000,0.00000,0.00000,0.00000,0.00000,0.00000,0.99913,0.94839,0.94812,-0.00950,0.00940,-1.51632,0.00081,0.02986,0.03012,-0.00262,0.00296,0.01673,0.0000,,,,0.0420,,,,,,"[0.000, 0.000, 0.000, 0.000, 0.000, 0.000]",0x000000,3.3450,0,0,0.000000,0.000000,0.000000,0.0000,NO
67,3.3950,3.3950,0.0500,0.050,APPROACHING,0,999.09,946.90,946.61,0.55,-0.55,86.83,0.99909,0.94690,0.94661,0.00964,-0.00954,1.51548,-0.00081,-0.02986,-0.03012,0.00262,-0.00296,-0.01673,0.00000,0.00000,0.00000,0.00000,0.00000,0.00000,0.00000,0.00000,0.00000,0.00000,0.00000,0.00000,0.99909,0.94690,0.94661,-0.00964,0.00954,-1.51548,0.00081,0.02986,0.03012,-0.00262,0.00296,0.01673,0.0000,,,,0.0421,,,,,,"[0.000, 0.000, 0.000, 0.000, 0.000, 0.000]",0x000000,3.3950,0,0,0.000000,0.000000,0.000000,0.0000,NO
68,3.4450,3.4450,0.0500,0.050,APPROACHING,0,999.05,945.41,945.11,0.56,-0.55,86.78,0.99905,0.94541,0.94511,0.00978,-0.00968,1.51465,-0.00081,-0.02986,-0.03012,0.00262,-0.00296,-0.01673,0.00000,0.00000,0.00000,0.00000,0.00000,0.00000,0.00000,0.00000,0.00000,0.00000,0.00000,0.00000,0.99905,0.94541,0.94511,-0.00978,0.00968,-1.51465,0.00081,0.02986,0.03012,-0.00262,0.00296,0.01673,0.0000,,,,0.0421,,,,,,"[0.000, 0.000, 0.000, 0.000, 0.000, 0.000]",0x000000,3.4450,0,0,0.000000,0.000000,0.000000,0.0000,NO
69,3.4950,3.4950,0.0500,0.050,APPROACHING,0,999.01,943.91,943.60,0.57,-0.56,86.73,0.99901,0.94391,0.94360,0.00992,-0.00982,1.51381,-0.00081,-0.02986,-0.03012,0.00262,-0.00296,-0.01673,0.00000,0.00000,0.00000,0.00000,0.00000,0.00000,0.00000,0.00000,0.00000,0.00000,0.00000,0.00000,0.99901,0.94391,0.94360,-0.00992,0.00982,-1.51381,0.00081,0.02986,0.03012,-0.00262,0.00296,0.01673,0.0000,,,,0.0421,,,,,,"[0.000, 0.000, 0.000, 0.000, 0.000, 0.000]",0x000000,3.4950,0,0,0.000000,0.000000,0.000000,0.0000,NO
70,3.5450,3.5450,0.0500,0.050,APPROACHING,0,998.97,942.42,942.10,0.58,-0.57,86.69,0.99897,0.94242,0.94210,0.01006,-0.00996,1.51297,-0.00081,-0.02986,-0.03012,0.00262,-0.00296,-0.01673,0.00000,0.00000,0.00000,0.00000,0.00000,0.00000,0.00000,0.00000,0.00000,0.00000,0.00000,0.00000,0.99897,0.94242,0.94210,-0.01006,0.00996,-1.51297,0.00081,0.02986,0.03012,-0.00262,0.00296,0.01673,0.0000,,,,0.0421,,,,,,"[0.000, 0.000, 0.000, 0.000, 0.000, 0.000]",0x000000,3.5450,0,0,0.000000,0.000000,0.000000,0.0000,NO
71,3.5950,3.5950,0.0500,0.050,APPROACHING,0,998.93,940.93,940.59,0.58,-0.58,86.64,0.99893,0.94093,0.94059,0.01020,-0.01010,1.51213,-0.00081,-0.02986,-0.03012,0.00262,-0.00296,-0.01673,0.00000,0.00000,0.00000,0.00000,0.00000,0.00000,0.00000,0.00000,0.00000,0.00000,0.00000,0.00000,0.99893,0.94093,0.94059,-0.01020,0.01010,-1.51213,0.00081,0.02986,0.03012,-0.00262,0.00296,0.01673,0.0000,,,,0.0421,,,,,,"[0.000, 0.000, 0.000, 0.000, 0.000, 0.000]",0x000000,3.5950,0,0,0.000000,0.000000,0.000000,0.0000,NO
72,3.6450,3.6450,0.0500,0.050,APPROACHING,0,998.89,939.43,939.08,0.59,-0.59,86.59,0.99889,0.93943,0.93908,0.01034,-0.01024,1.51129,-0.00081,-0.02986,-0.03012,0.00262,-0.00296,-0.01673,0.00000,0.00000,0.00000,0.00000,0.00000,0.00000,0.00000,0.00000,0.00000,0.00000,0.00000,0.00000,0.99889,0.93943,0.93908,-0.01034,0.01024,-1.51129,0.00081,0.02986,0.03012,-0.00262,0.00296,0.01673,0.0000,,,,0.0421,,,,,,"[0.000, 0.000, 0.000, 0.000, 0.000, 0.000]",0x000000,3.6450,0,0,0.000000,0.000000,0.000000,0.0000,NO
73,3.6950,3.6950,0.0500,0.050,APPROACHING,0,998.85,937.94,937.58,0.60,-0.59,86.54,0.99885,0.93794,0.93758,0.01048,-0.01038,1.51046,-0.00081,-0.02986,-0.03012,0.00262,-0.00296,-0.01673,0.00000,0.00000,0.00000,0.00000,0.00000,0.00000,0.00000,0.00000,0.00000,0.00000,0.00000,0.00000,0.99885,0.93794,0.93758,-0.01048,0.01038,-1.51046,0.00081,0.02986,0.03012,-0.00262,0.00296,0.01673,0.0000,,,,0.0421,,,,,,"[0.000, 0.000, 0.000, 0.000, 0.000, 0.000]",0x000000,3.6950,0,0,0.000000,0.000000,0.000000,0.0000,NO
74,3.7450,3.7450,0.0500,0.050,APPROACHING,0,998.81,936.45,936.07,0.61,-0.60,86.49,0.99881,0.93645,0.93607,0.01062,-0.01052,1.50962,-0.00081,-0.02986,-0.03012,0.00262,-0.00296,-0.01673,0.00000,0.00000,0.00000,0.00000,0.00000,0.00000,0.00000,0.00000,0.00000,0.00000,0.00000,0.00000,0.99881,0.93645,0.93607,-0.01062,0.01052,-1.50962,0.00081,0.02986,0.03012,-0.00262,0.00296,0.01673,0.0000,,,,0.0420,,,,,,"[0.000, 0.000, 0.000, 0.000, 0.000, 0.000]",0x000000,3.7450,0,0,0.000000,0.000000,0.000000,0.0000,NO
75,3.7950,3.7950,0.0500,0.050,APPROACHING,0,998.77,934.95,934.57,0.62,-0.61,86.45,0.99877,0.93495,0.93457,0.01076,-0.01066,1.50878,-0.00081,-0.02986,-0.03012,0.00262,-0.00296,-0.01673,0.00000,0.00000,0.00000,0.00000,0.00000,0.00000,0.00000,0.00000,0.00000,0.00000,0.00000,0.00000,0.99877,0.93495,0.93457,-0.01076,0.01066,-1.50878,0.00081,0.02986,0.03012,-0.00262,0.00296,0.01673,0.0000,,,,0.0345,,,,,,"[0.998, 0.000, 0.000, 0.000, 0.998, 0.000]",0x100010,3.7950,2,2,0.000286,-0.000447,-0.002878,0.0000,NO
76,3.8450,3.8450,0.0500,0.050,APPROACHING,0,998.72,933.40,933.00,0.62,-0.62,86.40,0.99872,0.93340,0.93300,0.01090,-0.01081,1.50790,-0.00099,-0.03233,-0.03265,0.00279,-0.00323,-0.01844,0.00000,0.00000,0.00000,0.00000,0.00000,0.00000,0.00000,0.00000,0.00000,0.00000,0.00000,0.00000,0.99872,0.93340,0.93300,-0.01090,0.01081,-1.50790,0.00099,0.03233,0.03265,-0.00279,0.00323,0.01844,0.0000,,,,0.0420,,,,,,"[0.000, 0.000, 0.000, 0.000, 0.000, 0.000]",0x000000,3.8450,0,2,0.000000,0.000000,0.000000,0.0000,NO
77,3.8950,3.8950,0.0500,0.050,APPROACHING,0,998.67,931.78,931.37,0.63,-0.63,86.34,0.99867,0.93178,0.93137,0.01105,-0.01096,1.50698,-0.00099,-0.03233,-0.03265,0.00279,-0.00323,-0.01844,0.00000,0.00000,0.00000,0.00000,0.00000,0.00000,0.00000,0.00000,0.00000,0.00000,0.00000,0.00000,0.99867,0.93178,0.93137,-0.01105,0.01096,-1.50698,0.00099,0.03233,0.03265,-0.00279,0.00323,0.01844,0.0000,,,,0.0420,,,,,,"[0.000, 0.000, 0.000, 0.000, 0.000, 0.000]",0x000000,3.8950,0,0,0.000000,0.000000,0.000000,0.0000,NO
78,3.9450,3.9450,0.0500,0.050,APPROACHING,0,998.62,930.17,929.73,0.64,-0.64,86.29,0.99862,0.93017,0.92973,0.01120,-0.01111,1.50605,-0.00099,-0.03233,-0.03265,0.00279,-0.00323,-0.01844,0.00000,0.00000,0.00000,0.00000,0.00000,0.00000,0.00000,0.00000,0.00000,0.00000,0.00000,0.00000,0.99862,0.93017,0.92973,-0.01120,0.01111,-1.50605,0.00099,0.03233,0.03265,-0.00279,0.00323,0.01844,0.0000,,,,0.0421,,,,,,"[0.000, 0.000, 0.000, 0.000, 0.000, 0.000]",0x000000,3.9450,0,0,0.000000,0.000000,0.000000,0.0000,NO
79,3.9950,3.9950,0.0500,0.050,APPROACHING,0,998.57,928.55,928.10,0.65,-0.65,86.24,0.99857,0.92855,0.92810,0.01135,-0.01126,1.50513,-0.00099,-0.03233,-0.03265,0.00279,-0.00323,-0.01844,0.00000,0.00000,0.00000,0.00000,0.00000,0.00000,0.00000,0.00000,0.00000,0.00000,0.00000,0.00000,0.99857,0.92855,0.92810,-0.01135,0.01126,-1.50513,0.00099,0.03233,0.03265,-0.00279,0.00323,0.01844,0.0000,,,,0.0420,,,,,,"[0.000, 0.000, 0.000, 0.000, 0.000, 0.000]",0x000000,3.9950,0,0,0.000000,0.000000,0.000000,0.0000,NO
80,4.0450,4.0450,0.0500,0.050,APPROACHING,0,998.53,926.93,926.47,0.66,-0.65,86.18,0.99853,0.92693,0.92647,0.01150,-0.01141,1.50420,-0.00099,-0.03233,-0.03265,0.00279,-0.00323,-0.01844,0.00000,0.00000,0.00000,0.00000,0.00000,0.00000,0.00000,0.00000,0.00000,0.00000,0.00000,0.00000,0.99853,0.92693,0.92647,-0.01150,0.01141,-1.50420,0.00099,0.03233,0.03265,-0.00279,0.00323,0.01844,0.0000,,,,0.0421,,,,,,"[0.000, 0.000, 0.000, 0.000, 0.000, 0.000]",0x000000,4.0450,0,0,0.000000,0.000000,0.000000,0.0000,NO
81,4.0950,4.0950,0.0500,0.050,APPROACHING,0,998.48,925.32,924.84,0.67,-0.66,86.13,0.99848,0.92532,0.92484,0.01165,-0.01156,1.50328,-0.00099,-0.03233,-0.03265,0.00279,-0.00323,-0.01844,0.00000,0.00000,0.00000,0.00000,0.00000,0.00000,0.00000,0.00000,0.00000,0.00000,0.00000,0.00000,0.99848,0.92532,0.92484,-0.01165,0.01156,-1.50328,0.00099,0.03233,0.03265,-0.00279,0.00323,0.01844,0.0000,,,,0.0421,,,,,,"[0.000, 0.000, 0.000, 0.000, 0.000, 0.000]",0x000000,4.0950,0,0,0.000000,0.000000,0.000000,0.0000,NO
82,4.1450,4.1450,0.0500,0.050,APPROACHING,0,998.43,923.70,923.20,0.68,-0.67,86.08,0.99843,0.92370,0.92320,0.01180,-0.01171,1.50236,-0.00099,-0.03233,-0.03265,0.00279,-0.00323,-0.01844,0.00000,0.00000,0.00000,0.00000,0.00000,0.00000,0.00000,0.00000,0.00000,0.00000,0.00000,0.00000,0.99843,0.92370,0.92320,-0.01180,0.01171,-1.50236,0.00099,0.03233,0.03265,-0.00279,0.00323,0.01844,0.0000,,,,0.0421,,,,,,"[0.000, 0.000, 0.000, 0.000, 0.000, 0.000]",0x000000,4.1450,0,0,0.000000,0.000000,0.000000,0.0000,NO
83,4.1950,4.1950,0.0500,0.050,APPROACHING,0,998.38,922.08,921.57,0.68,-0.68,86.03,0.99838,0.92208,0.92157,0.01195,-0.01186,1.50143,-0.00099,-0.03233,-0.03265,0.00279,-0.00323,-0.01844,0.00000,0.00000,0.00000,0.00000,0.00000,0.00000,0.00000,0.00000,0.00000,0.00000,0.00000,0.00000,0.99838,0.92208,0.92157,-0.01195,0.01186,-1.50143,0.00099,0.03233,0.03265,-0.00279,0.00323,0.01844,0.0000,,,,0.0421,,,,,,"[0.000, 0.000, 0.000, 0.000, 0.000, 0.000]",0x000000,4.1950,0,0,0.000000,0.000000,0.000000,0.0000,NO
84,4.2450,4.2450,0.0500,0.050,APPROACHING,0,998.33,920.47,919.94,0.69,-0.69,85.97,0.99833,0.92047,0.91994,0.01210,-0.01201,1.50051,-0.00099,-0.03233,-0.03265,0.00279,-0.00323,-0.01844,0.00000,0.00000,0.00000,0.00000,0.00000,0.00000,0.00000,0.00000,0.00000,0.00000,0.00000,0.00000,0.99833,0.92047,0.91994,-0.01210,0.01201,-1.50051,0.00099,0.03233,0.03265,-0.00279,0.00323,0.01844,0.0000,,,,0.0420,,,,,,"[0.000, 0.000, 0.000, 0.000, 0.000, 0.000]",0x000000,4.2450,0,0,0.000000,0.000000,0.000000,0.0000,NO
85,4.2950,4.2950,0.0500,0.050,APPROACHING,0,998.28,918.85,918.31,0.70,-0.70,85.92,0.99828,0.91885,0.91831,0.01225,-0.01216,1.49958,-0.00099,-0.03233,-0.03265,0.00279,-0.00323,-0.01844,0.00000,0.00000,0.00000,0.00000,0.00000,0.00000,0.00000,0.00000,0.00000,0.00000,0.00000,0.00000,0.99828,0.91885,0.91831,-0.01225,0.01216,-1.49958,0.00099,0.03233,0.03265,-0.00279,0.00323,0.01844,0.0000,,,,0.0420,,,,,,"[0.000, 0.000, 0.000, 0.000, 0.000, 0.000]",0x000000,4.2950,0,0,0.000000,0.000000,0.000000,0.0000,NO
86,4.3450,4.3450,0.0500,0.050,APPROACHING,0,998.23,917.23,916.67,0.71,-0.71,85.87,0.99823,0.91723,0.91667,0.01240,-0.01231,1.49866,-0.00099,-0.03233,-0.03265,0.00279,-0.00323,-0.01844,0.00000,0.00000,0.00000,0.00000,0.00000,0.00000,0.00000,0.00000,0.00000,0.00000,0.00000,0.00000,0.99823,0.91723,0.91667,-0.01240,0.01231,-1.49866,0.00099,0.03233,0.03265,-0.00279,0.00323,0.01844,0.0000,,,,0.0420,,,,,,"[0.000, 0.000, 0.000, 0.000, 0.000, 0.000]",0x000000,4.3450,0,0,0.000000,0.000000,0.000000,0.0000,NO
87,4.3950,4.3950,0.0500,0.050,APPROACHING,0,998.18,915.62,915.04,0.72,-0.71,85.81,0.99818,0.91562,0.91504,0.01256,-0.01246,1.49774,-0.00099,-0.03233,-0.03265,0.00279,-0.00323,-0.01844,0.00000,0.00000,0.00000,0.00000,0.00000,0.00000,0.00000,0.00000,0.00000,0.00000,0.00000,0.00000,0.99818,0.91562,0.91504,-0.01256,0.01246,-1.49774,0.00099,0.03233,0.03265,-0.00279,0.00323,0.01844,0.0000,,,,0.0320,,,,,,"[0.998, 0.000, 0.000, 0.000, 0.998, 0.000]",0x100010,4.3950,2,2,-0.000598,0.000463,0.002532,0.0000,NO
88,4.4450,4.4450,0.0500,0.050,APPROACHING,0,998.12,913.94,913.35,0.73,-0.72,85.76,0.99812,0.91394,0.91335,0.01270,-0.01261,1.49685,-0.00120,-0.03479,-0.03518,0.00244,-0.00295,-0.01693,0.00000,0.00000,0.00000,0.00000,0.00000,0.00000,0.00000,0.00000,0.00000,0.00000,0.00000,0.00000,0.99812,0.91394,0.91335,-0.01270,0.01261,-1.49685,0.00120,0.03479,0.03518,-0.00244,0.00295,0.01693,0.0000,,,,0.0420,,,,,,"[0.000, 0.000, 0.000, 0.000, 0.000, 0.000]",0x000000,4.4450,0,2,0.000000,0.000000,0.000000,0.0000,NO
89,4.4950,4.4950,0.0500,0.050,APPROACHING,0,998.06,912.20,911.59,0.74,-0.73,85.71,0.99806,0.91220,0.91159,0.01283,-0.01274,1.49600,-0.00120,-0.03479,-0.03518,0.00244,-0.00295,-0.01693,0.00000,0.00000,0.00000,0.00000,0.00000,0.00000,0.00000,0.00000,0.00000,0.00000,0.00000,0.00000,0.99806,0.91220,0.91159,-0.01283,0.01274,-1.49600,0.00120,0.03479,0.03518,-0.00244,0.00295,0.01693,0.0000,,,,0.0420,,,,,,"[0.000, 0.000, 0.000, 0.000, 0.000, 0.000]",0x000000,4.4950,0,0,0.000000,0.000000,0.000000,0.0000,NO
90,4.5450,4.5450,0.0500,0.050,APPROACHING,0,998.00,910.46,909.83,0.74,-0.74,85.67,0.99800,0.91046,0.90983,0.01296,-0.01288,1.49515,-0.00120,-0.03479,-0.03518,0.00244,-0.00295,-0.01693,0.00000,0.00000,0.00000,0.00000,0.00000,0.00000,0.00000,0.00000,0.00000,0.00000,0.00000,0.00000,0.99800,0.91046,0.90983,-0.01296,0.01288,-1.49515,0.00120,0.03479,0.03518,-0.00244,0.00295,0.01693,0.0000,,,,0.0422,,,,,,"[0.000, 0.000, 0.000, 0.000, 0.000, 0.000]",0x000000,4.5450,0,0,0.000000,0.000000,0.000000,0.0000,NO
91,4.5950,4.5950,0.0500,0.050,APPROACHING,0,997.94,908.72,908.07,0.75,-0.75,85.62,0.99794,0.90872,0.90807,0.01310,-0.01302,1.49430,-0.00120,-0.03479,-0.03518,0.00244,-0.00295,-0.01693,0.00000,0.00000,0.00000,0.00000,0.00000,0.00000,0.00000,0.00000,0.00000,0.00000,0.00000,0.00000,0.99794,0.90872,0.90807,-0.01310,0.01302,-1.49430,0.00120,0.03479,0.03518,-0.00244,0.00295,0.01693,0.0000,,,,0.0421,,,,,,"[0.000, 0.000, 0.000, 0.000, 0.000, 0.000]",0x000000,4.5950,0,0,0.000000,0.000000,0.000000,0.0000,NO
92,4.6450,4.6450,0.0500,0.050,APPROACHING,0,997.88,906.98,906.31,0.76,-0.75,85.57,0.99788,0.90698,0.90631,0.01323,-0.01315,1.49346,-0.00120,-0.03479,-0.03518,0.00244,-0.00295,-0.01693,0.00000,0.00000,0.00000,0.00000,0.00000,0.00000,0.00000,0.00000,0.00000,0.00000,0.00000,0.00000,0.99788,0.90698,0.90631,-0.01323,0.01315,-1.49346,0.00120,0.03479,0.03518,-0.00244,0.00295,0.01693,0.0000,,,,0.0421,,,,,,"[0.000, 0.000, 0.000, 0.000, 0.000, 0.000]",0x000000,4.6450,0,0,0.000000,0.000000,0.000000,0.0000,NO
93,4.6950,4.6950,0.0500,0.050,APPROACHING,0,997.82,905.24,904.55,0.77,-0.76,85.52,0.99782,0.90524,0.90455,0.01336,-0.01329,1.49261,-0.00120,-0.03479,-0.03518,0.00244,-0.00295,-0.01693,0.00000,0.00000,0.00000,0.00000,0.00000,0.00000,0.00000,0.00000,0.00000,0.00000,0.00000,0.00000,0.99782,0.90524,0.90455,-0.01336,0.01329,-1.49261,0.00120,0.03479,0.03518,-0.00244,0.00295,0.01693,0.0000,,,,0.0421,,,,,,"[0.000, 0.000, 0.000, 0.000, 0.000, 0.000]",0x000000,4.6950,0,0,0.000000,0.000000,0.000000,0.0000,NO
94,4.7450,4.7450,0.0500,0.050,APPROACHING,0,997.76,903.50,902.79,0.77,-0.77,85.47,0.99776,0.90350,0.90279,0.01349,-0.01343,1.49176,-0.00120,-0.03479,-0.03518,0.00244,-0.00295,-0.01693,0.00000,0.00000,0.00000,0.00000,0.00000,0.00000,0.00000,0.00000,0.00000,0.00000,0.00000,0.00000,0.99776,0.90350,0.90279,-0.01349,0.01343,-1.49176,0.00120,0.03479,0.03518,-0.00244,0.00295,0.01693,0.0000,,,,0.0420,,,,,,"[0.000, 0.000, 0.000, 0.000, 0.000, 0.000]",0x000000,4.7450,0,0,0.000000,0.000000,0.000000,0.0000,NO
95,4.7950,4.7950,0.0500,0.050,APPROACHING,0,997.70,901.76,901.03,0.78,-0.78,85.42,0.99770,0.90176,0.90103,0.01363,-0.01356,1.49091,-0.00120,-0.03479,-0.03518,0.00244,-0.00295,-0.01693,0.00000,0.00000,0.00000,0.00000,0.00000,0.00000,0.00000,0.00000,0.00000,0.00000,0.00000,0.00000,0.99770,0.90176,0.90103,-0.01363,0.01356,-1.49091,0.00120,0.03479,0.03518,-0.00244,0.00295,0.01693,0.0000,,,,0.0420,,,,,,"[0.000, 0.000, 0.000, 0.000, 0.000, 0.000]",0x000000,4.7950,0,0,0.000000,0.000000,0.000000,0.0000,NO
96,4.8450,4.8450,0.0500,0.050,APPROACHING,0,997.64,900.02,899.28,0.79,-0.78,85.37,0.99764,0.90002,0.89928,0.01376,-0.01370,1.49006,-0.00120,-0.03479,-0.03518,0.00244,-0.00295,-0.01693,0.00000,0.00000,0.00000,0.00000,0.00000,0.00000,0.00000,0.00000,0.00000,0.00000,0.00000,0.00000,0.99764,0.90002,0.89928,-0.01376,0.01370,-1.49006,0.00120,0.03479,0.03518,-0.00244,0.00295,0.01693,0.0000,,,,0.0409,,,,,,"[0.000, 0.000, 0.000, 0.000, 0.000, 0.000]",0x000000,4.8450,0,0,0.000000,0.000000,0.000000,0.0000,NO
97,4.8950,4.8950,0.0500,0.050,APPROACHING,0,997.58,898.29,897.52,0.80,-0.79,85.33,0.99758,0.89829,0.89752,0.01389,-0.01383,1.48921,-0.00120,-0.03479,-0.03518,0.00244,-0.00295,-0.01693,0.00000,0.00000,0.00000,0.00000,0.00000,0.00000,0.00000,0.00000,0.00000,0.00000,0.00000,0.00000,0.99758,0.89829,0.89752,-0.01389,0.01383,-1.48921,0.00120,0.03479,0.03518,-0.00244,0.00295,0.01693,0.0000,,,,0.0357,,,,,,"[0.998, 0.000, 0.000, 0.000, 0.998, 0.000]",0x100010,4.8950,2,2,0.000150,-0.000259,-0.001780,0.0000,NO
98,4.9450,4.9450,0.0500,0.050,APPROACHING,0,997.52,896.48,895.69,0.80,-0.80,85.28,0.99752,0.89648,0.89569,0.01403,-0.01397,1.48834,-0.00144,-0.03724,-0.03771,0.00253,-0.00311,-0.01799,0.00000,0.00000,0.00000,0.00000,0.00000,0.00000,0.00000,0.00000,0.00000,0.00000,0.00000,0.00000,0.99752,0.89648,0.89569,-0.01403,0.01397,-1.48834,0.00144,0.03724,0.03771,-0.00253,0.00311,0.01799,0.0000,,,,0.0421,,,,,,"[0.000, 0.000, 0.000, 0.000, 0.000, 0.000]",0x000000,4.9450,0,2,0.000000,0.000000,0.000000,0.0000,NO
99,4.9950,4.9950,0.0500,0.050,APPROACHING,0,997.44,894.62,893.81,0.81,-0.81,85.22,0.99744,0.89462,0.89381,0.01417,-0.01412,1.48744,-0.00144,-0.03724,-0.03771,0.00253,-0.00311,-0.01799,0.00000,0.00000,0.00000,0.00000,0.00000,0.00000,0.00000,0.00000,0.00000,0.00000,0.00000,0.00000,0.99744,0.89462,0.89381,-0.01417,0.01412,-1.48744,0.00144,0.03724,0.03771,-0.00253,0.00311,0.01799,0.0000,,,,0.0421,,,,,,"[0.000, 0.000, 0.000, 0.000, 0.000, 0.000]",0x000000,4.9950,0,0,0.000000,0.000000,0.000000,0.0000,NO
100,5.0450,5.0450,0.0500,0.050,APPROACHING,0,997.37,892.76,891.92,0.82,-0.82,85.17,0.99737,0.89276,0.89192,0.01431,-0.01426,1.48653,-0.00144,-0.03724,-0.03771,0.00253,-0.00311,-0.01799,0.00000,0.00000,0.00000,0.00000,0.00000,0.00000,0.00000,0.00000,0.00000,0.00000,0.00000,0.00000,0.99737,0.89276,0.89192,-0.01431,0.01426,-1.48653,0.00144,0.03724,0.03771,-0.00253,0.00311,0.01799,0.0000,,,,0.0421,,,,,,"[0.000, 0.000, 0.000, 0.000, 0.000, 0.000]",0x000000,5.0450,0,0,0.000000,0.000000,0.000000,0.0000,NO
101,5.0950,5.0950,0.0500,0.050,APPROACHING,0,997.30,890.90,890.04,0.83,-0.83,85.12,0.99730,0.89090,0.89004,0.01445,-0.01440,1.48563,-0.00144,-0.03724,-0.03771,0.00253,-0.00311,-0.01799,0.00000,0.00000,0.00000,0.00000,0.00000,0.00000,0.00000,0.00000,0.00000,0.00000,0.00000,0.00000,0.99730,0.89090,0.89004,-0.01445,0.01440,-1.48563,0.00144,0.03724,0.03771,-0.00253,0.00311,0.01799,0.0000,,,,0.0420,,,,,,"[0.000, 0.000, 0.000, 0.000, 0.000, 0.000]",0x000000,5.0950,0,0,0.000000,0.000000,0.000000,0.0000,NO
102,5.1450,5.1450,0.0500,0.050,APPROACHING,0,997.23,889.04,888.15,0.84,-0.83,85.07,0.99723,0.88904,0.88815,0.01459,-0.01454,1.48473,-0.00144,-0.03724,-0.03771,0.00253,-0.00311,-0.01799,0.00000,0.00000,0.00000,0.00000,0.00000,0.00000,0.00000,0.00000,0.00000,0.00000,0.00000,0.00000,0.99723,0.88904,0.88815,-0.01459,0.01454,-1.48473,0.00144,0.03724,0.03771,-0.00253,0.00311,0.01799,0.0000,,,,0.0420,,,,,,"[0.000, 0.000, 0.000, 0.000, 0.000, 0.000]",0x000000,5.1450,0,0,0.000000,0.000000,0.000000,0.0000,NO
103,5.1950,5.1950,0.0500,0.050,APPROACHING,0,997.16,887.17,886.27,0.84,-0.84,85.02,0.99716,0.88717,0.88627,0.01473,-0.01469,1.48383,-0.00144,-0.03724,-0.03771,0.00253,-0.00311,-0.01799,0.00000,0.00000,0.00000,0.00000,0.00000,0.00000,0.00000,0.00000,0.00000,0.00000,0.00000,0.00000,0.99716,0.88717,0.88627,-0.01473,0.01469,-1.48383,0.00144,0.03724,0.03771,-0.00253,0.00311,0.01799,0.0000,,,,0.0420,,,,,,"[0.000, 0.000, 0.000, 0.000, 0.000, 0.000]",0x000000,5.1950,0,0,0.000000,0.000000,0.000000,0.0000,NO
104,5.2450,5.2450,0.0500,0.050,APPROACHING,0,997.08,885.31,884.38,0.85,-0.85,84.97,0.99708,0.88531,0.88438,0.01487,-0.01483,1.48293,-0.00144,-0.03724,-0.03771,0.00253,-0.00311,-0.01799,0.00000,0.00000,0.00000,0.00000,0.00000,0.00000,0.00000,0.00000,0.00000,0.00000,0.00000,0.00000,0.99708,0.88531,0.88438,-0.01487,0.01483,-1.48293,0.00144,0.03724,0.03771,-0.00253,0.00311,0.01799,0.0000,,,,0.0420,,,,,,"[0.000, 0.000, 0.000, 0.000, 0.000, 0.000]",0x000000,5.2450,0,0,0.000000,0.000000,0.000000,0.0000,NO
105,5.2950,5.2950,0.0500,0.050,APPROACHING,0,997.01,883.45,882.50,0.86,-0.86,84.91,0.99701,0.88345,0.88250,0.01501,-0.01497,1.48202,-0.00144,-0.03724,-0.03771,0.00253,-0.00311,-0.01799,0.00000,0.00000,0.00000,0.00000,0.00000,0.00000,0.00000,0.00000,0.00000,0.00000,0.00000,0.00000,0.99701,0.88345,0.88250,-0.01501,0.01497,-1.48202,0.00144,0.03724,0.03771,-0.00253,0.00311,0.01799,0.0000,,,,0.0340,,,,,,"[0.998, 0.000, 0.000, 0.000, 0.998, 0.000]",0x100010,5.2950,2,2,-0.000388,0.000295,0.001572,0.0000,NO
106,5.3450,5.3450,0.0500,0.050,APPROACHING,0,996.93,881.53,880.55,0.87,-0.87,84.86,0.99693,0.88153,0.88055,0.01514,-0.01511,1.48115,-0.00170,-0.03969,-0.04025,0.00229,-0.00293,-0.01706,0.00000,0.00000,0.00000,0.00000,0.00000,0.00000,0.00000,0.00000,0.00000,0.00000,0.00000,0.00000,0.99693,0.88153,0.88055,-0.01514,0.01511,-1.48115,0.00170,0.03969,0.04025,-0.00229,0.00293,0.01706,0.0000,,,,0.0420,,,,,,"[0.000, 0.000, 0.000, 0.000, 0.000, 0.000]",0x000000,5.3450,0,2,0.000000,0.000000,0.000000,0.0000,NO
107,5.3950,5.3950,0.0500,0.050,APPROACHING,0,996.85,879.54,878.53,0.87,-0.87,84.81,0.99685,0.87954,0.87853,0.01527,-0.01524,1.48029,-0.00170,-0.03969,-0.04025,0.00229,-0.00293,-0.01706,0.00000,0.00000,0.00000,0.00000,0.00000,0.00000,0.00000,0.00000,0.00000,0.00000,0.00000,0.00000,0.99685,0.87954,0.87853,-0.01527,0.01524,-1.48029,0.00170,0.03969,0.04025,-0.00229,0.00293,0.01706,0.0000,,,,0.0420,,,,,,"[0.000, 0.000, 0.000, 0.000, 0.000, 0.000]",0x000000,5.3950,0,0,0.000000,0.000000,0.000000,0.0000,NO
108,5.4450,5.4450,0.0500,0.050,APPROACHING,0,996.76,877.56,876.52,0.88,-0.88,84.77,0.99676,0.87756,0.87652,0.01540,-0.01537,1.47944,-0.00170,-0.03969,-0.04025,0.00229,-0.00293,-0.01706,0.00000,0.00000,0.00000,0.00000,0.00000,0.00000,0.00000,0.00000,0.00000,0.00000,0.00000,0.00000,0.99676,0.87756,0.87652,-0.01540,0.01537,-1.47944,0.00170,0.03969,0.04025,-0.00229,0.00293,0.01706,0.0000,,,,0.0421,,,,,,"[0.000, 0.000, 0.000, 0.000, 0.000, 0.000]",0x000000,5.4450,0,0,0.000000,0.000000,0.000000,0.0000,NO
109,5.4950,5.4950,0.0500,0.050,APPROACHING,0,996.68,875.57,874.51,0.89,-0.89,84.72,0.99668,0.87557,0.87451,0.01552,-0.01551,1.47858,-0.00170,-0.03969,-0.04025,0.00229,-0.00293,-0.01706,0.00000,0.00000,0.00000,0.00000,0.00000,0.00000,0.00000,0.00000,0.00000,0.00000,0.00000,0.00000,0.99668,0.87557,0.87451,-0.01552,0.01551,-1.47858,0.00170,0.03969,0.04025,-0.00229,0.00293,0.01706,0.0000,,,,0.0420,,,,,,"[0.000, 0.000, 0.000, 0.000, 0.000, 0.000]",0x000000,5.4950,0,0,0.000000,0.000000,0.000000,0.0000,NO
110,5.5450,5.5450,0.0500,0.050,APPROACHING,0,996.59,873.59,872.50,0.90,-0.90,84.67,0.99659,0.87359,0.87250,0.01565,-0.01564,1.47773,-0.00170,-0.03969,-0.04025,0.00229,-0.00293,-0.01706,0.00000,0.00000,0.00000,0.00000,0.00000,0.00000,0.00000,0.00000,0.00000,0.00000,0.00000,0.00000,0.99659,0.87359,0.87250,-0.01565,0.01564,-1.47773,0.00170,0.03969,0.04025,-0.00229,0.00293,0.01706,0.0000,,,,0.0420,,,,,,"[0.000, 0.000, 0.000, 0.000, 0.000, 0.000]",0x000000,5.5450,0,0,0.000000,0.000000,0.000000,0.0000,NO
111,5.5950,5.5950,0.0500,0.050,APPROACHING,0,996.51,871.60,870.48,0.90,-0.90,84.62,0.99651,0.87160,0.87048,0.01578,-0.01577,1.47687,-0.00170,-0.03969,-0.04025,0.00229,-0.00293,-0.01706,0.00000,0.00000,0.00000,0.00000,0.00000,0.00000,0.00000,0.00000,0.00000,0.00000,0.00000,0.00000,0.99651,0.87160,0.87048,-0.01578,0.01577,-1.47687,0.00170,0.03969,0.04025,-0.00229,0.00293,0.01706,0.0000,,,,0.0420,,,,,,"[0.000, 0.000, 0.000, 0.000, 0.000, 0.000]",0x000000,5.5950,0,0,0.000000,0.000000,0.000000,0.0000,NO
112,5.6450,5.6450,0.0500,0.050,APPROACHING,0,996.42,869.62,868.47,0.91,-0.91,84.57,0.99642,0.86962,0.86847,0.01591,-0.01591,1.47602,-0.00170,-0.03969,-0.04025,0.00229,-0.00293,-0.01706,0.00000,0.00000,0.00000,0.00000,0.00000,0.00000,0.00000,0.00000,0.00000,0.00000,0.00000,0.00000,0.99642,0.86962,0.86847,-0.01591,0.01591,-1.47602,0.00170,0.03969,0.04025,-0.00229,0.00293,0.01706,0.0000,,,,0.0368,,,,,,"[0.998, 0.000, 0.000, 0.000, 0.998, 0.000]",0x100010,5.6450,2,2,0.000060,-0.000143,-0.001089,0.0000,NO
113,5.6950,5.6950,0.0500,0.050,APPROACHING,0,996.33,867.57,866.40,0.92,-0.92,84.52,0.99633,0.86757,0.86640,0.01604,-0.01604,1.47514,-0.00197,-0.04214,-0.04279,0.00233,-0.00302,-0.01770,0.00000,0.00000,0.00000,0.00000,0.00000,0.00000,0.00000,0.00000,0.00000,0.00000,0.00000,0.00000,0.99633,0.86757,0.86640,-0.01604,0.01604,-1.47514,0.00197,0.04214,0.04279,-0.00233,0.00302,0.01770,0.0000,,,,0.0420,,,,,,"[0.000, 0.000, 0.000, 0.000, 0.000, 0.000]",0x000000,5.6950,0,2,0.000000,0.000000,0.000000,0.0000,NO
114,5.7450,5.7450,0.0500,0.050,APPROACHING,0,996.23,865.47,864.26,0.93,-0.93,84.47,0.99623,0.86547,0.86426,0.01617,-0.01618,1.47426,-0.00197,-0.04214,-0.04279,0.00233,-0.00302,-0.01770,0.00000,0.00000,0.00000,0.00000,0.00000,0.00000,0.00000,0.00000,0.00000,0.00000,0.00000,0.00000,0.99623,0.86547,0.86426,-0.01617,0.01618,-1.47426,0.00197,0.04214,0.04279,-0.00233,0.00302,0.01770,0.0000,,,,0.0420,,,,,,"[0.000, 0.000, 0.000, 0.000, 0.000, 0.000]",0x000000,5.7450,0,0,0.000000,0.000000,0.000000,0.0000,NO
115,5.7950,5.7950,0.0500,0.050,APPROACHING,0,996.14,863.36,862.12,0.93,-0.93,84.42,0.99614,0.86336,0.86212,0.01630,-0.01632,1.47337,-0.00197,-0.04214,-0.04279,0.00233,-0.00302,-0.01770,0.00000,0.00000,0.00000,0.00000,0.00000,0.00000,0.00000,0.00000,0.00000,0.00000,0.00000,0.00000,0.99614,0.86336,0.86212,-0.01630,0.01632,-1.47337,0.00197,0.04214,0.04279,-0.00233,0.00302,0.01770,0.0000,,,,0.0420,,,,,,"[0.000, 0.000, 0.000, 0.000, 0.000, 0.000]",0x000000,5.7950,0,0,0.000000,0.000000,0.000000,0.0000,NO
116,5.8450,5.8450,0.0500,0.050,APPROACHING,0,996.04,861.25,859.98,0.94,-0.94,84.37,0.99604,0.86125,0.85998,0.01643,-0.01645,1.47248,-0.00197,-0.04214,-0.04279,0.00233,-0.00302,-0.01770,0.00000,0.00000,0.00000,0.00000,0.00000,0.00000,0.00000,0.00000,0.00000,0.00000,0.00000,0.00000,0.99604,0.86125,0.85998,-0.01643,0.01645,-1.47248,0.00197,0.04214,0.04279,-0.00233,0.00302,0.01770,0.0000,,,,0.0234,,,,,,"[1.000, 0.000, 0.001, 0.000, 1.000, 0.000]",0x100010,5.8450,2,2,-0.000193,0.000167,0.000940,0.0000,NO
