Step,MPC_Start_Time,Control_Time,Actual_Time_Interval,CONTROL_DT,Mission_Phase,Waypoint_Number,Telemetry_X_mm,Telemetry_Y_mm,Telemetry_Z_mm,Telemetry_Roll_deg,Telemetry_Pitch_deg,Telemetry_Yaw_deg,Current_X,Current_Y,Current_Z,Current_Roll,Current_Pitch,Current_Yaw,Current_VX,Current_VY,Current_VZ,Current_WX,Current_WY,Current_WZ,Target_X,Target_Y,Target_Z,Target_Roll,Target_Pitch,Target_Yaw,Target_VX,Target_VY,Target_VZ,Target_WX,Target_WY,Target_WZ,Error_X,Error_Y,Error_Z,Error_Roll,Error_Pitch,Error_Yaw,Error_VX,Error_VY,Error_VZ,Error_WX,Error_WY,Error_WZ,MPC_Computation_Time,MPC_Status,MPC_Solver,MPC_Solver_Time_Limit,MPC_Solve_Time,MPC_Time_Limit_Exceeded,MPC_Fallback_Used,MPC_Objective,MPC_Iterations,MPC_Optimality_Gap,Command_Vector,Command_Hex,Command_Sent_Time,Total_Active_Thrusters,Thruster_Switches,RW_Torque_X,RW_Torque_Y,RW_Torque_Z,Total_MPC_Loop_Time,Timing_Violation
0,0.0450,0.0450,0.0500,0.050,APPROACHING,0,1000.00,1000.00,1000.00,0.00,0.00,90.00,1.00000,1.00000,1.00000,0.00000,0.00000,1.57080,0.00000,0.00000,0.00000,0.00000,0.00000,0.00000,0.00000,0.00000,0.00000,0.00000,0.00000,0.00000,0.00000,0.00000,0.00000,0.00000,0.00000,0.00000,1.00000,1.00000,1.00000,0.00000,0.00000,-1.57080,0.00000,0.00000,0.00000,0.00000,0.00000,0.00000,0.0000,,,,0.0175,,,,,,"[1.000, 0.000, 0.000, 1.000, 1.000, 0.000]",0x100110,0.0450,3,0,0.100000,-0.100000,-0.100000,0.0000,NO
1,0.0950,0.0950,0.0500,0.050,APPROACHING,0,999.95,999.94,999.94,0.09,-0.09,89.91,0.99995,0.99994,0.99994,0.00149,-0.00149,1.56931,-0.00219,-0.00221,-0.00234,0.05945,-0.05945,-0.05945,0.00000,0.00000,0.00000,0.00000,0.00000,0.00000,0.00000,0.00000,0.00000,0.00000,0.00000,0.00000,0.99995,0.99994,0.99994,-0.00149,0.00149,-1.56931,0.00219,0.00221,0.00234,-0.05945,0.05945,0.05945,0.0000,,,,0.0099,,,,,,"[1.000, 0.000, 0.000, 1.000, 1.000, 0.000]",0x100110,0.0950,3,0,0.100000,-0.100000,-0.099828,0.0000,NO
2,0.1450,0.1450,0.0500,0.050,APPROACHING,0,999.78,999.78,999.77,0.34,-0.34,89.66,0.99978,0.99978,0.99977,0.00596,-0.00593,1.56484,-0.00440,-0.00440,-0.00469,0.11891,-0.11891,-0.11880,0.00000,0.00000,0.00000,0.00000,0.00000,0.00000,0.00000,0.00000,0.00000,0.00000,0.00000,0.00000,0.99978,0.99978,0.99977,-0.00596,0.00593,-1.56484,0.00440,0.00440,0.00469,-0.11891,0.11891,0.11880,0.0000,,,,0.0089,,,,,,"[1.000, 0.000, 0.000, 1.000, 1.000, 0.000]",0x100110,0.1450,3,0,-0.047691,0.037371,-0.099910,0.0000,NO
3,0.1950,0.1950,0.0500,0.050,APPROACHING,0,999.51,999.51,999.47,0.65,-0.64,89.23,0.99951,0.99951,0.99947,0.01127,-0.01125,1.55736,-0.00663,-0.00657,-0.00703,0.09053,-0.09671,-0.17820,0.00000,0.00000,0.00000,0.00000,0.00000,0.00000,0.00000,0.00000,0.00000,0.00000,0.00000,0.00000,0.99951,0.99951,0.99947,-0.01127,0.01125,-1.55736,0.00663,0.00657,0.00703,-0.09053,0.09671,0.17820,0.0000,,,,0.0067,,,,,,"[1.000, 0.000, 0.000, 1.000, 1.000, 0.000]",0x100110,0.1950,3,0,0.023576,-0.025452,-0.099910,0.0000,NO
4,0.2450,0.2450,0.0500,0.050,APPROACHING,0,999.12,999.12,999.06,0.93,-0.94,88.63,0.99912,0.99912,0.99906,0.01629,-0.01632,1.54690,-0.00889,-0.00870,-0.00938,0.10454,-0.11185,-0.23760,0.00000,0.00000,0.00000,0.00000,0.00000,0.00000,0.00000,0.00000,0.00000,0.00000,0.00000,0.00000,0.99912,0.99912,0.99906,-0.01629,0.01632,-1.54690,0.00889,0.00870,0.00938,-0.10454,0.11185,0.23760,0.0000,,,,0.0053,,,,,,"[1.000, 0.000, 0.000, 1.000, 1.000, 0.000]",0x100110,0.2450,3,0,-0.024912,0.017737,-0.099941,0.0000,NO
5,0.2950,0.2950,0.0500,0.050,APPROACHING,0,998.62,998.64,998.53,1.23,-1.23,87.86,0.99862,0.99864,0.99853,0.02140,-0.02140,1.53343,-0.01118,-0.01080,-0.01172,0.08970,-0.10133,-0.29702,0.00000,0.00000,0.00000,0.00000,0.00000,0.00000,0.00000,0.00000,0.00000,0.00000,0.00000,0.00000,0.99862,0.99864,0.99853,-0.02140,0.02140,-1.53343,0.01118,0.01080,0.01172,-0.08970,0.10133,0.29702,0.0000,,,,0.0042,,,,,,"[1.000, 0.000, 0.000, 1.000, 1.000, 0.000]",0x100110,0.2950,3,0,0.008328,-0.011778,-0.099992,0.0000,NO
6,0.3450,0.3450,0.0500,0.050,APPROACHING,0,998.00,998.04,997.89,1.51,-1.50,86.92,0.99800,0.99804,0.99789,0.02640,-0.02625,1.51697,-0.01352,-0.01285,-0.01407,0.09464,-0.10834,-0.35647,0.00000,0.00000,0.00000,0.00000,0.00000,0.00000,0.00000,0.00000,0.00000,0.00000,0.00000,0.00000,0.99800,0.99804,0.99789,-0.02640,0.02625,-1.51697,0.01352,0.01285,0.01407,-0.09464,0.10834,0.35647,0.0000,,,,0.0031,,,,,,"[0.999, 0.001, 0.001, 0.999, 0.999, 0.001]",0x100110,0.3450,3,0,-0.014224,0.008517,-0.099996,0.0000,NO
7,0.3950,0.3950,0.0500,0.050,APPROACHING,0,997.26,997.35,997.13,1.80,-1.77,85.80,0.99726,0.99735,0.99713,0.03148,-0.03097,1.49751,-0.01591,-0.01484,-0.01641,0.08617,-0.10330,-0.41591,0.00000,0.00000,0.00000,0.00000,0.00000,0.00000,0.00000,0.00000,0.00000,0.00000,0.00000,0.00000,0.99726,0.99735,0.99713,-0.03148,0.03097,-1.49751,0.01591,0.01484,0.01641,-0.08617,0.10330,0.41591,0.0000,,,,0.0033,,,,,,"[0.999, 0.001, 0.001, 0.999, 0.999, 0.001]",0x100110,0.3950,3,0,0.001266,-0.005265,-0.100000,0.0000,NO
8,0.4450,0.4450,0.0500,0.050,APPROACHING,0,996.41,996.56,996.25,2.09,-2.03,84.51,0.99641,0.99656,0.99625,0.03655,-0.03546,1.47505,-0.01834,-0.01678,-0.01875,0.08691,-0.10644,-0.47537,0.00000,0.00000,0.00000,0.00000,0.00000,0.00000,0.00000,0.00000,0.00000,0.00000,0.00000,0.00000,0.99641,0.99656,0.99625,-0.03655,0.03546,-1.47505,0.01834,0.01678,0.01875,-0.08691,0.10644,0.47537,0.0000,,,,0.0094,,,,,,"[1.000, 0.000, 0.000, 1.000, 1.000, 0.000]",0x100110,0.4450,3,0,-0.005659,0.006936,-0.100000,0.0000,NO
9,0.4950,0.4950,0.0500,0.050,APPROACHING,0,995.43,995.68,995.25,2.39,-2.27,83.06,0.99543,0.99568,0.99525,0.04177,-0.03968,1.44959,-0.02084,-0.01865,-0.02109,0.08352,-0.10234,-0.53482,0.00000,0.00000,0.00000,0.00000,0.00000,0.00000,0.00000,0.00000,0.00000,0.00000,0.00000,0.00000,0.99543,0.99568,0.99525,-0.04177,0.03968,-1.44959,0.02084,0.01865,0.02109,-0.08352,0.10234,0.53482,0.0000,,,,0.0051,,,,,,"[1.000, 0.000, 0.000, 1.000, 1.000, 0.000]",0x100110,0.4950,3,0,-0.004892,-0.010342,-0.054615,0.0000,NO
10,0.5450,0.5450,0.0500,0.050,APPROACHING,0,994.32,994.70,994.14,2.69,-2.51,81.46,0.99432,0.99470,0.99414,0.04703,-0.04372,1.42181,-0.02339,-0.02043,-0.02342,0.08061,-0.10850,-0.56729,0.00000,0.00000,0.00000,0.00000,0.00000,0.00000,0.00000,0.00000,0.00000,0.00000,0.00000,0.00000,0.99432,0.99470,0.99414,-0.04703,0.04372,-1.42181,0.02339,0.02043,0.02342,-0.08061,0.10850,0.56729,0.0000,,,,0.0021,,,,,,"[1.000, 0.000, 0.000, 1.000, 1.000, 0.000]",0x100110,0.5450,3,0,-0.005119,0.001477,0.015716,0.0000,NO
11,0.5950,0.5950,0.0500,0.050,APPROACHING,0,993.09,993.63,992.91,3.00,-2.73,79.84,0.99309,0.99363,0.99291,0.05229,-0.04772,1.39341,-0.02600,-0.02214,-0.02575,0.07757,-0.10762,-0.55794,0.00000,0.00000,0.00000,0.00000,0.00000,0.00000,0.00000,0.00000,0.00000,0.00000,0.00000,0.00000,0.99309,0.99363,0.99291,-0.05229,0.04772,-1.39341,0.02600,0.02214,0.02575,-0.07757,0.10762,0.55794,0.0000,,,,0.0019,,,,,,"[1.000, 0.000, 0.000, 1.000, 1.000, 0.000]",0x100110,0.5950,3,0,-0.005232,0.003526,0.027715,0.0000,NO
12,0.6450,0.6450,0.0500,0.050,APPROACHING,0,991.72,992.49,991.56,3.29,-2.95,78.25,0.99172,0.99249,0.99156,0.05747,-0.05154,1.36564,-0.02867,-0.02376,-0.02808,0.07446,-0.10553,-0.54147,0.00000,0.00000,0.00000,0.00000,0.00000,0.00000,0.00000,0.00000,0.00000,0.00000,0.00000,0.00000,0.99172,0.99249,0.99156,-0.05747,0.05154,-1.36564,0.02867,0.02376,0.02808,-0.07446,0.10553,0.54147,0.0000,,,,0.0039,,,,,,"[1.000, 0.000, 0.000, 1.000, 1.000, 0.000]",0x100110,0.6450,3,0,-0.005435,0.002760,0.020646,0.0000,NO
13,0.6950,0.6950,0.0500,0.050,APPROACHING,0,990.22,991.26,990.10,3.58,-3.16,76.69,0.99022,0.99126,0.99010,0.06255,-0.05516,1.33857,-0.03139,-0.02529,-0.03041,0.07123,-0.10389,-0.52919,0.00000,0.00000,0.00000,0.00000,0.00000,0.00000,0.00000,0.00000,0.00000,0.00000,0.00000,0.00000,0.99022,0.99126,0.99010,-0.06255,0.05516,-1.33857,0.03139,0.02529,0.03041,-0.07123,0.10389,0.52919,0.0000,,,,0.0021,,,,,,"[1.000, 0.000, 0.000, 1.000, 1.000, 0.000]",0x100110,0.6950,3,0,-0.004874,0.001206,0.015079,0.0000,NO
14,0.7450,0.7450,0.0500,0.050,APPROACHING,0,988.58,989.96,988.52,3.87,-3.36,75.17,0.98858,0.98996,0.98852,0.06755,-0.05862,1.31201,-0.03416,-0.02675,-0.03273,0.06834,-0.10317,-0.52023,0.00000,0.00000,0.00000,0.00000,0.00000,0.00000,0.00000,0.00000,0.00000,0.00000,0.00000,0.00000,0.98858,0.98996,0.98852,-0.06755,0.05862,-1.31201,0.03416,0.02675,0.03273,-0.06834,0.10317,0.52023,0.0000,,,,0.0021,,,,,,"[1.000, 0.000, 0.000, 1.000, 1.000, 0.000]",0x100110,0.7450,3,0,-0.004653,0.000902,0.014169,0.0000,NO
15,0.7950,0.7950,0.0500,0.050,APPROACHING,0,986.80,988.59,986.83,4.15,-3.55,73.67,0.98680,0.98859,0.98683,0.07247,-0.06195,1.28587,-0.03698,-0.02812,-0.03504,0.06557,-0.10264,-0.51180,0.00000,0.00000,0.00000,0.00000,0.00000,0.00000,0.00000,0.00000,0.00000,0.00000,0.00000,0.00000,0.98680,0.98859,0.98683,-0.07247,0.06195,-1.28587,0.03698,0.02812,0.03504,-0.06557,0.10264,0.51180,0.0000,,,,0.0022,,,,,,"[1.000, 0.000, 0.000, 1.000, 1.000, 0.000]",0x100110,0.7950,3,0,-0.004574,0.001071,0.014683,0.0000,NO
16,0.8450,0.8450,0.0500,0.050,APPROACHING,0,984.88,987.15,985.02,4.43,-3.73,72.20,0.98488,0.98715,0.98502,0.07732,-0.06515,1.26013,-0.03984,-0.02940,-0.03735,0.06285,-0.10200,-0.50307,0.00000,0.00000,0.00000,0.00000,0.00000,0.00000,0.00000,0.00000,0.00000,0.00000,0.00000,0.00000,0.98488,0.98715,0.98502,-0.07732,0.06515,-1.26013,0.03984,0.02940,0.03735,-0.06285,0.10200,0.50307,0.0000,,,,0.0041,,,,,,"[1.000, 0.000, 0.000, 1.000, 1.000, 0.000]",0x100110,0.8450,3,0,-0.004640,0.001379,0.015255,0.0000,NO
17,0.8950,0.8950,0.0500,0.050,APPROACHING,0,982.82,985.65,983.10,4.70,-3.91,70.75,0.98282,0.98565,0.98310,0.08208,-0.06823,1.23482,-0.04274,-0.03060,-0.03966,0.06010,-0.10119,-0.49400,0.00000,0.00000,0.00000,0.00000,0.00000,0.00000,0.00000,0.00000,0.00000,0.00000,0.00000,0.00000,0.98282,0.98565,0.98310,-0.08208,0.06823,-1.23482,0.04274,0.03060,0.03966,-0.06010,0.10119,0.49400,0.0000,,,,0.0030,,,,,,"[1.000, 0.000, 0.000, 1.000, 1.000, 0.000]",0x100110,0.8950,3,0,-0.004411,0.001298,0.014801,0.0000,NO
18,0.9450,0.9450,0.0500,0.050,APPROACHING,0,980.61,984.09,981.05,4.97,-4.08,69.32,0.98061,0.98409,0.98105,0.08675,-0.07119,1.20994,-0.04567,-0.03172,-0.04196,0.05748,-0.10042,-0.48520,0.00000,0.00000,0.00000,0.00000,0.00000,0.00000,0.00000,0.00000,0.00000,0.00000,0.00000,0.00000,0.98061,0.98409,0.98105,-0.08675,0.07119,-1.20994,0.04567,0.03172,0.04196,-0.05748,0.10042,0.48520,0.0000,,,,0.0021,,,,,,"[1.000, 0.000, 0.000, 1.000, 1.000, 0.000]",0x100110,0.9450,3,0,-0.004195,0.001245,0.014454,0.0000,NO
19,0.9950,0.9950,0.0500,0.050,APPROACHING,0,978.25,982.48,978.90,5.23,-4.24,67.92,0.97825,0.98248,0.97890,0.09134,-0.07403,1.18548,-0.04864,-0.03276,-0.04425,0.05498,-0.09968,-0.47661,0.00000,0.00000,0.00000,0.00000,0.00000,0.00000,0.00000,0.00000,0.00000,0.00000,0.00000,0.00000,0.97825,0.98248,0.97890,-0.09134,0.07403,-1.18548,0.04864,0.03276,0.04425,-0.05498,0.09968,0.47661,0.0000,,,,0.0021,,,,,,"[1.000, 0.000, 0.000, 1.000, 1.000, 0.000]",0x100110,0.9950,3,0,-0.004101,0.001316,0.014399,0.0000,NO
20,1.0450,1.0450,0.0500,0.050,APPROACHING,0,975.74,980.81,976.63,5.49,-4.40,66.55,0.97574,0.98081,0.97663,0.09584,-0.07677,1.16144,-0.05164,-0.03372,-0.04654,0.05255,-0.09890,-0.46805,0.00000,0.00000,0.00000,0.00000,0.00000,0.00000,0.00000,0.00000,0.00000,0.00000,0.00000,0.00000,0.97574,0.98081,0.97663,-0.09584,0.07677,-1.16144,0.05164,0.03372,0.04654,-0.05255,0.09890,0.46805,0.0000,,,,0.0021,,,,,,"[1.000, 0.000, 0.000, 1.000, 1.000, 0.000]",0x100110,1.0450,3,0,-0.004025,0.001404,0.014324,0.0000,NO
21,1.0950,1.0950,0.0500,0.050,APPROACHING,0,973.09,979.11,974.25,5.74,-4.55,65.19,0.97309,0.97911,0.97425,0.10025,-0.07940,1.13781,-0.05467,-0.03460,-0.04883,0.05015,-0.09806,-0.45953,0.00000,0.00000,0.00000,0.00000,0.00000,0.00000,0.00000,0.00000,0.00000,0.00000,0.00000,0.00000,0.97309,0.97911,0.97425,-0.10025,0.07940,-1.13781,0.05467,0.03460,0.04883,-0.05015,0.09806,0.45953,0.0000,,,,0.0052,,,,,,"[1.000, 0.000, 0.000, 1.000, 1.000, 0.000]",0x100110,1.0950,3,0,-0.004051,0.001600,0.014567,0.0000,NO
22,1.1450,1.1450,0.0500,0.050,APPROACHING,0,970.28,977.36,971.75,5.99,-4.69,63.86,0.97028,0.97736,0.97175,0.10457,-0.08192,1.11459,-0.05773,-0.03539,-0.05111,0.04775,-0.09711,-0.45087,0.00000,0.00000,0.00000,0.00000,0.00000,0.00000,0.00000,0.00000,0.00000,0.00000,0.00000,0.00000,0.97028,0.97736,0.97175,-0.10457,0.08192,-1.11459,0.05773,0.03539,0.05111,-0.04775,0.09711,0.45087,0.0000,,,,0.0021,,,,,,"[1.000, 0.000, 0.000, 1.000, 1.000, 0.000]",0x100110,1.1450,3,0,-0.003789,0.001490,0.013841,0.0000,NO
23,1.1950,1.1950,0.0500,0.050,APPROACHING,0,967.31,975.57,969.13,6.23,-4.83,62.55,0.96731,0.97557,0.96913,0.10879,-0.08435,1.09179,-0.06081,-0.03611,-0.05338,0.04549,-0.09623,-0.44264,0.00000,0.00000,0.00000,0.00000,0.00000,0.00000,0.00000,0.00000,0.00000,0.00000,0.00000,0.00000,0.96731,0.97557,0.96913,-0.10879,0.08435,-1.09179,0.06081,0.03611,0.05338,-0.04549,0.09623,0.44264,0.0000,,,,0.0031,,,,,,"[1.000, 0.000, 0.000, 1.000, 1.000, 0.000]",0x100110,1.1950,3,0,-0.003733,0.001608,0.013878,0.0000,NO
24,1.2450,1.2450,0.0500,0.050,APPROACHING,0,964.20,973.75,966.41,6.47,-4.97,61.27,0.96420,0.97375,0.96641,0.11292,-0.08668,1.06939,-0.06390,-0.03675,-0.05565,0.04328,-0.09528,-0.43439,0.00000,0.00000,0.00000,0.00000,0.00000,0.00000,0.00000,0.00000,0.00000,0.00000,0.00000,0.00000,0.96420,0.97375,0.96641,-0.11292,0.08668,-1.06939,0.06390,0.03675,0.05565,-0.04328,0.09528,0.43439,0.0000,,,,0.0021,,,,,,"[1.000, 0.000, 0.000, 1.000, 1.000, 0.000]",0x100110,1.2450,3,0,-0.003607,0.001623,0.013559,0.0000,NO
25,1.2950,1.2950,0.0500,0.050,APPROACHING,0,960.92,971.89,963.57,6.70,-5.09,60.01,0.96092,0.97189,0.96357,0.11696,-0.08892,1.04738,-0.06702,-0.03731,-0.05791,0.04113,-0.09431,-0.42633,0.00000,0.00000,0.00000,0.00000,0.00000,0.00000,0.00000,0.00000,0.00000,0.00000,0.00000,0.00000,0.96092,0.97189,0.96357,-0.11696,0.08892,-1.04738,0.06702,0.03731,0.05791,-0.04113,0.09431,0.42633,0.0000,,,,0.0021,,,,,,"[1.000, 0.000, 0.000, 1.000, 1.000, 0.000]",0x100110,1.2950,3,0,-0.003530,0.001701,0.013455,0.0000,NO
26,1.3450,1.3450,0.0500,0.050,APPROACHING,0,957.49,970.02,960.62,6.93,-5.22,58.77,0.95749,0.97002,0.96062,0.12091,-0.09108,1.02577,-0.07016,-0.03780,-0.06017,0.03903,-0.09330,-0.41833,0.00000,0.00000,0.00000,0.00000,0.00000,0.00000,0.00000,0.00000,0.00000,0.00000,0.00000,0.00000,0.95749,0.97002,0.96062,-0.12091,0.09108,-1.02577,0.07016,0.03780,0.06017,-0.03903,0.09330,0.41833,0.0000,,,,0.0073,,,,,,"[1.000, 0.000, 0.000, 1.000, 1.000, 0.000]",0x100110,1.3450,3,0,-0.003556,0.001920,0.013796,0.0000,NO
27,1.3950,1.3950,0.0500,0.050,APPROACHING,0,953.91,968.12,957.55,7.15,-5.34,57.56,0.95391,0.96812,0.95755,0.12476,-0.09314,1.00456,-0.07331,-0.03821,-0.06243,0.03692,-0.09216,-0.41012,0.00000,0.00000,0.00000,0.00000,0.00000,0.00000,0.00000,0.00000,0.00000,0.00000,0.00000,0.00000,0.95391,0.96812,0.95755,-0.12476,0.09314,-1.00456,0.07331,0.03821,0.06243,-0.03692,0.09216,0.41012,0.0000,,,,0.0043,,,,,,"[1.000, 0.000, 0.000, 1.000, 1.000, 0.000]",0x100110,1.3950,3,0,-0.003310,0.001769,0.012958,0.0000,NO
28,1.4450,1.4450,0.0500,0.050,APPROACHING,0,950.16,966.20,954.38,7.36,-5.45,56.36,0.95016,0.96620,0.95438,0.12851,-0.09512,0.98373,-0.07647,-0.03855,-0.06467,0.03495,-0.09111,-0.40242,0.00000,0.00000,0.00000,0.00000,0.00000,0.00000,0.00000,0.00000,0.00000,0.00000,0.00000,0.00000,0.95016,0.96620,0.95438,-0.12851,0.09512,-0.98373,0.07647,0.03855,0.06467,-0.03495,0.09111,0.40242,0.0000,,,,0.0020,,,,,,"[1.000, 0.000, 0.000, 1.000, 1.000, 0.000]",0x100110,1.4450,3,0,-0.003225,0.001824,0.012802,0.0000,NO
29,1.4950,1.4950,0.0500,0.050,APPROACHING,0,946.26,964.26,951.09,7.57,-5.56,55.19,0.94626,0.96426,0.95109,0.13218,-0.09702,0.96329,-0.07964,-0.03881,-0.06692,0.03304,-0.09003,-0.39481,0.00000,0.00000,0.00000,0.00000,0.00000,0.00000,0.00000,0.00000,0.00000,0.00000,0.00000,0.00000,0.94626,0.96426,0.95109,-0.13218,0.09702,-0.96329,0.07964,0.03881,0.06692,-0.03304,0.09003,0.39481,0.0000,,,,0.0032,,,,,,"[1.000, 0.000, 0.000, 1.000, 1.000, 0.000]",0x100110,1.4950,3,0,-0.003206,0.001984,0.012940,0.0000,NO
30,1.5450,1.5450,0.0500,0.050,APPROACHING,0,942.20,962.32,947.68,7.78,-5.66,54.04,0.94220,0.96232,0.94768,0.13574,-0.09884,0.94322,-0.08282,-0.03901,-0.06915,0.03113,-0.08885,-0.38712,0.00000,0.00000,0.00000,0.00000,0.00000,0.00000,0.00000,0.00000,0.00000,0.00000,0.00000,0.00000,0.94220,0.96232,0.94768,-0.13574,0.09884,-0.94322,0.08282,0.03901,0.06915,-0.03113,0.08885,0.38712,0.0000,,,,0.0021,,,,,,"[1.000, 0.000, 0.000, 1.000, 1.000, 0.000]",0x100110,1.5450,3,0,-0.003065,0.001946,0.012516,0.0000,NO
31,1.5950,1.5950,0.0500,0.050,APPROACHING,0,937.98,960.36,944.17,7.98,-5.76,52.91,0.93798,0.96036,0.94417,0.13921,-0.10058,0.92353,-0.08601,-0.03913,-0.07139,0.02931,-0.08769,-0.37967,0.00000,0.00000,0.00000,0.00000,0.00000,0.00000,0.00000,0.00000,0.00000,0.00000,0.00000,0.00000,0.93798,0.96036,0.94417,-0.13921,0.10058,-0.92353,0.08601,0.03913,0.07139,-0.02931,0.08769,0.37967,0.0000,,,,0.0030,,,,,,"[1.000, 0.000, 0.629, 0.308, 1.000, 0.000]",0x101010,1.5950,4,2,-0.002984,0.002005,0.012361,0.0000,NO
32,1.6450,1.6450,0.0500,0.050,APPROACHING,0,933.64,958.37,940.54,8.17,-5.86,51.81,0.93364,0.95837,0.94054,0.14259,-0.10226,0.90421,-0.08751,-0.04046,-0.07391,0.02754,-0.08650,-0.37232,0.00000,0.00000,0.00000,0.00000,0.00000,0.00000,0.00000,0.00000,0.00000,0.00000,0.00000,0.00000,0.93364,0.95837,0.94054,-0.14259,0.10226,-0.90421,0.08751,0.04046,0.07391,-0.02754,0.08650,0.37232,0.0000,,,,0.0021,,,,,,"[1.000, 0.000, 0.574, 0.318, 1.000, 0.000]",0x101010,1.6450,4,1,-0.002918,0.002064,0.012232,0.0000,NO
33,1.6950,1.6950,0.0500,0.050,APPROACHING,0,929.23,956.32,936.78,8.36,-5.95,50.72,0.92923,0.95632,0.93678,0.14588,-0.10386,0.88525,-0.08904,-0.04174,-0.07644,0.02580,-0.08528,-0.36505,0.00000,0.00000,0.00000,0.00000,0.00000,0.00000,0.00000,0.00000,0.00000,0.00000,0.00000,0.00000,0.92923,0.95632,0.93678,-0.14588,0.10386,-0.88525,0.08904,0.04174,0.07644,-0.02580,0.08528,0.36505,0.0000,,,,0.0021,,,,,,"[1.000, 0.000, 0.509, 0.341, 1.000, 0.000]",0x101010,1.6950,4,2,-0.002854,0.002100,0.012062,0.0000,NO
34,1.7450,1.7450,0.0500,0.050,APPROACHING,0,924.73,954.20,932.89,8.54,-6.04,49.66,0.92473,0.95420,0.93289,0.14907,-0.10539,0.86665,-0.09059,-0.04299,-0.07897,0.02411,-0.08403,-0.35788,0.00000,0.00000,0.00000,0.00000,0.00000,0.00000,0.00000,0.00000,0.00000,0.00000,0.00000,0.00000,0.92473,0.95420,0.93289,-0.14907,0.10539,-0.86665,0.09059,0.04299,0.07897,-0.02411,0.08403,0.35788,0.0000,,,,0.0031,,,,,,"[1.000, 0.000, 0.395, 0.375, 1.000, 0.000]",0x100010,1.7450,4,2,-0.002828,0.002195,0.012044,0.0000,NO
35,1.7950,1.7950,0.0500,0.050,APPROACHING,0,920.17,952.02,928.88,8.72,-6.12,48.61,0.92017,0.95202,0.92888,0.15216,-0.10685,0.84840,-0.09217,-0.04420,-0.08150,0.02242,-0.08273,-0.35072,0.00000,0.00000,0.00000,0.00000,0.00000,0.00000,0.00000,0.00000,0.00000,0.00000,0.00000,0.00000,0.92017,0.95202,0.92888,-0.15216,0.10685,-0.84840,0.09217,0.04420,0.08150,-0.02242,0.08273,0.35072,0.0000,,,,0.0021,,,,,,"[1.000, 0.000, 0.371, 0.363, 1.000, 0.000]",0x100010,1.7950,4,2,-0.002697,0.002120,0.011593,0.0000,NO
36,1.8450,1.8450,0.0500,0.050,APPROACHING,0,915.52,949.78,924.74,8.89,-6.20,47.58,0.91552,0.94978,0.92474,0.15516,-0.10825,0.83051,-0.09377,-0.04538,-0.08403,0.02082,-0.08147,-0.34383,0.00000,0.00000,0.00000,0.00000,0.00000,0.00000,0.00000,0.00000,0.00000,0.00000,0.00000,0.00000,0.91552,0.94978,0.92474,-0.15516,0.10825,-0.83051,0.09377,0.04538,0.08403,-0.02082,0.08147,0.34383,0.0000,,,,0.0022,,,,,,"[1.000, 0.000, 0.367, 0.331, 1.000, 0.000]",0x100010,1.8450,4,1,-0.002637,0.002157,0.011422,0.0000,NO
37,1.8950,1.8950,0.0500,0.050,APPROACHING,0,910.79,947.48,920.48,9.06,-6.28,46.58,0.91079,0.94748,0.92048,0.15807,-0.10959,0.81296,-0.09540,-0.04652,-0.08657,0.01925,-0.08019,-0.33704,0.00000,0.00000,0.00000,0.00000,0.00000,0.00000,0.00000,0.00000,0.00000,0.00000,0.00000,0.00000,0.91079,0.94748,0.92048,-0.15807,0.10959,-0.81296,0.09540,0.04652,0.08657,-0.01925,0.08019,0.33704,0.0000,,,,0.0063,,,,,,"[1.000, 0.000, 1.000, 0.000, 1.000, 0.000]",0x101010,1.8950,3,2,-0.002658,0.002334,0.011600,0.0000,NO
38,1.9450,1.9450,0.0500,0.050,APPROACHING,0,906.02,945.09,916.08,9.22,-6.35,45.59,0.90602,0.94509,0.91608,0.16089,-0.11086,0.79576,-0.09546,-0.04910,-0.08945,0.01767,-0.07880,-0.33014,0.00000,0.00000,0.00000,0.00000,0.00000,0.00000,0.00000,0.00000,0.00000,0.00000,0.00000,0.00000,0.90602,0.94509,0.91608,-0.16089,0.11086,-0.79576,0.09546,0.04910,0.08945,-0.01767,0.07880,0.33014,0.0000,,,,0.0020,,,,,,"[1.000, 0.000, 1.000, 0.000, 1.000, 0.000]",0x101010,1.9450,3,0,-0.002495,0.002163,0.010962,0.0000,NO
39,1.9950,1.9950,0.0500,0.050,APPROACHING,0,901.24,942.57,911.53,9.37,-6.42,44.63,0.90124,0.94257,0.91153,0.16361,-0.11208,0.77890,-0.09557,-0.05167,-0.09233,0.01619,-0.07751,-0.32362,0.00000,0.00000,0.00000,0.00000,0.00000,0.00000,0.00000,0.00000,0.00000,0.00000,0.00000,0.00000,0.90124,0.94257,0.91153,-0.16361,0.11208,-0.77890,0.09557,0.05167,0.09233,-0.01619,0.07751,0.32362,0.0000,,,,0.0021,,,,,,"[1.000, 0.000, 1.000, 0.000, 1.000, 0.000]",0x101010,1.9950,3,0,-0.002458,0.002186,0.010797,0.0000,NO
40,2.0450,2.0450,0.0500,0.050,APPROACHING,0,896.46,939.92,906.85,9.53,-6.49,43.68,0.89646,0.93992,0.90685,0.16624,-0.11324,0.76236,-0.09573,-0.05422,-0.09523,0.01473,-0.07622,-0.31720,0.00000,0.00000,0.00000,0.00000,0.00000,0.00000,0.00000,0.00000,0.00000,0.00000,0.00000,0.00000,0.89646,0.93992,0.90685,-0.16624,0.11324,-0.76236,0.09573,0.05422,0.09523,-0.01473,0.07622,0.31720,0.0000,,,,0.0022,,,,,,"[1.000, 0.000, 1.000, 0.000, 1.000, 0.000]",0x101010,2.0450,3,0,-0.002438,0.002234,0.010701,0.0000,NO
41,2.0950,2.0950,0.0500,0.050,APPROACHING,0,891.67,937.15,902.01,9.67,-6.55,42.75,0.89167,0.93715,0.90201,0.16878,-0.11435,0.74614,-0.09593,-0.05677,-0.09813,0.01328,-0.07489,-0.31084,0.00000,0.00000,0.00000,0.00000,0.00000,0.00000,0.00000,0.00000,0.00000,0.00000,0.00000,0.00000,0.89167,0.93715,0.90201,-0.16878,0.11435,-0.74614,0.09593,0.05677,0.09813,-0.01328,0.07489,0.31084,0.0000,,,,0.0022,,,,,,"[1.000, 0.000, 1.000, 0.000, 1.000, 0.000]",0x101010,2.0950,3,0,-0.002403,0.002257,0.010548,0.0000,NO
42,2.1450,2.1450,0.0500,0.050,APPROACHING,0,886.87,934.25,897.03,9.81,-6.61,41.84,0.88687,0.93425,0.89703,0.17123,-0.11540,0.73024,-0.09617,-0.05931,-0.10104,0.01185,-0.07355,-0.30457,0.00000,0.00000,0.00000,0.00000,0.00000,0.00000,0.00000,0.00000,0.00000,0.00000,0.00000,0.00000,0.88687,0.93425,0.89703,-0.17123,0.11540,-0.73024,0.09617,0.05931,0.10104,-0.01185,0.07355,0.30457,0.0000,,,,0.0031,,,,,,"[1.000, 0.000, 1.000, 0.000, 1.000, 0.000]",0x101010,2.1450,3,0,-0.002403,0.002331,0.010503,0.0000,NO
43,2.1950,2.1950,0.0500,0.050,APPROACHING,0,882.05,931.22,891.91,9.95,-6.67,40.95,0.88205,0.93122,0.89191,0.17359,-0.11640,0.71467,-0.09645,-0.06183,-0.10395,0.01042,-0.07216,-0.29833,0.00000,0.00000,0.00000,0.00000,0.00000,0.00000,0.00000,0.00000,0.00000,0.00000,0.00000,0.00000,0.88205,0.93122,0.89191,-0.17359,0.11640,-0.71467,0.09645,0.06183,0.10395,-0.01042,0.07216,0.29833,0.0000,,,,0.0031,,,,,,"[1.000, 0.000, 1.000, 0.000, 1.000, 0.000]",0x101010,2.1950,3,0,-0.002315,0.002274,0.010175,0.0000,NO
44,2.2450,2.2450,0.0500,0.050,APPROACHING,0,877.22,928.06,886.64,10.08,-6.72,40.07,0.87722,0.92806,0.88664,0.17586,-0.11736,0.69940,-0.09678,-0.06434,-0.10687,0.00905,-0.07081,-0.29228,0.00000,0.00000,0.00000,0.00000,0.00000,0.00000,0.00000,0.00000,0.00000,0.00000,0.00000,0.00000,0.87722,0.92806,0.88664,-0.17586,0.11736,-0.69940,0.09678,0.06434,0.10687,-0.00905,0.07081,0.29228,0.0000,,,,0.0062,,,,,,"[1.000, 0.000, 1.000, 0.000, 1.000, 0.000]",0x101010,2.2450,3,0,-0.002294,0.002314,0.010057,0.0000,NO
45,2.2950,2.2950,0.0500,0.050,APPROACHING,0,872.37,924.78,881.22,10.20,-6.78,39.22,0.87237,0.92478,0.88122,0.17804,-0.11826,0.68444,-0.09714,-0.06684,-0.10980,0.00768,-0.06944,-0.28630,0.00000,0.00000,0.00000,0.00000,0.00000,0.00000,0.00000,0.00000,0.00000,0.00000,0.00000,0.00000,0.87237,0.92478,0.88122,-0.17804,0.11826,-0.68444,0.09714,0.06684,0.10980,-0.00768,0.06944,0.28630,0.0000,,,,0.0022,,,,,,"[1.000, 0.000, 1.000, 0.000, 1.000, 0.000]",0x101010,2.2950,3,0,-0.002192,0.002228,0.009682,0.0000,NO
46,2.3450,2.3450,0.0500,0.050,APPROACHING,0,867.50,921.38,875.66,10.32,-6.83,38.38,0.86750,0.92138,0.87566,0.18012,-0.11912,0.66978,-0.09754,-0.06933,-0.11273,0.00638,-0.06811,-0.28054,0.00000,0.00000,0.00000,0.00000,0.00000,0.00000,0.00000,0.00000,0.00000,0.00000,0.00000,0.00000,0.86750,0.92138,0.87566,-0.18012,0.11912,-0.66978,0.09754,0.06933,0.11273,-0.00638,0.06811,0.28054,0.0000,,,,0.0022,,,,,,"[1.000, 0.000, 1.000, 0.000, 1.000, 0.000]",0x101010,2.3450,3,0,-0.002172,0.002261,0.009551,0.0000,NO
47,2.3950,2.3950,0.0500,0.050,APPROACHING,0,862.62,917.85,869.95,10.43,-6.87,37.55,0.86262,0.91785,0.86995,0.18212,-0.11994,0.65541,-0.09798,-0.07181,-0.11566,0.00509,-0.06677,-0.27486,0.00000,0.00000,0.00000,0.00000,0.00000,0.00000,0.00000,0.00000,0.00000,0.00000,0.00000,0.00000,0.86262,0.91785,0.86995,-0.18212,0.11994,-0.65541,0.09798,0.07181,0.11566,-0.00509,0.06677,0.27486,0.0000,,,,0.0021,,,,,,"[1.000, 0.000, 1.000, 0.000, 1.000, 0.000]",0x101010,2.3950,3,0,-0.002152,0.002293,0.009429,0.0000,NO
48,2.4450,2.4450,0.0500,0.050,APPROACHING,0,857.71,914.20,864.09,10.54,-6.92,36.75,0.85771,0.91420,0.86409,0.18404,-0.12071,0.64133,-0.09846,-0.07427,-0.11860,0.00381,-0.06541,-0.26926,0.00000,0.00000,0.00000,0.00000,0.00000,0.00000,0.00000,0.00000,0.00000,0.00000,0.00000,0.00000,0.85771,0.91420,0.86409,-0.18404,0.12071,-0.64133,0.09846,0.07427,0.11860,-0.00381,0.06541,0.26926,0.0000,,,,0.0021,,,,,,"[1.000, 0.000, 1.000, 0.000, 1.000, 0.000]",0x101010,2.4450,3,0,-0.002119,0.002304,0.009268,0.0000,NO
49,2.4950,2.4950,0.0500,0.050,APPROACHING,0,852.77,910.42,858.09,10.65,-6.96,35.96,0.85277,0.91042,0.85809,0.18586,-0.12144,0.62754,-0.09897,-0.07673,-0.12155,0.00255,-0.06404,-0.26375,0.00000,0.00000,0.00000,0.00000,0.00000,0.00000,0.00000,0.00000,0.00000,0.00000,0.00000,0.00000,0.85277,0.91042,0.85809,-0.18586,0.12144,-0.62754,0.09897,0.07673,0.12155,-0.00255,0.06404,0.26375,0.0000,,,,0.0021,,,,,,"[1.000, 0.000, 1.000, 0.000, 1.000, 0.000]",0x101010,2.4950,3,0,-0.002082,0.002306,0.009091,0.0000,NO
50,2.5450,2.5450,0.0500,0.050,APPROACHING,0,847.81,906.53,851.94,10.75,-7.00,35.18,0.84781,0.90653,0.85194,0.18760,-0.12213,0.61403,-0.09951,-0.07916,-0.12450,0.00131,-0.06267,-0.25834,0.00000,0.00000,0.00000,0.00000,0.00000,0.00000,0.00000,0.00000,0.00000,0.00000,0.00000,0.00000,0.84781,0.90653,0.85194,-0.18760,0.12213,-0.61403,0.09951,0.07916,0.12450,-0.00131,0.06267,0.25834,0.0000,,,,0.0021,,,,,,"[1.000, 0.000, 1.000, 0.000, 1.000, 0.000]",0x101010,2.5450,3,0,-0.002046,0.002308,0.008916,0.0000,NO
51,2.5950,2.5950,0.0500,0.050,APPROACHING,0,842.82,902.51,845.64,10.84,-7.03,34.42,0.84282,0.90251,0.84564,0.18925,-0.12278,0.60079,-0.10009,-0.08159,-0.12745,0.00009,-0.06130,-0.25304,0.00000,0.00000,0.00000,0.00000,0.00000,0.00000,0.00000,0.00000,0.00000,0.00000,0.00000,0.00000,0.84282,0.90251,0.84564,-0.18925,0.12278,-0.60079,0.10009,0.08159,0.12745,-0.00009,0.06130,0.25304,0.0000,,,,0.0022,,,,,,"[1.000, 0.000, 1.000, 0.000, 1.000, 0.000]",0x101010,2.5950,3,0,-0.002011,0.002311,0.008745,0.0000,NO
52,2.6450,2.6450,0.0500,0.050,APPROACHING,0,837.80,898.37,839.19,10.93,-7.07,33.68,0.83780,0.89837,0.83919,0.19082,-0.12339,0.58782,-0.10070,-0.08401,-0.13041,-0.00110,-0.05992,-0.24784,0.00000,0.00000,0.00000,0.00000,0.00000,0.00000,0.00000,0.00000,0.00000,0.00000,0.00000,0.00000,0.83780,0.89837,0.83919,-0.19082,0.12339,-0.58782,0.10070,0.08401,0.13041,0.00110,0.05992,0.24784,0.0000,,,,0.0052,,,,,,"[1.000, 0.000, 1.000, 0.000, 1.000, 0.000]",0x101010,2.6450,3,0,-0.002048,0.002415,0.008753,0.0000,NO
53,2.6950,2.6950,0.0500,0.050,APPROACHING,0,832.75,894.11,832.60,11.02,-7.10,32.95,0.83275,0.89411,0.83260,0.19230,-0.12396,0.57512,-0.10134,-0.08641,-0.13337,-0.00232,-0.05849,-0.24264,0.00000,0.00000,0.00000,0.00000,0.00000,0.00000,0.00000,0.00000,0.00000,0.00000,0.00000,0.00000,0.83275,0.89411,0.83260,-0.19230,0.12396,-0.57512,0.10134,0.08641,0.13337,0.00232,0.05849,0.24264,0.0000,,,,0.0021,,,,,,"[1.000, 0.000, 1.000, 0.000, 1.000, 0.000]",0x101010,2.6950,3,0,-0.001908,0.002261,0.008323,0.0000,NO
54,2.7450,2.7450,0.0500,0.050,APPROACHING,0,827.67,889.73,825.85,11.10,-7.13,32.24,0.82767,0.88973,0.82585,0.19370,-0.12449,0.56269,-0.10201,-0.08880,-0.13633,-0.00345,-0.05714,-0.23769,0.00000,0.00000,0.00000,0.00000,0.00000,0.00000,0.00000,0.00000,0.00000,0.00000,0.00000,0.00000,0.82767,0.88973,0.82585,-0.19370,0.12449,-0.56269,0.10201,0.08880,0.13633,0.00345,0.05714,0.23769,0.0000,,,,0.0021,,,,,,"[1.000, 0.000, 1.000, 0.000, 1.000, 0.000]",0x101010,2.7450,3,0,-0.001885,0.002273,0.008172,0.0000,NO
55,2.7950,2.7950,0.0500,0.050,APPROACHING,0,822.55,885.23,818.96,11.17,-7.16,31.54,0.82255,0.88523,0.81896,0.19501,-0.12499,0.55051,-0.10271,-0.09117,-0.13930,-0.00457,-0.05579,-0.23283,0.00000,0.00000,0.00000,0.00000,0.00000,0.00000,0.00000,0.00000,0.00000,0.00000,0.00000,0.00000,0.82255,0.88523,0.81896,-0.19501,0.12499,-0.55051,0.10271,0.09117,0.13930,0.00457,0.05579,0.23283,0.0000,,,,0.0021,,,,,,"[1.000, 0.000, 1.000, 0.000, 1.000, 0.000]",0x101010,2.7950,3,0,-0.001877,0.002305,0.008063,0.0000,NO
56,2.8450,2.8450,0.0500,0.050,APPROACHING,0,817.39,880.61,811.92,11.24,-7.19,30.86,0.81739,0.88061,0.81192,0.19624,-0.12546,0.53858,-0.10344,-0.09354,-0.14227,-0.00569,-0.05442,-0.22804,0.00000,0.00000,0.00000,0.00000,0.00000,0.00000,0.00000,0.00000,0.00000,0.00000,0.00000,0.00000,0.81739,0.88061,0.81192,-0.19624,0.12546,-0.53858,0.10344,0.09354,0.14227,0.00569,0.05442,0.22804,0.0000,,,,0.0021,,,,,,"[1.000, 0.000, 1.000, 0.000, 1.000, 0.000]",0x101010,2.8450,3,0,-0.001855,0.002315,0.007922,0.0000,NO
57,2.8950,2.8950,0.0500,0.050,APPROACHING,0,812.20,875.87,804.74,11.31,-7.21,30.19,0.81220,0.87587,0.80474,0.19740,-0.12588,0.52689,-0.10420,-0.09589,-0.14524,-0.00679,-0.05305,-0.22333,0.00000,0.00000,0.00000,0.00000,0.00000,0.00000,0.00000,0.00000,0.00000,0.00000,0.00000,0.00000,0.81220,0.87587,0.80474,-0.19740,0.12588,-0.52689,0.10420,0.09589,0.14524,0.00679,0.05305,0.22333,0.0000,,,,0.0032,,,,,,"[1.000, 0.000, 1.000, 0.000, 1.000, 0.000]",0x101010,2.8950,3,0,-0.001872,0.002380,0.007862,0.0000,NO
58,2.9450,2.9450,0.0500,0.050,APPROACHING,0,806.97,871.02,797.40,11.37,-7.24,29.53,0.80697,0.87102,0.79740,0.19847,-0.12628,0.51545,-0.10499,-0.09823,-0.14821,-0.00791,-0.05163,-0.21865,0.00000,0.00000,0.00000,0.00000,0.00000,0.00000,0.00000,0.00000,0.00000,0.00000,0.00000,0.00000,0.80697,0.87102,0.79740,-0.19847,0.12628,-0.51545,0.10499,0.09823,0.14821,0.00791,0.05163,0.21865,0.0000,,,,0.0021,,,,,,"[1.000, 0.000, 1.000, 0.000, 1.000, 0.000]",0x101010,2.9450,3,0,-0.001769,0.002274,0.007555,0.0000,NO
59,2.9950,2.9950,0.0500,0.050,APPROACHING,0,801.70,866.05,789.92,11.43,-7.26,28.89,0.80170,0.86605,0.78992,0.19946,-0.12664,0.50425,-0.10580,-0.10055,-0.15119,-0.00896,-0.05028,-0.21416,0.00000,0.00000,0.00000,0.00000,0.00000,0.00000,0.00000,0.00000,0.00000,0.00000,0.00000,0.00000,0.80170,0.86605,0.78992,-0.19946,0.12664,-0.50425,0.10580,0.10055,0.15119,0.00896,0.05028,0.21416,0.0000,,,,0.0021,,,,,,"[1.000, 0.000, 1.000, 0.000, 1.000, 0.000]",0x101010,2.9950,3,0,-0.001750,0.002282,0.007412,0.0000,NO
60,3.0450,3.0450,0.0500,0.050,APPROACHING,0,796.39,860.97,782.28,11.48,-7.27,28.26,0.79639,0.86097,0.78228,0.20037,-0.12696,0.49329,-0.10664,-0.10287,-0.15417,-0.01000,-0.04893,-0.20975,0.00000,0.00000,0.00000,0.00000,0.00000,0.00000,0.00000,0.00000,0.00000,0.00000,0.00000,0.00000,0.79639,0.86097,0.78228,-0.20037,0.12696,-0.49329,0.10664,0.10287,0.15417,0.01000,0.04893,0.20975,0.0000,,,,0.0032,,,,,,"[1.000, 0.000, 1.000, 0.000, 1.000, 0.000]",0x101010,3.0450,3,0,-0.001788,0.002370,0.007384,0.0000,NO
61,3.0950,3.0950,0.0500,0.050,APPROACHING,0,791.04,855.77,774.50,11.53,-7.29,27.65,0.79104,0.85577,0.77450,0.20121,-0.12725,0.48255,-0.10751,-0.10517,-0.15715,-0.01106,-0.04752,-0.20536,0.00000,0.00000,0.00000,0.00000,0.00000,0.00000,0.00000,0.00000,0.00000,0.00000,0.00000,0.00000,0.79104,0.85577,0.77450,-0.20121,0.12725,-0.48255,0.10751,0.10517,0.15715,0.01106,0.04752,0.20536,0.0000,,,,0.0030,,,,,,"[1.000, 0.000, 1.000, 0.000, 1.000, 0.000]",0x101010,3.0950,3,0,-0.001689,0.002266,0.007105,0.0000,NO
62,3.1450,3.1450,0.0500,0.050,APPROACHING,0,785.64,850.45,766.57,11.57,-7.31,27.05,0.78564,0.85045,0.76657,0.20196,-0.12751,0.47204,-0.10840,-0.10746,-0.16014,-0.01207,-0.04617,-0.20114,0.00000,0.00000,0.00000,0.00000,0.00000,0.00000,0.00000,0.00000,0.00000,0.00000,0.00000,0.00000,0.78564,0.85045,0.76657,-0.20196,0.12751,-0.47204,0.10840,0.10746,0.16014,0.01207,0.04617,0.20114,0.0000,,,,0.0032,,,,,,"[1.000, 0.000, 1.000, 0.000, 1.000, 0.000]",0x101010,3.1450,3,0,-0.001717,0.002335,0.007048,0.0000,NO
63,3.1950,3.1950,0.0500,0.050,APPROACHING,0,780.20,845.02,758.48,11.61,-7.32,26.46,0.78020,0.84502,0.75848,0.20264,-0.12774,0.46175,-0.10931,-0.10974,-0.16312,-0.01309,-0.04478,-0.19695,0.00000,0.00000,0.00000,0.00000,0.00000,0.00000,0.00000,0.00000,0.00000,0.00000,0.00000,0.00000,0.78020,0.84502,0.75848,-0.20264,0.12774,-0.46175,0.10931,0.10974,0.16312,0.01309,0.04478,0.19695,0.0000,,,,0.0021,,,,,,"[1.000, 0.000, 1.000, 0.000, 1.000, 0.000]",0x101010,3.1950,3,0,-0.001639,0.002258,0.006815,0.0000,NO
64,3.2450,3.2450,0.0500,0.050,APPROACHING,0,774.71,839.48,750.25,11.65,-7.33,25.88,0.77471,0.83948,0.75025,0.20325,-0.12794,0.45168,-0.11025,-0.11201,-0.16611,-0.01406,-0.04344,-0.19290,0.00000,0.00000,0.00000,0.00000,0.00000,0.00000,0.00000,0.00000,0.00000,0.00000,0.00000,0.00000,0.77471,0.83948,0.75025,-0.20325,0.12794,-0.45168,0.11025,0.11201,0.16611,0.01406,0.04344,0.19290,0.0000,,,,0.0031,,,,,,"[1.000, 0.000, 1.000, 0.000, 1.000, 0.000]",0x101010,3.2450,3,0,-0.001675,0.002334,0.006766,0.0000,NO
65,3.2950,3.2950,0.0500,0.050,APPROACHING,0,769.17,833.82,741.87,11.68,-7.34,25.31,0.76917,0.83382,0.74187,0.20378,-0.12810,0.44182,-0.11121,-0.11427,-0.16910,-0.01506,-0.04205,-0.18887,0.00000,0.00000,0.00000,0.00000,0.00000,0.00000,0.00000,0.00000,0.00000,0.00000,0.00000,0.00000,0.76917,0.83382,0.74187,-0.20378,0.12810,-0.44182,0.11121,0.11427,0.16910,0.01506,0.04205,0.18887,0.0000,,,,0.0032,,,,,,"[1.000, 0.000, 1.000, 0.000, 1.000, 0.000]",0x101010,3.2950,3,0,-0.001624,0.002292,0.006586,0.0000,NO
66,3.3450,3.3450,0.0500,0.050,APPROACHING,0,763.59,828.05,733.34,11.70,-7.35,24.76,0.76359,0.82805,0.73334,0.20424,-0.12823,0.43217,-0.11219,-0.11652,-0.17209,-0.01602,-0.04069,-0.18496,0.00000,0.00000,0.00000,0.00000,0.00000,0.00000,0.00000,0.00000,0.00000,0.00000,0.00000,0.00000,0.76359,0.82805,0.73334,-0.20424,0.12823,-0.43217,0.11219,0.11652,0.17209,0.01602,0.04069,0.18496,0.0000,,,,0.0021,,,,,,"[1.000, 0.000, 1.000, 0.000, 1.000, 0.000]",0x101010,3.3450,3,0,-0.001565,0.002238,0.006392,0.0000,NO
67,3.3950,3.3950,0.0500,0.050,APPROACHING,0,757.95,822.17,724.67,11.72,-7.35,24.22,0.75795,0.82217,0.72467,0.20462,-0.12834,0.42272,-0.11319,-0.11875,-0.17507,-0.01695,-0.03936,-0.18116,0.00000,0.00000,0.00000,0.00000,0.00000,0.00000,0.00000,0.00000,0.00000,0.00000,0.00000,0.00000,0.75795,0.82217,0.72467,-0.20462,0.12834,-0.42272,0.11319,0.11875,0.17507,0.01695,0.03936,0.18116,0.0000,,,,0.0031,,,,,,"[1.000, 0.000, 1.000, 0.000, 1.000, 0.000]",0x101010,3.3950,3,0,-0.001614,0.002325,0.006357,0.0000,NO
68,3.4450,3.4450,0.0500,0.050,APPROACHING,0,752.27,816.17,715.84,11.74,-7.36,23.69,0.75227,0.81617,0.71584,0.20493,-0.12841,0.41347,-0.11421,-0.12098,-0.17807,-0.01791,-0.03798,-0.17738,0.00000,0.00000,0.00000,0.00000,0.00000,0.00000,0.00000,0.00000,0.00000,0.00000,0.00000,0.00000,0.75227,0.81617,0.71584,-0.20493,0.12841,-0.41347,0.11421,0.12098,0.17807,0.01791,0.03798,0.17738,0.0000,,,,0.0021,,,,,,"[1.000, 0.000, 1.000, 0.000, 1.000, 0.000]",0x101010,3.4450,3,0,-0.001530,0.002235,0.006138,0.0000,NO
69,3.4950,3.4950,0.0500,0.050,APPROACHING,0,746.53,810.07,706.86,11.76,-7.36,23.17,0.74653,0.81007,0.70686,0.20517,-0.12845,0.40443,-0.11526,-0.12319,-0.18106,-0.01882,-0.03665,-0.17373,0.00000,0.00000,0.00000,0.00000,0.00000,0.00000,0.00000,0.00000,0.00000,0.00000,0.00000,0.00000,0.74653,0.81007,0.70686,-0.20517,0.12845,-0.40443,0.11526,0.12319,0.18106,0.01882,0.03665,0.17373,0.0000,,,,0.0032,,,,,,"[1.000, 0.000, 1.000, 0.000, 1.000, 0.000]",0x101010,3.4950,3,0,-0.001569,0.002308,0.006088,0.0000,NO
70,3.5450,3.5450,0.0500,0.050,APPROACHING,0,740.74,803.85,697.73,11.77,-7.36,22.66,0.74074,0.80385,0.69773,0.20534,-0.12845,0.39557,-0.11632,-0.12540,-0.18405,-0.01976,-0.03528,-0.17011,0.00000,0.00000,0.00000,0.00000,0.00000,0.00000,0.00000,0.00000,0.00000,0.00000,0.00000,0.00000,0.74074,0.80385,0.69773,-0.20534,0.12845,-0.39557,0.11632,0.12540,0.18405,0.01976,0.03528,0.17011,0.0000,,,,0.0032,,,,,,"[1.000, 0.000, 1.000, 0.000, 1.000, 0.000]",0x101010,3.5450,3,0,-0.001522,0.002266,0.005927,0.0000,NO
71,3.5950,3.5950,0.0500,0.050,APPROACHING,0,734.90,797.53,688.45,11.77,-7.36,22.17,0.73490,0.79753,0.68845,0.20544,-0.12843,0.38691,-0.11740,-0.12759,-0.18704,-0.02066,-0.03393,-0.16658,0.00000,0.00000,0.00000,0.00000,0.00000,0.00000,0.00000,0.00000,0.00000,0.00000,0.00000,0.00000,0.73490,0.79753,0.68845,-0.20544,0.12843,-0.38691,0.11740,0.12759,0.18704,0.02066,0.03393,0.16658,0.0000,,,,0.0032,,,,,,"[1.000, 0.000, 1.000, 0.000, 1.000, 0.000]",0x101010,3.5950,3,0,-0.001500,0.002255,0.005796,0.0000,NO
72,3.6450,3.6450,0.0500,0.050,APPROACHING,0,729.00,791.10,679.03,11.77,-7.36,21.68,0.72900,0.79110,0.67903,0.20547,-0.12838,0.37843,-0.11851,-0.12978,-0.19003,-0.02155,-0.03259,-0.16314,0.00000,0.00000,0.00000,0.00000,0.00000,0.00000,0.00000,0.00000,0.00000,0.00000,0.00000,0.00000,0.72900,0.79110,0.67903,-0.20547,0.12838,-0.37843,0.11851,0.12978,0.19003,0.02155,0.03259,0.16314,0.0000,,,,0.0063,,,,,,"[1.000, 0.000, 1.000, 0.000, 1.000, 0.000]",0x101010,3.6450,3,0,-0.001512,0.002290,0.005717,0.0000,NO
73,3.6950,3.6950,0.0500,0.050,APPROACHING,0,723.05,784.55,669.45,11.77,-7.35,21.21,0.72305,0.78455,0.66945,0.20544,-0.12829,0.37013,-0.11963,-0.13195,-0.19302,-0.02245,-0.03123,-0.15974,0.00000,0.00000,0.00000,0.00000,0.00000,0.00000,0.00000,0.00000,0.00000,0.00000,0.00000,0.00000,0.72305,0.78455,0.66945,-0.20544,0.12829,-0.37013,0.11963,0.13195,0.19302,0.02245,0.03123,0.15974,0.0000,,,,0.0031,,,,,,"[1.000, 0.000, 1.000, 0.000, 1.000, 0.000]",0x101010,3.6950,3,0,-0.001442,0.002211,0.005520,0.0000,NO
74,3.7450,3.7450,0.0500,0.050,APPROACHING,0,717.04,777.90,659.72,11.76,-7.34,20.74,0.71704,0.77790,0.65972,0.20533,-0.12818,0.36201,-0.12077,-0.13412,-0.19601,-0.02331,-0.02992,-0.15646,0.00000,0.00000,0.00000,0.00000,0.00000,0.00000,0.00000,0.00000,0.00000,0.00000,0.00000,0.00000,0.71704,0.77790,0.65972,-0.20533,0.12818,-0.36201,0.12077,0.13412,0.19601,0.02331,0.02992,0.15646,0.0000,,,,0.0021,,,,,,"[1.000, 0.000, 1.000, 0.000, 1.000, 0.000]",0x101010,3.7450,3,0,-0.001410,0.002186,0.005390,0.0000,NO
75,3.7950,3.7950,0.0500,0.050,APPROACHING,0,710.97,771.14,649.85,11.75,-7.34,20.29,0.71097,0.77114,0.64985,0.20516,-0.12803,0.35407,-0.12192,-0.13628,-0.19901,-0.02415,-0.02862,-0.15325,0.00000,0.00000,0.00000,0.00000,0.00000,0.00000,0.00000,0.00000,0.00000,0.00000,0.00000,0.00000,0.71097,0.77114,0.64985,-0.20516,0.12803,-0.35407,0.12192,0.13628,0.19901,0.02415,0.02862,0.15325,0.0000,,,,0.0032,,,,,,"[1.000, 0.000, 1.000, 0.000, 1.000, 0.000]",0x101010,3.7950,3,0,-0.001476,0.002284,0.005368,0.0000,NO
76,3.8450,3.8450,0.0500,0.050,APPROACHING,0,704.85,764.27,639.82,11.74,-7.33,19.84,0.70485,0.76427,0.63982,0.20492,-0.12786,0.34630,-0.12310,-0.13843,-0.20200,-0.02503,-0.02726,-0.15006,0.00000,0.00000,0.00000,0.00000,0.00000,0.00000,0.00000,0.00000,0.00000,0.00000,0.00000,0.00000,0.70485,0.76427,0.63982,-0.20492,0.12786,-0.34630,0.12310,0.13843,0.20200,0.02503,0.02726,0.15006,0.0000,,,,0.0043,,,,,,"[1.000, 0.000, 1.000, 0.000, 1.000, 0.000]",0x101010,3.8450,3,0,-0.001436,0.002249,0.005236,0.0000,NO
77,3.8950,3.8950,0.0500,0.050,APPROACHING,0,698.66,757.30,629.65,11.72,-7.31,19.41,0.69866,0.75730,0.62965,0.20462,-0.12765,0.33870,-0.12429,-0.14057,-0.20499,-0.02588,-0.02593,-0.14695,0.00000,0.00000,0.00000,0.00000,0.00000,0.00000,0.00000,0.00000,0.00000,0.00000,0.00000,0.00000,0.69866,0.75730,0.62965,-0.20462,0.12765,-0.33870,0.12429,0.14057,0.20499,0.02588,0.02593,0.14695,0.0000,,,,0.0031,,,,,,"[1.000, 0.000, 1.000, 0.000, 1.000, 0.000]",0x101010,3.8950,3,0,-0.001387,0.002195,0.005079,0.0000,NO
78,3.9450,3.9450,0.0500,0.050,APPROACHING,0,692.42,750.22,619.33,11.70,-7.30,18.98,0.69242,0.75022,0.61933,0.20425,-0.12741,0.33126,-0.12549,-0.14271,-0.20797,-0.02671,-0.02462,-0.14393,0.00000,0.00000,0.00000,0.00000,0.00000,0.00000,0.00000,0.00000,0.00000,0.00000,0.00000,0.00000,0.69242,0.75022,0.61933,-0.20425,0.12741,-0.33126,0.12549,0.14271,0.20797,0.02671,0.02462,0.14393,0.0000,,,,0.0042,,,,,,"[1.000, 0.000, 1.000, 0.000, 1.000, 0.000]",0x101010,3.9450,3,0,-0.001407,0.002233,0.005011,0.0000,NO
79,3.9950,3.9950,0.0500,0.050,APPROACHING,0,686.11,743.03,608.85,11.68,-7.28,18.56,0.68611,0.74303,0.60885,0.20381,-0.12714,0.32398,-0.12672,-0.14483,-0.21096,-0.02754,-0.02330,-0.14095,0.00000,0.00000,0.00000,0.00000,0.00000,0.00000,0.00000,0.00000,0.00000,0.00000,0.00000,0.00000,0.68611,0.74303,0.60885,-0.20381,0.12714,-0.32398,0.12672,0.14483,0.21096,0.02754,0.02330,0.14095,0.0000,,,,0.0032,,,,,,"[1.000, 0.000, 1.000, 0.000, 1.000, 0.000]",0x101010,3.9950,3,0,-0.001360,0.002183,0.004869,0.0000,NO
80,4.0450,4.0450,0.0500,0.050,APPROACHING,0,679.75,735.73,598.23,11.65,-7.27,18.16,0.67975,0.73573,0.59823,0.20332,-0.12684,0.31687,-0.12796,-0.14695,-0.21395,-0.02835,-0.02200,-0.13805,0.00000,0.00000,0.00000,0.00000,0.00000,0.00000,0.00000,0.00000,0.00000,0.00000,0.00000,0.00000,0.67975,0.73573,0.59823,-0.20332,0.12684,-0.31687,0.12796,0.14695,0.21395,0.02835,0.02200,0.13805,0.0000,,,,0.0032,,,,,,"[1.000, 0.000, 1.000, 0.000, 1.000, 0.000]",0x101010,4.0450,3,0,-0.001361,0.002195,0.004781,0.0000,NO
81,4.0950,4.0950,0.0500,0.050,APPROACHING,0,673.32,728.33,587.46,11.62,-7.25,17.76,0.67332,0.72833,0.58746,0.20276,-0.12651,0.30990,-0.12921,-0.14906,-0.21693,-0.02916,-0.02069,-0.13521,0.00000,0.00000,0.00000,0.00000,0.00000,0.00000,0.00000,0.00000,0.00000,0.00000,0.00000,0.00000,0.67332,0.72833,0.58746,-0.20276,0.12651,-0.30990,0.12921,0.14906,0.21693,0.02916,0.02069,0.13521,0.0000,,,,0.0031,,,,,,"[1.000, 0.000, 1.000, 0.000, 1.000, 0.000]",0x101010,4.0950,3,0,-0.001351,0.002191,0.004683,0.0000,NO
82,4.1450,4.1450,0.0500,0.050,APPROACHING,0,666.82,720.83,576.54,11.58,-7.23,17.37,0.66682,0.72083,0.57654,0.20214,-0.12614,0.30309,-0.13048,-0.15117,-0.21992,-0.02996,-0.01939,-0.13243,0.00000,0.00000,0.00000,0.00000,0.00000,0.00000,0.00000,0.00000,0.00000,0.00000,0.00000,0.00000,0.66682,0.72083,0.57654,-0.20214,0.12614,-0.30309,0.13048,0.15117,0.21992,0.02996,0.01939,0.13243,0.0000,,,,0.0042,,,,,,"[1.000, 0.000, 1.000, 0.000, 1.000, 0.000]",0x101010,4.1450,3,0,-0.001356,0.002207,0.004603,0.0000,NO
83,4.1950,4.1950,0.0500,0.050,APPROACHING,0,660.27,713.22,565.47,11.54,-7.20,16.98,0.66027,0.71322,0.56547,0.20146,-0.12575,0.29643,-0.13176,-0.15327,-0.22290,-0.03077,-0.01808,-0.12969,0.00000,0.00000,0.00000,0.00000,0.00000,0.00000,0.00000,0.00000,0.00000,0.00000,0.00000,0.00000,0.66027,0.71322,0.56547,-0.20146,0.12575,-0.29643,0.13176,0.15327,0.22290,0.03077,0.01808,0.12969,0.0000,,,,0.0022,,,,,,"[1.000, 0.000, 1.000, 0.000, 1.000, 0.001]",0x101010,4.1950,3,0,-0.001278,0.002116,0.004444,0.0000,NO
84,4.2450,4.2450,0.0500,0.050,APPROACHING,0,653.65,705.50,554.25,11.50,-7.18,16.61,0.65365,0.70550,0.55425,0.20072,-0.12532,0.28992,-0.13306,-0.15536,-0.22588,-0.03153,-0.01682,-0.12705,0.00000,0.00000,0.00000,0.00000,0.00000,0.00000,0.00000,0.00000,0.00000,0.00000,0.00000,0.00000,0.65365,0.70550,0.55425,-0.20072,0.12532,-0.28992,0.13306,0.15536,0.22588,0.03153,0.01682,0.12705,0.0000,,,,0.0021,,,,,,"[1.000, 0.000, 1.000, 0.000, 0.759, 0.185]",0x101010,4.2450,4,2,-0.001292,0.002138,0.004368,0.0000,NO
85,4.2950,4.2950,0.0500,0.050,APPROACHING,0,646.96,697.67,542.93,11.45,-7.15,16.25,0.64696,0.69767,0.54293,0.19992,-0.12486,0.28355,-0.13451,-0.15795,-0.22668,-0.03230,-0.01555,-0.12445,0.00000,0.00000,0.00000,0.00000,0.00000,0.00000,0.00000,0.00000,0.00000,0.00000,0.00000,0.00000,0.64696,0.69767,0.54293,-0.19992,0.12486,-0.28355,0.13451,0.15795,0.22668,0.03230,0.01555,0.12445,0.0000,,,,0.0031,,,,,,"[1.000, 0.000, 1.000, 0.000, 0.426, 0.417]",0x101000,4.2950,4,2,-0.001348,0.002217,0.004347,0.0000,NO
86,4.3450,4.3450,0.0500,0.050,APPROACHING,0,640.20,689.71,531.58,11.41,-7.13,15.89,0.64020,0.68971,0.53158,0.19906,-0.12437,0.27731,-0.13598,-0.16053,-0.22748,-0.03310,-0.01423,-0.12187,0.00000,0.00000,0.00000,0.00000,0.00000,0.00000,0.00000,0.00000,0.00000,0.00000,0.00000,0.00000,0.64020,0.68971,0.53158,-0.19906,0.12437,-0.27731,0.13598,0.16053,0.22748,0.03310,0.01423,0.12187,0.0000,,,,0.0041,,,,,,"[1.000, 0.000, 1.000, 0.000, 0.000, 1.000]",0x101001,4.3450,3,2,-0.001257,0.002116,0.004214,0.0000,NO
87,4.3950,4.3950,0.0500,0.050,APPROACHING,0,633.36,681.60,520.24,11.35,-7.10,15.54,0.63336,0.68160,0.52024,0.19814,-0.12385,0.27122,-0.13761,-0.16363,-0.22600,-0.03385,-0.01298,-0.11936,0.00000,0.00000,0.00000,0.00000,0.00000,0.00000,0.00000,0.00000,0.00000,0.00000,0.00000,0.00000,0.63336,0.68160,0.52024,-0.19814,0.12385,-0.27122,0.13761,0.16363,0.22600,0.03385,0.01298,0.11936,0.0000,,,,0.0043,,,,,,"[1.000, 0.000, 1.000, 0.000, 0.000, 1.000]",0x101001,4.3950,3,0,-0.001224,0.002089,0.004143,0.0000,NO
88,4.4450,4.4450,0.0500,0.050,APPROACHING,0,626.44,673.34,508.98,11.30,-7.06,15.20,0.62644,0.67334,0.50898,0.19716,-0.12329,0.26526,-0.13926,-0.16671,-0.22452,-0.03458,-0.01173,-0.11690,0.00000,0.00000,0.00000,0.00000,0.00000,0.00000,0.00000,0.00000,0.00000,0.00000,0.00000,0.00000,0.62644,0.67334,0.50898,-0.19716,0.12329,-0.26526,0.13926,0.16671,0.22452,0.03458,0.01173,0.11690,0.0000,,,,0.0042,,,,,,"[1.000, 0.000, 1.000, 0.000, 0.000, 1.000]",0x101001,4.4450,3,0,-0.001160,0.002019,0.004044,0.0000,NO
89,4.4950,4.4950,0.0500,0.050,APPROACHING,0,619.43,664.93,497.79,11.24,-7.03,14.86,0.61943,0.66493,0.49779,0.19613,-0.12271,0.25944,-0.14093,-0.16978,-0.22303,-0.03527,-0.01053,-0.11450,0.00000,0.00000,0.00000,0.00000,0.00000,0.00000,0.00000,0.00000,0.00000,0.00000,0.00000,0.00000,0.61943,0.66493,0.49779,-0.19613,0.12271,-0.25944,0.14093,0.16978,0.22303,0.03527,0.01053,0.11450,0.0000,,,,0.0021,,,,,,"[1.000, 0.000, 1.000, 0.000, 0.000, 1.000]",0x101001,4.4950,3,0,-0.001079,0.001929,0.003925,0.0000,NO
90,4.5450,4.5450,0.0500,0.050,APPROACHING,0,612.34,656.36,486.68,11.18,-7.00,14.54,0.61234,0.65636,0.48668,0.19505,-0.12210,0.25374,-0.14261,-0.17284,-0.22154,-0.03591,-0.00939,-0.11216,0.00000,0.00000,0.00000,0.00000,0.00000,0.00000,0.00000,0.00000,0.00000,0.00000,0.00000,0.00000,0.61234,0.65636,0.48668,-0.19505,0.12210,-0.25374,0.14261,0.17284,0.22154,0.03591,0.00939,0.11216,0.0000,,,,0.0032,,,,,,"[1.000, 0.000, 1.000, 0.000, 0.000, 1.000]",0x101001,4.5450,3,0,-0.001099,0.001964,0.003910,0.0000,NO
91,4.5950,4.5950,0.0500,0.050,APPROACHING,0,605.17,647.65,475.64,11.11,-6.96,14.22,0.60517,0.64765,0.47564,0.19391,-0.12146,0.24817,-0.14431,-0.17589,-0.22004,-0.03656,-0.00822,-0.10984,0.00000,0.00000,0.00000,0.00000,0.00000,0.00000,0.00000,0.00000,0.00000,0.00000,0.00000,0.00000,0.60517,0.64765,0.47564,-0.19391,0.12146,-0.24817,0.14431,0.17589,0.22004,0.03656,0.00822,0.10984,0.0000,,,,0.0021,,,,,,"[1.000, 0.000, 1.000, 0.000, 0.000, 1.000]",0x101001,4.5950,3,0,-0.001002,0.001854,0.003783,0.0000,NO
92,4.6450,4.6450,0.0500,0.050,APPROACHING,0,597.91,638.78,464.67,11.04,-6.92,13.91,0.59791,0.63878,0.46467,0.19273,-0.12079,0.24272,-0.14603,-0.17893,-0.21854,-0.03716,-0.00712,-0.10759,0.00000,0.00000,0.00000,0.00000,0.00000,0.00000,0.00000,0.00000,0.00000,0.00000,0.00000,0.00000,0.59791,0.63878,0.46467,-0.19273,0.12079,-0.24272,0.14603,0.17893,0.21854,0.03716,0.00712,0.10759,0.0000,,,,0.0032,,,,,,"[1.000, 0.000, 1.000, 0.000, 0.000, 1.000]",0x101001,4.6450,3,0,-0.001008,0.001872,0.003757,0.0000,NO
93,4.6950,4.6950,0.0500,0.050,APPROACHING,0,590.57,629.75,453.78,10.97,-6.88,13.60,0.59057,0.62975,0.45378,0.19149,-0.12009,0.23739,-0.14777,-0.18196,-0.21703,-0.03776,-0.00601,-0.10535,0.00000,0.00000,0.00000,0.00000,0.00000,0.00000,0.00000,0.00000,0.00000,0.00000,0.00000,0.00000,0.59057,0.62975,0.45378,-0.19149,0.12009,-0.23739,0.14777,0.18196,0.21703,0.03776,0.00601,0.10535,0.0000,,,,0.0032,,,,,,"[1.000, 0.000, 1.000, 0.000, 0.000, 1.000]",0x101001,4.6950,3,0,-0.000941,0.001798,0.003661,0.0000,NO
94,4.7450,4.7450,0.0500,0.050,APPROACHING,0,583.13,620.58,442.97,10.90,-6.84,13.30,0.58313,0.62058,0.44297,0.19021,-0.11937,0.23218,-0.14952,-0.18497,-0.21552,-0.03832,-0.00494,-0.10318,0.00000,0.00000,0.00000,0.00000,0.00000,0.00000,0.00000,0.00000,0.00000,0.00000,0.00000,0.00000,0.58313,0.62058,0.44297,-0.19021,0.11937,-0.23218,0.14952,0.18497,0.21552,0.03832,0.00494,0.10318,0.0000,,,,0.0032,,,,,,"[1.000, 0.000, 1.000, 0.000, 0.000, 1.000]",0x101001,4.7450,3,0,-0.000898,0.001752,0.003583,0.0000,NO
95,4.7950,4.7950,0.0500,0.050,APPROACHING,0,575.61,611.26,432.23,10.82,-6.80,13.01,0.57561,0.61126,0.43223,0.18889,-0.11863,0.22709,-0.15129,-0.18797,-0.21400,-0.03885,-0.00390,-0.10105,0.00000,0.00000,0.00000,0.00000,0.00000,0.00000,0.00000,0.00000,0.00000,0.00000,0.00000,0.00000,0.57561,0.61126,0.43223,-0.18889,0.11863,-0.22709,0.15129,0.18797,0.21400,0.03885,0.00390,0.10105,0.0000,,,,0.0032,,,,,,"[1.000, 0.000, 1.000, 0.000, 0.000, 1.000]",0x101001,4.7950,3,0,-0.000859,0.001712,0.003513,0.0000,NO
96,4.8450,4.8450,0.0500,0.050,APPROACHING,0,568.00,601.78,421.57,10.74,-6.75,12.73,0.56800,0.60178,0.42157,0.18752,-0.11786,0.22211,-0.15307,-0.19096,-0.21248,-0.03936,-0.00288,-0.09896,0.00000,0.00000,0.00000,0.00000,0.00000,0.00000,0.00000,0.00000,0.00000,0.00000,0.00000,0.00000,0.56800,0.60178,0.42157,-0.18752,0.11786,-0.22211,0.15307,0.19096,0.21248,0.03936,0.00288,0.09896,0.0000,,,,0.0032,,,,,,"[1.000, 0.000, 1.000, 0.000, 0.000, 1.000]",0x101001,4.8450,3,0,-0.000820,0.001670,0.003443,0.0000,NO
97,4.8950,4.8950,0.0500,0.050,APPROACHING,0,560.31,592.16,410.98,10.66,-6.71,12.45,0.56031,0.59216,0.41098,0.18611,-0.11707,0.21725,-0.15486,-0.19394,-0.21095,-0.03985,-0.00189,-0.09691,0.00000,0.00000,0.00000,0.00000,0.00000,0.00000,0.00000,0.00000,0.00000,0.00000,0.00000,0.00000,0.56031,0.59216,0.41098,-0.18611,0.11707,-0.21725,0.15486,0.19394,0.21095,0.03985,0.00189,0.09691,0.0000,,,,0.0032,,,,,,"[1.000, 0.000, 1.000, 0.000, 0.000, 1.000]",0x101001,4.8950,3,0,-0.000782,0.001629,0.003374,0.0000,NO
98,4.9450,4.9450,0.0500,0.050,APPROACHING,0,552.52,582.39,400.47,10.58,-6.66,12.17,0.55252,0.58239,0.40047,0.18466,-0.11625,0.21249,-0.15667,-0.19691,-0.20942,-0.04032,-0.00092,-0.09490,0.00000,0.00000,0.00000,0.00000,0.00000,0.00000,0.00000,0.00000,0.00000,0.00000,0.00000,0.00000,0.55252,0.58239,0.40047,-0.18466,0.11625,-0.21249,0.15667,0.19691,0.20942,0.04032,0.00092,0.09490,0.0000,,,,0.0032,,,,,,"[1.000, 0.000, 1.000, 0.000, 0.000, 1.000]",0x101001,4.9450,3,0,-0.000744,0.001589,0.003306,0.0000,NO
99,4.9950,4.9950,0.0500,0.050,APPROACHING,0,544.64,572.47,390.04,10.49,-6.61,11.91,0.54464,0.57247,0.39004,0.18317,-0.11541,0.20784,-0.15850,-0.19987,-0.20788,-0.04076,0.00003,-0.09294,0.00000,0.00000,0.00000,0.00000,0.00000,0.00000,0.00000,0.00000,0.00000,0.00000,0.00000,0.00000,0.54464,0.57247,0.39004,-0.18317,0.11541,-0.20784,0.15850,0.19987,0.20788,0.04076,-0.00003,0.09294,0.0000,,,,0.0032,,,,,,"[1.000, 0.000, 1.000, 0.000, 0.000, 1.000]",0x101001,4.9950,3,0,-0.000708,0.001549,0.003240,0.0000,NO
100,5.0450,5.0450,0.0500,0.050,APPROACHING,0,536.67,562.40,379.69,10.41,-6.56,11.65,0.53667,0.56240,0.37969,0.18164,-0.11456,0.20329,-0.16033,-0.20282,-0.20634,-0.04118,0.00095,-0.09101,0.00000,0.00000,0.00000,0.00000,0.00000,0.00000,0.00000,0.00000,0.00000,0.00000,0.00000,0.00000,0.53667,0.56240,0.37969,-0.18164,0.11456,-0.20329,0.16033,0.20282,0.20634,0.04118,-0.00095,0.09101,0.0000,,,,0.0032,,,,,,"[1.000, 0.000, 1.000, 0.000, 0.000, 1.000]",0x101001,5.0450,3,0,-0.000672,0.001510,0.003175,0.0000,NO
101,5.0950,5.0950,0.0500,0.050,APPROACHING,0,528.61,552.19,369.41,10.32,-6.51,11.39,0.52861,0.55219,0.36941,0.18008,-0.11368,0.19884,-0.16218,-0.20575,-0.20479,-0.04158,0.00184,-0.08913,0.00000,0.00000,0.00000,0.00000,0.00000,0.00000,0.00000,0.00000,0.00000,0.00000,0.00000,0.00000,0.52861,0.55219,0.36941,-0.18008,0.11368,-0.19884,0.16218,0.20575,0.20479,0.04158,-0.00184,0.08913,0.0000,,,,0.0044,,,,,,"[1.000, 0.000, 1.000, 0.000, 0.000, 1.000]",0x101001,5.0950,3,0,-0.000647,0.001486,0.003125,0.0000,NO
102,5.1450,5.1450,0.0500,0.050,APPROACHING,0,520.45,541.83,359.21,10.23,-6.46,11.14,0.52045,0.54183,0.35921,0.17848,-0.11278,0.19449,-0.16405,-0.20868,-0.20323,-0.04196,0.00273,-0.08727,0.00000,0.00000,0.00000,0.00000,0.00000,0.00000,0.00000,0.00000,0.00000,0.00000,0.00000,0.00000,0.52045,0.54183,0.35921,-0.17848,0.11278,-0.19449,0.16405,0.20868,0.20323,0.04196,-0.00273,0.08727,0.0000,,,,0.0021,,,,,,"[1.000, 0.000, 1.000, 0.000, 0.000, 1.000]",0x101001,5.1450,3,0,-0.000574,0.001397,0.003019,0.0000,NO
103,5.1950,5.1950,0.0500,0.050,APPROACHING,0,512.20,531.32,349.08,10.13,-6.41,10.90,0.51220,0.53132,0.34908,0.17685,-0.11186,0.19025,-0.16592,-0.21159,-0.20167,-0.04231,0.00356,-0.08547,0.00000,0.00000,0.00000,0.00000,0.00000,0.00000,0.00000,0.00000,0.00000,0.00000,0.00000,0.00000,0.51220,0.53132,0.34908,-0.17685,0.11186,-0.19025,0.16592,0.21159,0.20167,0.04231,-0.00356,0.08547,0.0000,,,,0.0033,,,,,,"[1.000, 0.000, 1.000, 0.000, 0.000, 1.000]",0x101001,5.1950,3,0,-0.000590,0.001420,0.003003,0.0000,NO
104,5.2450,5.2450,0.0500,0.050,APPROACHING,0,503.86,520.67,339.04,10.04,-6.36,10.66,0.50386,0.52067,0.33904,0.17519,-0.11092,0.18609,-0.16781,-0.21449,-0.20010,-0.04266,0.00440,-0.08369,0.00000,0.00000,0.00000,0.00000,0.00000,0.00000,0.00000,0.00000,0.00000,0.00000,0.00000,0.00000,0.50386,0.52067,0.33904,-0.17519,0.11092,-0.18609,0.16781,0.21449,0.20010,0.04266,-0.00440,0.08369,0.0000,,,,0.0021,,,,,,"[1.000, 0.000, 1.000, 0.000, 0.000, 1.000]",0x101001,5.2450,3,0,-0.000517,0.001334,0.002908,0.0000,NO
105,5.2950,5.2950,0.0500,0.050,APPROACHING,0,495.42,509.87,329.07,9.94,-6.30,10.43,0.49542,0.50987,0.32907,0.17350,-0.10997,0.18203,-0.16971,-0.21738,-0.19853,-0.04296,0.00520,-0.08196,0.00000,0.00000,0.00000,0.00000,0.00000,0.00000,0.00000,0.00000,0.00000,0.00000,0.00000,0.00000,0.49542,0.50987,0.32907,-0.17350,0.10997,-0.18203,0.16971,0.21738,0.19853,0.04296,-0.00520,0.08196,0.0000,,,,0.0041,,,,,,"[1.000, 0.000, 1.000, 0.000, 0.000, 1.000]",0x101001,5.2950,3,0,-0.000526,0.001350,0.002889,0.0000,NO
106,5.3450,5.3450,0.0500,0.050,APPROACHING,0,486.89,498.93,319.19,9.84,-6.25,10.20,0.48689,0.49893,0.31919,0.17178,-0.10900,0.17806,-0.17162,-0.22026,-0.19695,-0.04328,0.00600,-0.08024,0.00000,0.00000,0.00000,0.00000,0.00000,0.00000,0.00000,0.00000,0.00000,0.00000,0.00000,0.00000,0.48689,0.49893,0.31919,-0.17178,0.10900,-0.17806,0.17162,0.22026,0.19695,0.04328,-0.00600,0.08024,0.0000,,,,0.0033,,,,,,"[1.000, 0.000, 0.847, 0.064, 0.000, 1.000]",0x101001,5.3450,4,2,-0.000474,0.001289,0.002814,0.0000,NO
107,5.3950,5.3950,0.0500,0.050,APPROACHING,0,478.25,487.90,309.39,9.74,-6.19,9.98,0.47825,0.48790,0.30939,0.17003,-0.10801,0.17418,-0.17395,-0.22101,-0.19499,-0.04356,0.00676,-0.07857,0.00000,0.00000,0.00000,0.00000,0.00000,0.00000,0.00000,0.00000,0.00000,0.00000,0.00000,0.00000,0.47825,0.48790,0.30939,-0.17003,0.10801,-0.17418,0.17395,0.22101,0.19499,0.04356,-0.00676,0.07857,0.0000,,,,0.0033,,,,,,"[1.000, 0.000, 0.382, 0.453, 0.000, 1.000]",0x100001,5.3950,4,2,-0.000436,0.001254,0.002755,0.0000,NO
108,5.4450,5.4450,0.0500,0.050,APPROACHING,0,469.49,476.83,299.69,9.64,-6.13,9.76,0.46949,0.47683,0.29969,0.16825,-0.10700,0.17038,-0.17629,-0.22175,-0.19303,-0.04382,0.00751,-0.07693,0.00000,0.00000,0.00000,0.00000,0.00000,0.00000,0.00000,0.00000,0.00000,0.00000,0.00000,0.00000,0.46949,0.47683,0.29969,-0.16825,0.10700,-0.17038,0.17629,0.22175,0.19303,0.04382,-0.00751,0.07693,0.0000,,,,0.0033,,,,,,"[1.000, 0.000, 0.000, 1.000, 0.000, 1.000]",0x100101,5.4450,3,2,-0.000395,0.001227,0.002701,0.0000,NO
109,5.4950,5.4950,0.0500,0.050,APPROACHING,0,460.61,465.78,290.09,9.54,-6.07,9.55,0.46061,0.46578,0.29009,0.16645,-0.10598,0.16668,-0.17903,-0.22040,-0.19071,-0.04405,0.00824,-0.07532,0.00000,0.00000,0.00000,0.00000,0.00000,0.00000,0.00000,0.00000,0.00000,0.00000,0.00000,0.00000,0.46061,0.46578,0.29009,-0.16645,0.10598,-0.16668,0.17903,0.22040,0.19071,0.04405,-0.00824,0.07532,0.0000,,,,0.0021,,,,,,"[1.000, 0.000, 0.000, 1.000, 0.000, 1.000]",0x100101,5.4950,3,0,-0.000333,0.001171,0.002626,0.0000,NO
110,5.5450,5.5450,0.0500,0.050,APPROACHING,0,451.59,454.79,280.62,9.43,-6.01,9.34,0.45159,0.45479,0.28062,0.16462,-0.10494,0.16305,-0.18175,-0.21904,-0.18839,-0.04425,0.00893,-0.07376,0.00000,0.00000,0.00000,0.00000,0.00000,0.00000,0.00000,0.00000,0.00000,0.00000,0.00000,0.00000,0.45159,0.45479,0.28062,-0.16462,0.10494,-0.16305,0.18175,0.21904,0.18839,0.04425,-0.00893,0.07376,0.0000,,,,0.0021,,,,,,"[1.000, 0.000, 0.000, 1.000, 0.000, 1.000]",0x100101,5.5450,3,0,-0.000298,0.001163,0.002585,0.0000,NO
111,5.5950,5.5950,0.0500,0.050,APPROACHING,0,442.43,443.87,271.25,9.33,-5.95,9.14,0.44243,0.44387,0.27125,0.16277,-0.10389,0.15951,-0.18447,-0.21766,-0.18608,-0.04443,0.00963,-0.07223,0.00000,0.00000,0.00000,0.00000,0.00000,0.00000,0.00000,0.00000,0.00000,0.00000,0.00000,0.00000,0.44243,0.44387,0.27125,-0.16277,0.10389,-0.15951,0.18447,0.21766,0.18608,0.04443,-0.00963,0.07223,0.0000,,,,0.0021,,,,,,"[1.000, 0.000, 0.000, 1.000, 0.000, 1.000]",0x100101,5.5950,3,0,-0.000257,0.001147,0.002542,0.0000,NO
112,5.6450,5.6450,0.0500,0.050,APPROACHING,0,433.14,433.02,262.01,9.22,-5.89,8.94,0.43314,0.43302,0.26201,0.16090,-0.10282,0.15604,-0.18718,-0.21627,-0.18376,-0.04458,0.01031,-0.07071,0.00000,0.00000,0.00000,0.00000,0.00000,0.00000,0.00000,0.00000,0.00000,0.00000,0.00000,0.00000,0.43314,0.43302,0.26201,-0.16090,0.10282,-0.15604,0.18718,0.21627,0.18376,0.04458,-0.01031,0.07071,0.0000,,,,0.0032,,,,,,"[1.000, 0.000, 0.000, 1.000, 0.000, 1.000]",0x100101,5.6450,3,0,-0.000232,0.001162,0.002524,0.0000,NO
113,5.6950,5.6950,0.0500,0.050,APPROACHING,0,423.71,422.25,252.88,9.11,-5.83,8.75,0.42371,0.42225,0.25288,0.15902,-0.10174,0.15265,-0.18989,-0.21486,-0.18144,-0.04472,0.01100,-0.06921,0.00000,0.00000,0.00000,0.00000,0.00000,0.00000,0.00000,0.00000,0.00000,0.00000,0.00000,0.00000,0.42371,0.42225,0.25288,-0.15902,0.10174,-0.15265,0.18989,0.21486,0.18144,0.04472,-0.01100,0.06921,0.0000,,,,0.0021,,,,,,"[0.580, 0.365, 0.000, 1.000, 0.000, 1.000]",0x100101,5.6950,4,2,-0.000155,0.001070,0.002427,0.0000,NO
114,5.7450,5.7450,0.0500,0.050,APPROACHING,0,414.21,411.55,243.87,9.00,-5.77,8.56,0.41421,0.41155,0.24387,0.15711,-0.10064,0.14934,-0.19047,-0.21312,-0.17891,-0.04481,0.01163,-0.06777,0.00000,0.00000,0.00000,0.00000,0.00000,0.00000,0.00000,0.00000,0.00000,0.00000,0.00000,0.00000,0.41421,0.41155,0.24387,-0.15711,0.10064,-0.14934,0.19047,0.21312,0.17891,0.04481,-0.01163,0.06777,0.0000,,,,0.0032,,,,,,"[0.000, 1.000, 0.000, 1.000, 0.000, 1.000]",0x010101,5.7450,3,2,-0.000137,0.001080,0.002406,0.0000,NO
115,5.7950,5.7950,0.0500,0.050,APPROACHING,0,404.72,400.94,234.99,8.89,-5.70,8.37,0.40472,0.40094,0.23499,0.15519,-0.09953,0.14611,-0.18887,-0.21105,-0.17616,-0.04489,0.01228,-0.06634,0.00000,0.00000,0.00000,0.00000,0.00000,0.00000,0.00000,0.00000,0.00000,0.00000,0.00000,0.00000,0.40472,0.40094,0.23499,-0.15519,0.09953,-0.14611,0.18887,0.21105,0.17616,0.04489,-0.01228,0.06634,0.0000,,,,0.0021,,,,,,"[0.000, 1.000, 0.000, 1.000, 0.000, 1.000]",0x010101,5.7950,3,0,-0.000080,0.001001,0.002329,0.0000,NO
