Step,MPC_Start_Time,Control_Time,Actual_Time_Interval,CONTROL_DT,Mission_Phase,Waypoint_Number,Telemetry_X_mm,Telemetry_Y_mm,Telemetry_Z_mm,Telemetry_Roll_deg,Telemetry_Pitch_deg,Telemetry_Yaw_deg,Current_X,Current_Y,Current_Z,Current_Roll,Current_Pitch,Current_Yaw,Current_VX,Current_VY,Current_VZ,Current_WX,Current_WY,Current_WZ,Target_X,Target_Y,Target_Z,Target_Roll,Target_Pitch,Target_Yaw,Target_VX,Target_VY,Target_VZ,Target_WX,Target_WY,Target_WZ,Error_X,Error_Y,Error_Z,Error_Roll,Error_Pitch,Error_Yaw,Error_VX,Error_VY,Error_VZ,Error_WX,Error_WY,Error_WZ,MPC_Computation_Time,MPC_Status,MPC_Solver,MPC_Solver_Time_Limit,MPC_Solve_Time,MPC_Time_Limit_Exceeded,MPC_Fallback_Used,MPC_Objective,MPC_Iterations,MPC_Optimality_Gap,Command_Vector,Command_Hex,Command_Sent_Time,Total_Active_Thrusters,Thruster_Switches,RW_Torque_X,RW_Torque_Y,RW_Torque_Z,Total_MPC_Loop_Time,Timing_Violation
0,0.0450,0.0450,0.0500,0.050,APPROACHING,0,1000.00,1000.00,0.00,0.00,0.00,0.00,1.00000,1.00000,0.00000,0.00000,0.00000,0.00000,0.00000,0.00000,0.00000,0.00000,0.00000,0.00000,0.00000,0.00000,0.00000,0.00000,0.00000,0.00000,0.00000,0.00000,0.00000,0.00000,0.00000,0.00000,1.00000,1.00000,0.00000,0.00000,0.00000,0.00000,0.00000,0.00000,0.00000,0.00000,0.00000,0.00000,0.0000,,,,0.0177,,,,,,"[1.000, 1.000, 0.000, 0.000, 0.000, 0.000, 1.000, 1.000]",0x11000011,0.0450,4,0,0.000000,0.000000,0.000386,0.0000,NO
1,0.0950,0.0950,0.0500,0.050,APPROACHING,0,999.89,999.88,0.00,0.00,0.00,0.00,0.99989,0.99988,0.00000,0.00000,0.00000,0.00000,-0.00436,-0.00476,0.00000,0.00000,0.00000,0.00000,0.00000,0.00000,0.00000,0.00000,0.00000,0.00000,0.00000,0.00000,0.00000,0.00000,0.00000,0.00000,0.99989,0.99988,0.00000,0.00000,0.00000,-0.00000,0.00436,0.00476,0.00000,0.00000,0.00000,-0.00000,0.0000,,,,0.0067,,,,,,"[0.999, 0.999, 0.002, 0.002, 0.001, 0.001, 0.998, 0.998]",0x11000011,0.0950,4,0,0.000000,0.000000,0.000375,0.0000,NO
2,0.1450,0.1450,0.0500,0.050,APPROACHING,0,999.56,999.52,0.00,0.00,0.00,0.00,0.99956,0.99952,0.00000,0.00000,0.00000,0.00000,-0.00872,-0.00951,0.00000,0.00000,0.00000,-0.00000,0.00000,0.00000,0.00000,0.00000,0.00000,0.00000,0.00000,0.00000,0.00000,0.00000,0.00000,0.00000,0.99956,0.99952,0.00000,0.00000,0.00000,-0.00000,0.00872,0.00951,0.00000,0.00000,0.00000,0.00000,0.0000,,,,0.0053,,,,,,"[0.998, 0.999, 0.002, 0.002, 0.002, 0.002, 0.998, 0.998]",0x11000011,0.1450,4,0,0.000000,0.000000,0.000387,0.0000,NO
3,0.1950,0.1950,0.0500,0.050,APPROACHING,0,999.02,998.93,0.00,0.00,0.00,-0.00,0.99902,0.99893,0.00000,0.00000,0.00000,-0.00000,-0.01308,-0.01427,0.00000,0.00000,0.00000,-0.00000,0.00000,0.00000,0.00000,0.00000,0.00000,0.00000,0.00000,0.00000,0.00000,0.00000,0.00000,0.00000,0.99902,0.99893,0.00000,0.00000,0.00000,0.00000,0.01308,0.01427,0.00000,0.00000,0.00000,0.00000,0.0000,,,,0.0065,,,,,,"[0.999, 0.999, 0.001, 0.001, 0.002, 0.001, 0.999, 0.999]",0x11000011,0.1950,4,0,0.000000,0.000000,0.000381,0.0000,NO
4,0.2450,0.2450,0.0500,0.050,APPROACHING,0,998.26,998.10,0.00,0.00,0.00,-0.00,0.99826,0.99810,0.00000,0.00000,0.00000,-0.00000,-0.01744,-0.01902,0.00000,0.00000,0.00000,-0.00000,0.00000,0.00000,0.00000,0.00000,0.00000,0.00000,0.00000,0.00000,0.00000,0.00000,0.00000,0.00000,0.99826,0.99810,0.00000,0.00000,0.00000,0.00000,0.01744,0.01902,0.00000,0.00000,0.00000,0.00000,0.0000,,,,0.0066,,,,,,"[0.998, 0.998, 0.002, 0.002, 0.002, 0.002, 0.998, 0.998]",0x11000011,0.2450,4,0,0.000000,0.000000,0.000383,0.0000,NO
5,0.2950,0.2950,0.0500,0.050,APPROACHING,0,997.27,997.03,0.00,0.00,0.00,-0.00,0.99727,0.99703,0.00000,0.00000,0.00000,-0.00000,-0.02180,-0.02378,0.00000,0.00000,0.00000,-0.00000,0.00000,0.00000,0.00000,0.00000,0.00000,0.00000,0.00000,0.00000,0.00000,0.00000,0.00000,0.00000,0.99727,0.99703,0.00000,0.00000,0.00000,0.00000,0.02180,0.02378,0.00000,0.00000,0.00000,0.00000,0.0000,,,,0.0079,,,,,,"[0.999, 0.999, 0.001, 0.001, 0.001, 0.001, 0.999, 0.999]",0x11000011,0.2950,4,0,0.000000,0.000000,0.000385,0.0000,NO
6,0.3450,0.3450,0.0500,0.050,APPROACHING,0,996.08,995.72,0.00,0.00,0.00,-0.00,0.99608,0.99572,0.00000,0.00000,0.00000,-0.00000,-0.02616,-0.02853,0.00000,0.00000,0.00000,-0.00000,0.00000,0.00000,0.00000,0.00000,0.00000,0.00000,0.00000,0.00000,0.00000,0.00000,0.00000,0.00000,0.99608,0.99572,0.00000,0.00000,0.00000,0.00000,0.02616,0.02853,0.00000,0.00000,0.00000,0.00000,0.0000,,,,0.0056,,,,,,"[0.999, 0.999, 0.002, 0.002, 0.002, 0.001, 0.998, 0.998]",0x11000011,0.3450,4,0,0.000000,0.000000,0.000380,0.0000,NO
7,0.3950,0.3950,0.0500,0.050,APPROACHING,0,994.66,994.17,0.00,0.00,0.00,-0.00,0.99466,0.99417,0.00000,0.00000,0.00000,-0.00000,-0.03052,-0.03329,0.00000,0.00000,0.00000,-0.00000,0.00000,0.00000,0.00000,0.00000,0.00000,0.00000,0.00000,0.00000,0.00000,0.00000,0.00000,0.00000,0.99466,0.99417,0.00000,0.00000,0.00000,0.00000,0.03052,0.03329,0.00000,0.00000,0.00000,0.00000,0.0000,,,,0.0068,,,,,,"[0.999, 0.999, 0.001, 0.001, 0.001, 0.001, 0.999, 0.999]",0x11000011,0.3950,4,0,0.000000,0.000000,0.000385,0.0000,NO
8,0.4450,0.4450,0.0500,0.050,APPROACHING,0,993.02,992.39,0.00,0.00,0.00,-0.00,0.99302,0.99239,0.00000,0.00000,0.00000,-0.00000,-0.03488,-0.03804,0.00000,0.00000,0.00000,-0.00000,0.00000,0.00000,0.00000,0.00000,0.00000,0.00000,0.00000,0.00000,0.00000,0.00000,0.00000,0.00000,0.99302,0.99239,0.00000,0.00000,0.00000,0.00000,0.03488,0.03804,0.00000,0.00000,0.00000,0.00000,0.0000,,,,0.0076,,,,,,"[0.999, 0.999, 0.001, 0.001, 0.001, 0.001, 0.999, 0.999]",0x11000011,0.4450,4,0,0.000000,0.000000,0.000381,0.0000,NO
9,0.4950,0.4950,0.0500,0.050,APPROACHING,0,991.17,990.37,0.00,0.00,0.00,-0.00,0.99117,0.99037,0.00000,0.00000,0.00000,-0.00000,-0.03924,-0.04280,0.00000,0.00000,0.00000,-0.00000,0.00000,0.00000,0.00000,0.00000,0.00000,0.00000,0.00000,0.00000,0.00000,0.00000,0.00000,0.00000,0.99117,0.99037,0.00000,0.00000,0.00000,0.00000,0.03924,0.04280,0.00000,0.00000,0.00000,0.00000,0.0000,,,,0.0065,,,,,,"[0.999, 0.999, 0.001, 0.001, 0.001, 0.001, 0.999, 0.999]",0x11000011,0.4950,4,0,0.000000,0.000000,0.000384,0.0000,NO
10,0.5450,0.5450,0.0500,0.050,APPROACHING,0,989.10,988.11,0.00,0.00,0.00,-0.00,0.98910,0.98811,0.00000,0.00000,0.00000,-0.00000,-0.04361,-0.04755,0.00000,0.00000,0.00000,-0.00000,0.00000,0.00000,0.00000,0.00000,0.00000,0.00000,0.00000,0.00000,0.00000,0.00000,0.00000,0.00000,0.98910,0.98811,0.00000,0.00000,0.00000,0.00000,0.04361,0.04755,0.00000,0.00000,0.00000,0.00000,0.0000,,,,0.0053,,,,,,"[0.999, 0.999, 0.001, 0.001, 0.002, 0.001, 0.998, 0.998]",0x11000011,0.5450,4,0,0.000000,0.000000,0.000381,0.0000,NO
11,0.5950,0.5950,0.0500,0.050,APPROACHING,0,986.81,985.61,0.00,0.00,0.00,-0.00,0.98681,0.98561,0.00000,0.00000,0.00000,-0.00000,-0.04797,-0.05231,0.00000,0.00000,0.00000,-0.00000,0.00000,0.00000,0.00000,0.00000,0.00000,0.00000,0.00000,0.00000,0.00000,0.00000,0.00000,0.00000,0.98681,0.98561,0.00000,0.00000,0.00000,0.00000,0.04797,0.05231,0.00000,0.00000,0.00000,0.00000,0.0000,,,,0.0075,,,,,,"[0.999, 0.999, 0.001, 0.001, 0.001, 0.001, 0.999, 0.999]",0x11000011,0.5950,4,0,0.000000,0.000000,0.000385,0.0000,NO
12,0.6450,0.6450,0.0500,0.050,APPROACHING,0,984.30,982.88,0.00,0.00,0.00,-0.00,0.98430,0.98288,0.00000,0.00000,0.00000,-0.00000,-0.05233,-0.05706,0.00000,0.00000,0.00000,-0.00000,0.00000,0.00000,0.00000,0.00000,0.00000,0.00000,0.00000,0.00000,0.00000,0.00000,0.00000,0.00000,0.98430,0.98288,0.00000,0.00000,0.00000,0.00000,0.05233,0.05706,0.00000,0.00000,0.00000,0.00000,0.0000,,,,0.0066,,,,,,"[0.998, 0.998, 0.001, 0.001, 0.002, 0.002, 0.999, 0.999]",0x11000011,0.6450,4,0,0.000000,0.000000,0.000380,0.0000,NO
13,0.6950,0.6950,0.0500,0.050,APPROACHING,0,981.58,979.91,0.00,0.00,0.00,-0.00,0.98158,0.97991,0.00000,0.00000,0.00000,-0.00000,-0.05669,-0.06182,0.00000,0.00000,0.00000,-0.00000,0.00000,0.00000,0.00000,0.00000,0.00000,0.00000,0.00000,0.00000,0.00000,0.00000,0.00000,0.00000,0.98158,0.97991,0.00000,0.00000,0.00000,0.00000,0.05669,0.06182,0.00000,0.00000,0.00000,0.00000,0.0000,,,,0.0065,,,,,,"[0.999, 0.999, 0.001, 0.001, 0.001, 0.001, 0.999, 0.999]",0x11000011,0.6950,4,0,0.000000,0.000000,0.000385,0.0000,NO
14,0.7450,0.7450,0.0500,0.050,APPROACHING,0,978.63,976.70,0.00,0.00,0.00,-0.00,0.97863,0.97670,0.00000,0.00000,0.00000,-0.00000,-0.06105,-0.06658,0.00000,0.00000,0.00000,0.00000,0.00000,0.00000,0.00000,0.00000,0.00000,0.00000,0.00000,0.00000,0.00000,0.00000,0.00000,0.00000,0.97863,0.97670,0.00000,0.00000,0.00000,0.00000,0.06105,0.06658,0.00000,0.00000,0.00000,-0.00000,0.0000,,,,0.0080,,,,,,"[0.999, 0.999, 0.001, 0.001, 0.001, 0.001, 0.999, 0.999]",0x11000011,0.7450,4,0,0.000000,0.000000,0.000381,0.0000,NO
15,0.7950,0.7950,0.0500,0.050,APPROACHING,0,975.47,973.25,0.00,0.00,0.00,-0.00,0.97547,0.97325,0.00000,0.00000,0.00000,-0.00000,-0.06541,-0.07133,0.00000,0.00000,0.00000,-0.00000,0.00000,0.00000,0.00000,0.00000,0.00000,0.00000,0.00000,0.00000,0.00000,0.00000,0.00000,0.00000,0.97547,0.97325,0.00000,0.00000,0.00000,0.00000,0.06541,0.07133,0.00000,0.00000,0.00000,0.00000,0.0000,,,,0.0065,,,,,,"[0.998, 0.998, 0.001, 0.001, 0.002, 0.002, 0.999, 0.999]",0x11000011,0.7950,4,0,0.000000,0.000000,0.000383,0.0000,NO
16,0.8450,0.8450,0.0500,0.050,APPROACHING,0,972.09,969.57,0.00,0.00,0.00,-0.00,0.97209,0.96957,0.00000,0.00000,0.00000,-0.00000,-0.06977,-0.07609,0.00000,0.00000,0.00000,-0.00000,0.00000,0.00000,0.00000,0.00000,0.00000,0.00000,0.00000,0.00000,0.00000,0.00000,0.00000,0.00000,0.97209,0.96957,0.00000,0.00000,0.00000,0.00000,0.06977,0.07609,0.00000,0.00000,0.00000,0.00000,0.0000,,,,0.0066,,,,,,"[0.999, 0.999, 0.002, 0.002, 0.001, 0.001, 0.998, 0.998]",0x11000011,0.8450,4,0,0.000000,0.000000,0.000383,0.0000,NO
17,0.8950,0.8950,0.0500,0.050,APPROACHING,0,968.50,965.64,0.00,0.00,0.00,-0.00,0.96850,0.96564,0.00000,0.00000,0.00000,-0.00000,-0.07413,-0.08084,0.00000,0.00000,0.00000,-0.00000,0.00000,0.00000,0.00000,0.00000,0.00000,0.00000,0.00000,0.00000,0.00000,0.00000,0.00000,0.00000,0.96850,0.96564,0.00000,0.00000,0.00000,0.00000,0.07413,0.08084,0.00000,0.00000,0.00000,0.00000,0.0000,,,,0.0069,,,,,,"[0.999, 0.999, 0.001, 0.001, 0.001, 0.001, 0.999, 0.999]",0x11000011,0.8950,4,0,0.000000,0.000000,0.000383,0.0000,NO
18,0.9450,0.9450,0.0500,0.050,APPROACHING,0,964.68,961.48,0.00,0.00,0.00,-0.00,0.96468,0.96148,0.00000,0.00000,0.00000,-0.00000,-0.07849,-0.08560,0.00000,0.00000,0.00000,-0.00000,0.00000,0.00000,0.00000,0.00000,0.00000,0.00000,0.00000,0.00000,0.00000,0.00000,0.00000,0.00000,0.96468,0.96148,0.00000,0.00000,0.00000,0.00000,0.07849,0.08560,0.00000,0.00000,0.00000,0.00000,0.0000,,,,0.0069,,,,,,"[0.999, 0.999, 0.001, 0.001, 0.001, 0.001, 0.999, 0.999]",0x11000011,0.9450,4,0,0.000000,0.000000,0.000382,0.0000,NO
19,0.9950,0.9950,0.0500,0.050,APPROACHING,0,960.65,957.08,0.00,0.00,0.00,-0.00,0.96065,0.95708,0.00000,0.00000,0.00000,-0.00000,-0.08285,-0.09035,0.00000,0.00000,0.00000,-0.00000,0.00000,0.00000,0.00000,0.00000,0.00000,0.00000,0.00000,0.00000,0.00000,0.00000,0.00000,0.00000,0.96065,0.95708,0.00000,0.00000,0.00000,0.00000,0.08285,0.09035,0.00000,0.00000,0.00000,0.00000,0.0000,,,,0.0054,,,,,,"[0.999, 0.999, 0.002, 0.002, 0.001, 0.001, 0.998, 0.998]",0x11000011,0.9950,4,0,0.000000,0.000000,0.000383,0.0000,NO
20,1.0450,1.0450,0.0500,0.050,APPROACHING,0,956.39,952.45,0.00,0.00,0.00,-0.00,0.95639,0.95245,0.00000,0.00000,0.00000,-0.00000,-0.08721,-0.09511,0.00000,0.00000,0.00000,-0.00000,0.00000,0.00000,0.00000,0.00000,0.00000,0.00000,0.00000,0.00000,0.00000,0.00000,0.00000,0.00000,0.95639,0.95245,0.00000,0.00000,0.00000,0.00000,0.08721,0.09511,0.00000,0.00000,0.00000,0.00000,0.0000,,,,0.0066,,,,,,"[0.998, 0.998, 0.001, 0.001, 0.002, 0.002, 0.999, 0.999]",0x11000011,1.0450,4,0,0.000000,0.000000,0.000382,0.0000,NO
21,1.0950,1.0950,0.0500,0.050,APPROACHING,0,951.92,947.57,0.00,0.00,0.00,-0.00,0.95192,0.94757,0.00000,0.00000,0.00000,-0.00000,-0.09157,-0.09986,0.00000,0.00000,0.00000,-0.00000,0.00000,0.00000,0.00000,0.00000,0.00000,0.00000,0.00000,0.00000,0.00000,0.00000,0.00000,0.00000,0.95192,0.94757,0.00000,0.00000,0.00000,0.00000,0.09157,0.09986,0.00000,0.00000,0.00000,0.00000,0.0000,,,,0.0054,,,,,,"[0.999, 0.999, 0.002, 0.002, 0.001, 0.001, 0.998, 0.998]",0x11000011,1.0950,4,0,0.000000,0.000000,0.000383,0.0000,NO
22,1.1450,1.1450,0.0500,0.050,APPROACHING,0,947.24,942.46,0.00,0.00,0.00,-0.00,0.94724,0.94246,0.00000,0.00000,0.00000,-0.00000,-0.09593,-0.10462,0.00000,0.00000,0.00000,-0.00000,0.00000,0.00000,0.00000,0.00000,0.00000,0.00000,0.00000,0.00000,0.00000,0.00000,0.00000,0.00000,0.94724,0.94246,0.00000,0.00000,0.00000,0.00000,0.09593,0.10462,0.00000,0.00000,0.00000,0.00000,0.0000,,,,0.0067,,,,,,"[0.999, 0.999, 0.001, 0.001, 0.001, 0.001, 0.999, 0.999]",0x11000011,1.1450,4,0,0.000000,0.000000,0.000383,0.0000,NO
23,1.1950,1.1950,0.0500,0.050,APPROACHING,0,942.33,937.11,0.00,0.00,0.00,-0.00,0.94233,0.93711,0.00000,0.00000,0.00000,-0.00000,-0.10029,-0.10937,0.00000,0.00000,0.00000,-0.00000,0.00000,0.00000,0.00000,0.00000,0.00000,0.00000,0.00000,0.00000,0.00000,0.00000,0.00000,0.00000,0.94233,0.93711,0.00000,0.00000,0.00000,0.00000,0.10029,0.10937,0.00000,0.00000,0.00000,0.00000,0.0000,,,,0.0054,,,,,,"[0.999, 0.999, 0.001, 0.001, 0.001, 0.001, 0.999, 0.999]",0x11000011,1.1950,4,0,0.000000,0.000000,0.000382,0.0000,NO
24,1.2450,1.2450,0.0500,0.050,APPROACHING,0,937.21,931.52,0.00,0.00,0.00,-0.00,0.93721,0.93152,0.00000,0.00000,0.00000,-0.00000,-0.10465,-0.11413,0.00000,0.00000,0.00000,-0.00000,0.00000,0.00000,0.00000,0.00000,0.00000,0.00000,0.00000,0.00000,0.00000,0.00000,0.00000,0.00000,0.93721,0.93152,0.00000,0.00000,0.00000,0.00000,0.10465,0.11413,0.00000,0.00000,0.00000,0.00000,0.0000,,,,0.0065,,,,,,"[0.999, 0.999, 0.001, 0.001, 0.001, 0.001, 0.999, 0.999]",0x11000011,1.2450,4,0,0.000000,0.000000,0.000383,0.0000,NO
25,1.2950,1.2950,0.0500,0.050,APPROACHING,0,931.87,925.70,0.00,0.00,0.00,-0.00,0.93187,0.92570,0.00000,0.00000,0.00000,-0.00000,-0.10901,-0.11888,0.00000,0.00000,0.00000,-0.00000,0.00000,0.00000,0.00000,0.00000,0.00000,0.00000,0.00000,0.00000,0.00000,0.00000,0.00000,0.00000,0.93187,0.92570,0.00000,0.00000,0.00000,0.00000,0.10901,0.11888,0.00000,0.00000,0.00000,0.00000,0.0000,,,,0.0054,,,,,,"[0.999, 0.999, 0.001, 0.001, 0.001, 0.001, 0.999, 0.999]",0x11000011,1.2950,4,0,0.000000,0.000000,0.000382,0.0000,NO
26,1.3450,1.3450,0.0500,0.050,APPROACHING,0,926.31,919.63,0.00,0.00,0.00,-0.00,0.92631,0.91963,0.00000,0.00000,0.00000,-0.00000,-0.11337,-0.12364,0.00000,0.00000,0.00000,-0.00000,0.00000,0.00000,0.00000,0.00000,0.00000,0.00000,0.00000,0.00000,0.00000,0.00000,0.00000,0.00000,0.92631,0.91963,0.00000,0.00000,0.00000,0.00000,0.11337,0.12364,0.00000,0.00000,0.00000,0.00000,0.0000,,,,0.0064,,,,,,"[0.999, 0.999, 0.002, 0.002, 0.001, 0.001, 0.998, 0.998]",0x11000011,1.3450,4,0,0.000000,0.000000,0.000383,0.0000,NO
27,1.3950,1.3950,0.0500,0.050,APPROACHING,0,920.53,913.33,0.00,0.00,0.00,-0.00,0.92053,0.91333,0.00000,0.00000,0.00000,-0.00000,-0.11773,-0.12840,0.00000,0.00000,0.00000,-0.00000,0.00000,0.00000,0.00000,0.00000,0.00000,0.00000,0.00000,0.00000,0.00000,0.00000,0.00000,0.00000,0.92053,0.91333,0.00000,0.00000,0.00000,0.00000,0.11773,0.12840,0.00000,0.00000,0.00000,0.00000,0.0000,,,,0.0055,,,,,,"[0.999, 0.999, 0.000, 0.000, 0.001, 0.001, 1.000, 1.000]",0x11000011,1.3950,4,0,0.000000,0.000000,0.000384,0.0000,NO
28,1.4450,1.4450,0.0500,0.050,APPROACHING,0,914.53,906.79,0.00,0.00,0.00,-0.00,0.91453,0.90679,0.00000,0.00000,0.00000,-0.00000,-0.12210,-0.13315,0.00000,0.00000,0.00000,0.00000,0.00000,0.00000,0.00000,0.00000,0.00000,0.00000,0.00000,0.00000,0.00000,0.00000,0.00000,0.00000,0.91453,0.90679,0.00000,0.00000,0.00000,0.00000,0.12210,0.13315,0.00000,0.00000,0.00000,-0.00000,0.0000,,,,0.0055,,,,,,"[0.998, 0.998, 0.001, 0.001, 0.002, 0.002, 0.999, 0.999]",0x11000011,1.4450,4,0,0.000000,0.000000,0.000381,0.0000,NO
29,1.4950,1.4950,0.0500,0.050,APPROACHING,0,908.32,900.02,0.00,0.00,0.00,-0.00,0.90832,0.90002,0.00000,0.00000,0.00000,-0.00000,-0.12646,-0.13791,0.00000,0.00000,0.00000,-0.00000,0.00000,0.00000,0.00000,0.00000,0.00000,0.00000,0.00000,0.00000,0.00000,0.00000,0.00000,0.00000,0.90832,0.90002,0.00000,0.00000,0.00000,0.00000,0.12646,0.13791,0.00000,0.00000,0.00000,0.00000,0.0000,,,,0.0066,,,,,,"[1.000, 1.000, 0.001, 0.001, 0.000, 0.000, 0.999, 0.999]",0x11000011,1.4950,4,0,0.000000,0.000000,0.000386,0.0000,NO
30,1.5450,1.5450,0.0500,0.050,APPROACHING,0,901.89,893.00,0.00,0.00,0.00,-0.00,0.90189,0.89300,0.00000,0.00000,0.00000,-0.00000,-0.13082,-0.14266,0.00000,0.00000,0.00000,0.00000,0.00000,0.00000,0.00000,0.00000,0.00000,0.00000,0.00000,0.00000,0.00000,0.00000,0.00000,0.00000,0.90189,0.89300,0.00000,0.00000,0.00000,0.00000,0.13082,0.14266,0.00000,0.00000,0.00000,-0.00000,0.0000,,,,0.0180,,,,,,"[0.999, 0.999, 0.000, 0.000, 0.002, 0.001, 1.000, 1.000]",0x11000011,1.5450,4,0,0.000000,0.000000,0.000380,0.0000,NO
31,1.5950,1.5950,0.0500,0.050,APPROACHING,0,895.24,885.75,0.00,0.00,0.00,-0.00,0.89524,0.88575,0.00000,0.00000,0.00000,-0.00000,-0.13518,-0.14742,0.00000,0.00000,0.00000,-0.00000,0.00000,0.00000,0.00000,0.00000,0.00000,0.00000,0.00000,0.00000,0.00000,0.00000,0.00000,0.00000,0.89524,0.88575,0.00000,0.00000,0.00000,0.00000,0.13518,0.14742,0.00000,0.00000,0.00000,0.00000,0.0000,,,,0.0046,,,,,,"[0.999, 0.999, 0.001, 0.001, 0.001, 0.001, 0.999, 0.999]",0x11000011,1.5950,4,0,0.000000,0.000000,0.000384,0.0000,NO
32,1.6450,1.6450,0.0500,0.050,APPROACHING,0,888.37,878.26,0.00,0.00,0.00,-0.00,0.88837,0.87826,0.00000,0.00000,0.00000,-0.00000,-0.13954,-0.15217,0.00000,0.00000,0.00000,-0.00000,0.00000,0.00000,0.00000,0.00000,0.00000,0.00000,0.00000,0.00000,0.00000,0.00000,0.00000,0.00000,0.88837,0.87826,0.00000,0.00000,0.00000,0.00000,0.13954,0.15217,0.00000,0.00000,0.00000,0.00000,0.0000,,,,0.0066,,,,,,"[1.000, 1.000, 0.001, 0.001, 0.000, 0.000, 0.998, 0.998]",0x11000011,1.6450,4,0,0.000000,0.000000,0.000383,0.0000,NO
33,1.6950,1.6950,0.0500,0.050,APPROACHING,0,881.28,870.53,0.00,0.00,0.00,-0.00,0.88128,0.87053,0.00000,0.00000,0.00000,-0.00000,-0.14390,-0.15693,0.00000,0.00000,0.00000,0.00000,0.00000,0.00000,0.00000,0.00000,0.00000,0.00000,0.00000,0.00000,0.00000,0.00000,0.00000,0.00000,0.88128,0.87053,0.00000,0.00000,0.00000,0.00000,0.14390,0.15693,0.00000,0.00000,0.00000,-0.00000,0.0000,,,,0.0054,,,,,,"[0.999, 0.999, 0.000, 0.000, 0.002, 0.001, 1.000, 1.000]",0x11000011,1.6950,4,0,0.000000,0.000000,0.000382,0.0000,NO
34,1.7450,1.7450,0.0500,0.050,APPROACHING,0,873.98,862.57,0.00,0.00,0.00,-0.00,0.87398,0.86257,0.00000,0.00000,0.00000,-0.00000,-0.14826,-0.16168,0.00000,0.00000,0.00000,-0.00000,0.00000,0.00000,0.00000,0.00000,0.00000,0.00000,0.00000,0.00000,0.00000,0.00000,0.00000,0.00000,0.87398,0.86257,0.00000,0.00000,0.00000,0.00000,0.14826,0.16168,0.00000,0.00000,0.00000,0.00000,0.0000,,,,0.0045,,,,,,"[0.999, 0.999, 0.000, 0.000, 0.001, 0.001, 1.000, 1.000]",0x11000011,1.7450,4,0,0.000000,0.000000,0.000384,0.0000,NO
35,1.7950,1.7950,0.0500,0.050,APPROACHING,0,866.46,854.37,0.00,0.00,0.00,-0.00,0.86646,0.85437,0.00000,0.00000,0.00000,-0.00000,-0.15262,-0.16644,0.00000,0.00000,0.00000,0.00000,0.00000,0.00000,0.00000,0.00000,0.00000,0.00000,0.00000,0.00000,0.00000,0.00000,0.00000,0.00000,0.86646,0.85437,0.00000,0.00000,0.00000,0.00000,0.15262,0.16644,0.00000,0.00000,0.00000,-0.00000,0.0000,,,,0.0045,,,,,,"[0.998, 0.998, 0.000, 0.000, 0.002, 0.002, 0.999, 0.999]",0x11000011,1.7950,4,0,0.000000,0.000000,0.000380,0.0000,NO
36,1.8450,1.8450,0.0500,0.050,APPROACHING,0,858.72,845.93,0.00,0.00,0.00,-0.00,0.85872,0.84593,0.00000,0.00000,0.00000,-0.00000,-0.15698,-0.17119,0.00000,0.00000,0.00000,-0.00000,0.00000,0.00000,0.00000,0.00000,0.00000,0.00000,0.00000,0.00000,0.00000,0.00000,0.00000,0.00000,0.85872,0.84593,0.00000,0.00000,0.00000,0.00000,0.15698,0.17119,0.00000,0.00000,0.00000,0.00000,0.0000,,,,0.0056,,,,,,"[0.999, 0.999, 0.000, 0.000, 0.002, 0.001, 0.999, 0.999]",0x11000011,1.8450,4,0,0.000000,0.000000,0.000385,0.0000,NO
37,1.8950,1.8950,0.0500,0.050,APPROACHING,0,850.76,837.25,0.00,0.00,0.00,-0.00,0.85076,0.83725,0.00000,0.00000,0.00000,-0.00000,-0.16134,-0.17595,0.00000,0.00000,0.00000,0.00000,0.00000,0.00000,0.00000,0.00000,0.00000,0.00000,0.00000,0.00000,0.00000,0.00000,0.00000,0.00000,0.85076,0.83725,0.00000,0.00000,0.00000,0.00000,0.16134,0.17595,0.00000,0.00000,0.00000,-0.00000,0.0000,,,,0.0048,,,,,,"[1.000, 1.000, 0.002, 0.002, 0.000, 0.000, 0.998, 0.998]",0x11000011,1.8950,4,0,0.000000,0.000000,0.000382,0.0000,NO
38,1.9450,1.9450,0.0500,0.050,APPROACHING,0,842.58,828.33,0.00,0.00,0.00,-0.00,0.84258,0.82833,0.00000,0.00000,0.00000,-0.00000,-0.16570,-0.18071,0.00000,0.00000,0.00000,-0.00000,0.00000,0.00000,0.00000,0.00000,0.00000,0.00000,0.00000,0.00000,0.00000,0.00000,0.00000,0.00000,0.84258,0.82833,0.00000,0.00000,0.00000,0.00000,0.16570,0.18071,0.00000,0.00000,0.00000,0.00000,0.0000,,,,0.0047,,,,,,"[1.000, 1.000, 0.000, 0.000, 0.001, 0.000, 1.000, 1.000]",0x11000011,1.9450,4,0,0.000000,0.000000,0.000385,0.0000,NO
39,1.9950,1.9950,0.0500,0.050,APPROACHING,0,834.19,819.18,0.00,0.00,0.00,-0.00,0.83419,0.81918,0.00000,0.00000,0.00000,-0.00000,-0.17006,-0.18546,0.00000,0.00000,0.00000,0.00000,0.00000,0.00000,0.00000,0.00000,0.00000,0.00000,0.00000,0.00000,0.00000,0.00000,0.00000,0.00000,0.83419,0.81918,0.00000,0.00000,0.00000,0.00000,0.17006,0.18546,0.00000,0.00000,0.00000,-0.00000,0.0000,,,,0.0044,,,,,,"[0.999, 0.999, 0.000, 0.000, 0.001, 0.001, 1.000, 1.000]",0x11000011,1.9950,4,0,0.000000,0.000000,0.000380,0.0000,NO
40,2.0450,2.0450,0.0500,0.050,APPROACHING,0,825.58,809.78,0.00,0.00,0.00,-0.00,0.82558,0.80978,0.00000,0.00000,0.00000,-0.00000,-0.17442,-0.19022,0.00000,0.00000,0.00000,-0.00000,0.00000,0.00000,0.00000,0.00000,0.00000,0.00000,0.00000,0.00000,0.00000,0.00000,0.00000,0.00000,0.82558,0.80978,0.00000,0.00000,0.00000,0.00000,0.17442,0.19022,0.00000,0.00000,0.00000,0.00000,0.0000,,,,0.0045,,,,,,"[0.998, 0.998, 0.000, 0.000, 0.002, 0.002, 1.000, 1.000]",0x11000011,2.0450,4,0,0.000000,0.000000,0.000384,0.0000,NO
41,2.0950,2.0950,0.0500,0.050,APPROACHING,0,816.75,800.15,0.00,0.00,0.00,-0.00,0.81675,0.80015,0.00000,0.00000,0.00000,-0.00000,-0.17878,-0.19497,0.00000,0.00000,0.00000,0.00000,0.00000,0.00000,0.00000,0.00000,0.00000,0.00000,0.00000,0.00000,0.00000,0.00000,0.00000,0.00000,0.81675,0.80015,0.00000,0.00000,0.00000,0.00000,0.17878,0.19497,0.00000,0.00000,0.00000,-0.00000,0.0000,,,,0.0033,,,,,,"[1.000, 1.000, 0.000, 0.000, 0.001, 0.000, 1.000, 1.000]",0x11000011,2.0950,4,0,0.000000,0.000000,0.000384,0.0000,NO
42,2.1450,2.1450,0.0500,0.050,APPROACHING,0,807.70,790.29,0.00,0.00,0.00,-0.00,0.80770,0.79029,0.00000,0.00000,0.00000,-0.00000,-0.18314,-0.19973,0.00000,0.00000,0.00000,0.00000,0.00000,0.00000,0.00000,0.00000,0.00000,0.00000,0.00000,0.00000,0.00000,0.00000,0.00000,0.00000,0.80770,0.79029,0.00000,0.00000,0.00000,0.00000,0.18314,0.19973,0.00000,0.00000,0.00000,-0.00000,0.0000,,,,0.0035,,,,,,"[0.999, 0.999, 0.000, 0.000, 0.001, 0.001, 1.000, 1.000]",0x11000011,2.1450,4,0,0.000000,0.000000,0.000381,0.0000,NO
43,2.1950,2.1950,0.0500,0.050,APPROACHING,0,798.43,780.18,0.00,0.00,0.00,-0.00,0.79843,0.78018,0.00000,0.00000,0.00000,-0.00000,-0.18750,-0.20448,0.00000,0.00000,0.00000,0.00000,0.00000,0.00000,0.00000,0.00000,0.00000,0.00000,0.00000,0.00000,0.00000,0.00000,0.00000,0.00000,0.79843,0.78018,0.00000,0.00000,0.00000,0.00000,0.18750,0.20448,0.00000,0.00000,0.00000,-0.00000,0.0000,,,,0.0046,,,,,,"[1.000, 1.000, 0.000, 0.000, 0.000, 0.000, 1.000, 1.000]",0x11000011,2.1950,4,0,0.000000,0.000000,0.000385,0.0000,NO
44,2.2450,2.2450,0.0500,0.050,APPROACHING,0,788.95,769.84,0.00,0.00,0.00,-0.00,0.78895,0.76984,0.00000,0.00000,0.00000,-0.00000,-0.19186,-0.20924,0.00000,0.00000,0.00000,0.00000,0.00000,0.00000,0.00000,0.00000,0.00000,0.00000,0.00000,0.00000,0.00000,0.00000,0.00000,0.00000,0.78895,0.76984,0.00000,0.00000,0.00000,0.00000,0.19186,0.20924,0.00000,0.00000,0.00000,-0.00000,0.0000,,,,0.0056,,,,,,"[1.000, 1.000, 0.001, 0.001, 0.000, 0.000, 0.999, 0.999]",0x11000011,2.2450,4,0,0.000000,0.000000,0.000380,0.0000,NO
45,2.2950,2.2950,0.0500,0.050,APPROACHING,0,779.25,759.26,0.00,0.00,0.00,-0.00,0.77925,0.75926,0.00000,0.00000,0.00000,-0.00000,-0.19622,-0.21399,0.00000,0.00000,0.00000,-0.00000,0.00000,0.00000,0.00000,0.00000,0.00000,0.00000,0.00000,0.00000,0.00000,0.00000,0.00000,0.00000,0.77925,0.75926,0.00000,0.00000,0.00000,0.00000,0.19622,0.21399,0.00000,0.00000,0.00000,0.00000,0.0000,,,,0.0054,,,,,,"[1.000, 1.000, 0.001, 0.001, 0.000, 0.000, 0.999, 0.999]",0x11000011,2.2950,4,0,0.000000,0.000000,0.000385,0.0000,NO
46,2.3450,2.3450,0.0500,0.050,APPROACHING,0,769.33,748.44,0.00,0.00,0.00,-0.00,0.76933,0.74844,0.00000,0.00000,0.00000,-0.00000,-0.20059,-0.21875,0.00000,0.00000,0.00000,0.00000,0.00000,0.00000,0.00000,0.00000,0.00000,0.00000,0.00000,0.00000,0.00000,0.00000,0.00000,0.00000,0.76933,0.74844,0.00000,0.00000,0.00000,0.00000,0.20059,0.21875,0.00000,0.00000,0.00000,-0.00000,0.0000,,,,0.0044,,,,,,"[0.999, 0.999, 0.001, 0.001, 0.001, 0.001, 0.999, 0.999]",0x11000011,2.3450,4,0,0.000000,0.000000,0.000380,0.0000,NO
47,2.3950,2.3950,0.0500,0.050,APPROACHING,0,759.19,737.38,0.00,0.00,0.00,-0.00,0.75919,0.73738,0.00000,0.00000,0.00000,-0.00000,-0.20495,-0.22350,0.00000,0.00000,0.00000,-0.00000,0.00000,0.00000,0.00000,0.00000,0.00000,0.00000,0.00000,0.00000,0.00000,0.00000,0.00000,0.00000,0.75919,0.73738,0.00000,0.00000,0.00000,0.00000,0.20495,0.22350,0.00000,0.00000,0.00000,0.00000,0.0000,,,,0.0023,,,,,,"[1.000, 1.000, 0.000, 0.000, 0.000, 0.000, 1.000, 1.000]",0x11000011,2.3950,4,0,0.000000,0.000000,0.000387,0.0000,NO
48,2.4450,2.4450,0.0500,0.050,APPROACHING,0,748.83,726.09,0.00,0.00,0.00,-0.00,0.74883,0.72609,0.00000,0.00000,0.00000,-0.00000,-0.20931,-0.22826,0.00000,0.00000,0.00000,0.00000,0.00000,0.00000,0.00000,0.00000,0.00000,0.00000,0.00000,0.00000,0.00000,0.00000,0.00000,0.00000,0.74883,0.72609,0.00000,0.00000,0.00000,0.00000,0.20931,0.22826,0.00000,0.00000,0.00000,-0.00000,0.0000,,,,0.0023,,,,,,"[1.000, 1.000, 0.000, 0.000, 0.000, 0.000, 1.000, 1.000]",0x11000011,2.4450,4,0,0.000000,0.000000,0.000380,0.0000,NO
49,2.4950,2.4950,0.0500,0.050,APPROACHING,0,738.26,714.56,0.00,0.00,0.00,-0.00,0.73826,0.71456,0.00000,0.00000,0.00000,-0.00000,-0.21367,-0.23301,0.00000,0.00000,0.00000,0.00000,0.00000,0.00000,0.00000,0.00000,0.00000,0.00000,0.00000,0.00000,0.00000,0.00000,0.00000,0.00000,0.73826,0.71456,0.00000,0.00000,0.00000,0.00000,0.21367,0.23301,0.00000,0.00000,0.00000,-0.00000,0.0000,,,,0.0023,,,,,,"[1.000, 1.000, 0.000, 0.000, 0.000, 0.000, 1.000, 1.000]",0x11000011,2.4950,4,0,0.000000,0.000000,0.000385,0.0000,NO
50,2.5450,2.5450,0.0500,0.050,APPROACHING,0,727.47,702.79,0.00,0.00,0.00,-0.00,0.72747,0.70279,0.00000,0.00000,0.00000,-0.00000,-0.21803,-0.23777,0.00000,0.00000,0.00000,0.00000,0.00000,0.00000,0.00000,0.00000,0.00000,0.00000,0.00000,0.00000,0.00000,0.00000,0.00000,0.00000,0.72747,0.70279,0.00000,0.00000,0.00000,0.00000,0.21803,0.23777,0.00000,0.00000,0.00000,-0.00000,0.0000,,,,0.0024,,,,,,"[1.000, 1.000, 0.000, 0.000, 0.000, 0.000, 1.000, 1.000]",0x11000011,2.5450,4,0,0.000000,0.000000,0.000381,0.0000,NO
51,2.5950,2.5950,0.0500,0.050,APPROACHING,0,716.46,690.78,0.00,0.00,0.00,-0.00,0.71646,0.69078,0.00000,0.00000,0.00000,-0.00000,-0.22239,-0.24253,0.00000,0.00000,0.00000,0.00000,0.00000,0.00000,0.00000,0.00000,0.00000,0.00000,0.00000,0.00000,0.00000,0.00000,0.00000,0.00000,0.71646,0.69078,0.00000,0.00000,0.00000,0.00000,0.22239,0.24253,0.00000,0.00000,0.00000,-0.00000,0.0000,,,,0.0023,,,,,,"[1.000, 1.000, 0.000, 0.000, 0.000, 0.000, 1.000, 1.000]",0x11000011,2.5950,4,0,0.000000,0.000000,0.000384,0.0000,NO
52,2.6450,2.6450,0.0500,0.050,APPROACHING,0,705.23,678.54,0.00,0.00,0.00,-0.00,0.70523,0.67854,0.00000,0.00000,0.00000,-0.00000,-0.22675,-0.24728,0.00000,0.00000,0.00000,0.00000,0.00000,0.00000,0.00000,0.00000,0.00000,0.00000,0.00000,0.00000,0.00000,0.00000,0.00000,0.00000,0.70523,0.67854,0.00000,0.00000,0.00000,0.00000,0.22675,0.24728,0.00000,0.00000,0.00000,-0.00000,0.0000,,,,0.0024,,,,,,"[1.000, 1.000, 0.000, 0.000, 0.000, 0.000, 1.000, 1.000]",0x11000011,2.6450,4,0,0.000000,0.000000,0.000382,0.0000,NO
53,2.6950,2.6950,0.0500,0.050,APPROACHING,0,693.78,666.05,0.00,0.00,0.00,-0.00,0.69378,0.66605,0.00000,0.00000,0.00000,-0.00000,-0.23111,-0.25204,0.00000,0.00000,0.00000,0.00000,0.00000,0.00000,0.00000,0.00000,0.00000,0.00000,0.00000,0.00000,0.00000,0.00000,0.00000,0.00000,0.69378,0.66605,0.00000,0.00000,0.00000,0.00000,0.23111,0.25204,0.00000,0.00000,0.00000,-0.00000,0.0000,,,,0.0023,,,,,,"[1.000, 1.000, 0.000, 0.000, 0.000, 0.000, 1.000, 1.000]",0x11000011,2.6950,4,0,0.000000,0.000000,0.000384,0.0000,NO
54,2.7450,2.7450,0.0500,0.050,APPROACHING,0,682.12,653.33,0.00,0.00,0.00,-0.00,0.68212,0.65333,0.00000,0.00000,0.00000,-0.00000,-0.23547,-0.25679,0.00000,0.00000,0.00000,0.00000,0.00000,0.00000,0.00000,0.00000,0.00000,0.00000,0.00000,0.00000,0.00000,0.00000,0.00000,0.00000,0.68212,0.65333,0.00000,0.00000,0.00000,0.00000,0.23547,0.25679,0.00000,0.00000,0.00000,-0.00000,0.0000,,,,0.0023,,,,,,"[1.000, 1.000, 0.000, 0.000, 0.000, 0.000, 1.000, 1.000]",0x11000011,2.7450,4,0,0.000000,0.000000,0.000382,0.0000,NO
55,2.7950,2.7950,0.0500,0.050,APPROACHING,0,670.23,640.37,0.00,0.00,0.00,-0.00,0.67023,0.64037,0.00000,0.00000,0.00000,-0.00000,-0.23983,-0.26155,0.00000,0.00000,0.00000,0.00000,0.00000,0.00000,0.00000,0.00000,0.00000,0.00000,0.00000,0.00000,0.00000,0.00000,0.00000,0.00000,0.67023,0.64037,0.00000,0.00000,0.00000,0.00000,0.23983,0.26155,0.00000,0.00000,0.00000,-0.00000,0.0000,,,,0.0023,,,,,,"[1.000, 1.000, 0.000, 0.000, 0.000, 0.000, 1.000, 1.000]",0x11000011,2.7950,4,0,0.000000,0.000000,0.000383,0.0000,NO
56,2.8450,2.8450,0.0500,0.050,APPROACHING,0,658.13,627.18,0.00,0.00,0.00,-0.00,0.65813,0.62718,0.00000,0.00000,0.00000,-0.00000,-0.24419,-0.26630,0.00000,0.00000,0.00000,0.00000,0.00000,0.00000,0.00000,0.00000,0.00000,0.00000,0.00000,0.00000,0.00000,0.00000,0.00000,0.00000,0.65813,0.62718,0.00000,0.00000,0.00000,0.00000,0.24419,0.26630,0.00000,0.00000,0.00000,-0.00000,0.0000,,,,0.0023,,,,,,"[1.000, 1.000, 0.000, 0.000, 0.000, 0.000, 1.000, 1.000]",0x11000011,2.8450,4,0,0.000000,0.000000,0.000382,0.0000,NO
57,2.8950,2.8950,0.0500,0.050,APPROACHING,0,645.81,613.74,0.00,0.00,0.00,-0.00,0.64581,0.61374,0.00000,0.00000,0.00000,-0.00000,-0.24855,-0.27106,0.00000,0.00000,0.00000,0.00000,0.00000,0.00000,0.00000,0.00000,0.00000,0.00000,0.00000,0.00000,0.00000,0.00000,0.00000,0.00000,0.64581,0.61374,0.00000,0.00000,0.00000,0.00000,0.24855,0.27106,0.00000,0.00000,0.00000,-0.00000,0.0000,,,,0.0023,,,,,,"[1.000, 1.000, 0.000, 0.000, 0.000, 0.000, 1.000, 1.000]",0x11000011,2.8950,4,0,0.000000,0.000000,0.000383,0.0000,NO
58,2.9450,2.9450,0.0500,0.050,APPROACHING,0,633.28,600.07,0.00,0.00,0.00,-0.00,0.63328,0.60007,0.00000,0.00000,0.00000,-0.00000,-0.25291,-0.27581,0.00000,0.00000,0.00000,0.00000,0.00000,0.00000,0.00000,0.00000,0.00000,0.00000,0.00000,0.00000,0.00000,0.00000,0.00000,0.00000,0.63328,0.60007,0.00000,0.00000,0.00000,0.00000,0.25291,0.27581,0.00000,0.00000,0.00000,-0.00000,0.0000,,,,0.0022,,,,,,"[1.000, 1.000, 0.000, 0.000, 0.000, 0.000, 1.000, 1.000]",0x11000011,2.9450,4,0,0.000000,0.000000,0.000382,0.0000,NO
59,2.9950,2.9950,0.0500,0.050,APPROACHING,0,620.52,586.16,0.00,0.00,0.00,-0.00,0.62052,0.58616,0.00000,0.00000,0.00000,-0.00000,-0.25727,-0.28057,0.00000,0.00000,0.00000,0.00000,0.00000,0.00000,0.00000,0.00000,0.00000,0.00000,0.00000,0.00000,0.00000,0.00000,0.00000,0.00000,0.62052,0.58616,0.00000,0.00000,0.00000,0.00000,0.25727,0.28057,0.00000,0.00000,0.00000,-0.00000,0.0000,,,,0.0023,,,,,,"[1.000, 1.000, 0.000, 0.000, 0.000, 0.000, 1.000, 1.000]",0x11000011,2.9950,4,0,0.000000,0.000000,0.000383,0.0000,NO
60,3.0450,3.0450,0.0500,0.050,APPROACHING,0,607.55,572.01,0.00,0.00,0.00,-0.00,0.60755,0.57201,0.00000,0.00000,0.00000,-0.00000,-0.26163,-0.28532,0.00000,0.00000,0.00000,0.00000,0.00000,0.00000,0.00000,0.00000,0.00000,0.00000,0.00000,0.00000,0.00000,0.00000,0.00000,0.00000,0.60755,0.57201,0.00000,0.00000,0.00000,0.00000,0.26163,0.28532,0.00000,0.00000,0.00000,-0.00000,0.0000,,,,0.0023,,,,,,"[1.000, 1.000, 0.000, 0.000, 0.000, 0.000, 1.000, 1.000]",0x11000011,3.0450,4,0,0.000000,0.000000,0.000382,0.0000,NO
61,3.0950,3.0950,0.0500,0.050,APPROACHING,0,594.36,557.63,0.00,0.00,0.00,-0.00,0.59436,0.55763,0.00000,0.00000,0.00000,-0.00000,-0.26599,-0.29008,0.00000,0.00000,0.00000,0.00000,0.00000,0.00000,0.00000,0.00000,0.00000,0.00000,0.00000,0.00000,0.00000,0.00000,0.00000,0.00000,0.59436,0.55763,0.00000,0.00000,0.00000,0.00000,0.26599,0.29008,0.00000,0.00000,0.00000,-0.00000,0.0000,,,,0.0025,,,,,,"[1.000, 1.000, 0.000, 0.000, 0.000, 0.000, 1.000, 1.000]",0x11000011,3.0950,4,0,0.000000,0.000000,0.000381,0.0000,NO
62,3.1450,3.1450,0.0500,0.050,APPROACHING,0,580.95,543.01,0.00,0.00,0.00,-0.00,0.58095,0.54301,0.00000,0.00000,0.00000,-0.00000,-0.27035,-0.29483,0.00000,0.00000,0.00000,-0.00000,0.00000,0.00000,0.00000,0.00000,0.00000,0.00000,0.00000,0.00000,0.00000,0.00000,0.00000,0.00000,0.58095,0.54301,0.00000,0.00000,0.00000,0.00000,0.27035,0.29483,0.00000,0.00000,0.00000,0.00000,0.0000,,,,0.0022,,,,,,"[1.000, 1.000, 0.000, 0.000, 0.000, 0.000, 1.000, 1.000]",0x11000011,3.1450,4,0,0.000000,0.000000,0.000366,0.0000,NO
63,3.1950,3.1950,0.0500,0.050,APPROACHING,0,567.32,528.15,0.00,0.00,0.00,-0.00,0.56732,0.52815,0.00000,0.00000,0.00000,-0.00000,-0.27471,-0.29959,0.00000,0.00000,0.00000,-0.00001,0.00000,0.00000,0.00000,0.00000,0.00000,0.00000,0.00000,0.00000,0.00000,0.00000,0.00000,0.00000,0.56732,0.52815,0.00000,0.00000,0.00000,0.00000,0.27471,0.29959,0.00000,0.00000,0.00000,0.00001,0.0000,,,,0.0023,,,,,,"[1.000, 1.000, 0.677, 0.692, 0.000, 0.000, 0.000, 0.000]",0x11110000,3.1950,4,4,0.000000,0.000000,0.000189,0.0000,NO
64,3.2450,3.2450,0.0500,0.050,APPROACHING,0,553.48,513.27,0.00,0.00,0.00,0.00,0.55348,0.51327,0.00000,0.00000,0.00000,0.00000,-0.27908,-0.29526,0.00000,0.00000,0.00000,0.00012,0.00000,0.00000,0.00000,0.00000,0.00000,0.00000,0.00000,0.00000,0.00000,0.00000,0.00000,0.00000,0.55348,0.51327,0.00000,0.00000,0.00000,-0.00000,0.27908,0.29526,0.00000,0.00000,0.00000,-0.00012,0.0000,,,,0.0023,,,,,,"[1.000, 1.000, 0.998, 0.998, 0.000, 0.000, 0.002, 0.002]",0x11110000,3.2450,4,2,0.000000,0.000000,-0.000369,0.0000,NO
65,3.2950,3.2950,0.0500,0.050,APPROACHING,0,539.42,498.62,0.00,0.00,0.00,0.00,0.53942,0.49862,0.00000,0.00000,0.00000,0.00000,-0.28344,-0.29093,0.00000,0.00000,0.00000,-0.00008,0.00000,0.00000,0.00000,0.00000,0.00000,0.00000,0.00000,0.00000,0.00000,0.00000,0.00000,0.00000,0.53942,0.49862,0.00000,0.00000,0.00000,-0.00000,0.28344,0.29093,0.00000,0.00000,0.00000,0.00008,0.0000,,,,0.0012,,,,,,"[1.000, 1.000, 1.000, 1.000, 0.000, 0.000, 0.000, 0.000]",0x11110000,3.2950,4,0,0.000000,0.000000,0.000200,0.0000,NO
66,3.3450,3.3450,0.0500,0.050,APPROACHING,0,525.14,484.18,0.00,0.00,0.00,0.00,0.52514,0.48418,0.00000,0.00000,0.00000,0.00000,-0.28780,-0.28660,0.00000,0.00000,0.00000,0.00005,0.00000,0.00000,0.00000,0.00000,0.00000,0.00000,0.00000,0.00000,0.00000,0.00000,0.00000,0.00000,0.52514,0.48418,0.00000,0.00000,0.00000,-0.00000,0.28780,0.28660,0.00000,0.00000,0.00000,-0.00005,0.0000,,,,0.0024,,,,,,"[1.000, 1.000, 1.000, 1.000, 0.000, 0.000, 0.000, 0.000]",0x11110000,3.3450,4,0,0.000000,0.000000,-0.000207,0.0000,NO
67,3.3950,3.3950,0.0500,0.050,APPROACHING,0,510.64,469.96,0.00,0.00,0.00,0.00,0.51064,0.46996,0.00000,0.00000,0.00000,0.00000,-0.29216,-0.28228,0.00000,0.00000,0.00000,-0.00005,0.00000,0.00000,0.00000,0.00000,0.00000,0.00000,0.00000,0.00000,0.00000,0.00000,0.00000,0.00000,0.51064,0.46996,0.00000,0.00000,0.00000,-0.00000,0.29216,0.28228,0.00000,0.00000,0.00000,0.00005,0.0000,,,,0.0024,,,,,,"[0.719, 0.702, 1.000, 1.000, 0.000, 0.000, 0.000, 0.000]",0x11110000,3.3950,4,2,0.000000,0.000000,-0.000169,0.0000,NO
68,3.4450,3.4450,0.0500,0.050,APPROACHING,0,495.92,455.95,0.00,0.00,0.00,-0.00,0.49592,0.45595,0.00000,0.00000,0.00000,-0.00000,-0.29652,-0.27795,0.00000,0.00000,0.00000,-0.00013,0.00000,0.00000,0.00000,0.00000,0.00000,0.00000,0.00000,0.00000,0.00000,0.00000,0.00000,0.00000,0.49592,0.45595,0.00000,0.00000,0.00000,0.00000,0.29652,0.27795,0.00000,0.00000,0.00000,0.00013,0.0000,,,,0.0045,,,,,,"[0.000, 0.000, 1.000, 1.000, 1.000, 1.000, 0.000, 0.000]",0x00111100,3.4450,4,4,0.000000,0.000000,-0.000325,0.0000,NO
69,3.4950,3.4950,0.0500,0.050,APPROACHING,0,481.21,442.16,0.00,0.00,0.00,-0.00,0.48121,0.44216,0.00000,0.00000,0.00000,-0.00000,-0.29194,-0.27362,0.00000,0.00000,0.00000,0.00009,0.00000,0.00000,0.00000,0.00000,0.00000,0.00000,0.00000,0.00000,0.00000,0.00000,0.00000,0.00000,0.48121,0.44216,0.00000,0.00000,0.00000,0.00000,0.29194,0.27362,0.00000,0.00000,0.00000,-0.00009,0.0000,,,,0.0022,,,,,,"[0.000, 0.000, 1.000, 1.000, 1.000, 1.000, 0.000, 0.000]",0x00111100,3.4950,4,0,0.000000,0.000000,-0.000967,0.0000,NO
70,3.5450,3.5450,0.0500,0.050,APPROACHING,0,466.73,428.59,0.00,0.00,0.00,-0.00,0.46673,0.42859,0.00000,0.00000,0.00000,-0.00000,-0.28736,-0.26929,0.00000,0.00000,0.00000,-0.00006,0.00000,0.00000,0.00000,0.00000,0.00000,0.00000,0.00000,0.00000,0.00000,0.00000,0.00000,0.00000,0.46673,0.42859,0.00000,0.00000,0.00000,0.00000,0.28736,0.26929,0.00000,0.00000,0.00000,0.00006,0.0000,,,,0.0022,,,,,,"[0.000, 0.000, 1.000, 1.000, 1.000, 1.000, 0.000, 0.000]",0x00111100,3.5450,4,0,0.000000,0.000000,-0.000528,0.0000,NO
71,3.5950,3.5950,0.0500,0.050,APPROACHING,0,452.47,415.24,0.00,0.00,0.00,-0.00,0.45247,0.41524,0.00000,0.00000,0.00000,-0.00000,-0.28278,-0.26496,0.00000,0.00000,0.00000,0.00004,0.00000,0.00000,0.00000,0.00000,0.00000,0.00000,0.00000,0.00000,0.00000,0.00000,0.00000,0.00000,0.45247,0.41524,0.00000,0.00000,0.00000,0.00000,0.28278,0.26496,0.00000,0.00000,0.00000,-0.00004,0.0000,,,,0.0013,,,,,,"[0.000, 0.000, 1.000, 1.000, 1.000, 1.000, 0.000, 0.000]",0x00111100,3.5950,4,0,0.000000,0.000000,-0.000829,0.0000,NO
72,3.6450,3.6450,0.0500,0.050,APPROACHING,0,438.45,402.10,0.00,0.00,0.00,-0.00,0.43845,0.40210,0.00000,0.00000,0.00000,-0.00000,-0.27820,-0.26063,0.00000,0.00000,0.00000,-0.00003,0.00000,0.00000,0.00000,0.00000,0.00000,0.00000,0.00000,0.00000,0.00000,0.00000,0.00000,0.00000,0.43845,0.40210,0.00000,0.00000,0.00000,0.00000,0.27820,0.26063,0.00000,0.00000,0.00000,0.00003,0.0000,,,,0.0012,,,,,,"[0.000, 0.000, 1.000, 1.000, 1.000, 1.000, 0.000, 0.000]",0x00111100,3.6450,4,0,0.000000,0.000000,-0.000622,0.0000,NO
73,3.6950,3.6950,0.0500,0.050,APPROACHING,0,424.65,389.17,0.00,0.00,0.00,-0.00,0.42465,0.38917,0.00000,0.00000,0.00000,-0.00000,-0.27362,-0.25630,0.00000,0.00000,0.00000,0.00002,0.00000,0.00000,0.00000,0.00000,0.00000,0.00000,0.00000,0.00000,0.00000,0.00000,0.00000,0.00000,0.42465,0.38917,0.00000,0.00000,0.00000,0.00000,0.27362,0.25630,0.00000,0.00000,0.00000,-0.00002,0.0000,,,,0.0012,,,,,,"[0.000, 0.000, 1.000, 1.000, 1.000, 1.000, 0.000, 0.000]",0x00111100,3.6950,4,0,0.000000,0.000000,-0.000763,0.0000,NO
74,3.7450,3.7450,0.0500,0.050,APPROACHING,0,411.09,376.47,0.00,0.00,0.00,-0.00,0.41109,0.37647,0.00000,0.00000,0.00000,-0.00000,-0.26904,-0.25197,0.00000,0.00000,0.00000,-0.00001,0.00000,0.00000,0.00000,0.00000,0.00000,0.00000,0.00000,0.00000,0.00000,0.00000,0.00000,0.00000,0.41109,0.37647,0.00000,0.00000,0.00000,0.00000,0.26904,0.25197,0.00000,0.00000,0.00000,0.00001,0.0000,,,,0.0012,,,,,,"[0.000, 0.000, 1.000, 1.000, 1.000, 1.000, 0.000, 0.000]",0x00111100,3.7450,4,0,0.000000,0.000000,-0.000667,0.0000,NO
75,3.7950,3.7950,0.0500,0.050,APPROACHING,0,397.75,363.97,0.00,0.00,0.00,-0.00,0.39775,0.36397,0.00000,0.00000,0.00000,-0.00000,-0.26447,-0.24765,0.00000,0.00000,0.00000,0.00001,0.00000,0.00000,0.00000,0.00000,0.00000,0.00000,0.00000,0.00000,0.00000,0.00000,0.00000,0.00000,0.39775,0.36397,0.00000,0.00000,0.00000,0.00000,0.26447,0.24765,0.00000,0.00000,0.00000,-0.00001,0.0000,,,,0.0012,,,,,,"[0.000, 0.000, 1.000, 1.000, 1.000, 1.000, 0.000, 0.000]",0x00111100,3.7950,4,0,0.000000,0.000000,-0.000732,0.0000,NO
76,3.8450,3.8450,0.0500,0.050,APPROACHING,0,384.64,351.70,0.00,0.00,0.00,-0.00,0.38464,0.35170,0.00000,0.00000,0.00000,-0.00000,-0.25989,-0.24332,0.00000,0.00000,0.00000,-0.00000,0.00000,0.00000,0.00000,0.00000,0.00000,0.00000,0.00000,0.00000,0.00000,0.00000,0.00000,0.00000,0.38464,0.35170,0.00000,0.00000,0.00000,0.00000,0.25989,0.24332,0.00000,0.00000,0.00000,0.00000,0.0000,,,,0.0013,,,,,,"[0.001, 0.001, 0.999, 0.999, 0.999, 0.999, 0.001, 0.001]",0x00111100,3.8450,4,0,0.000000,0.000000,-0.000687,0.0000,NO
77,3.8950,3.8950,0.0500,0.050,APPROACHING,0,371.76,339.64,0.00,0.00,0.00,-0.00,0.37176,0.33964,0.00000,0.00000,0.00000,-0.00000,-0.25531,-0.23899,0.00000,0.00000,0.00000,0.00001,0.00000,0.00000,0.00000,0.00000,0.00000,0.00000,0.00000,0.00000,0.00000,0.00000,0.00000,0.00000,0.37176,0.33964,0.00000,0.00000,0.00000,0.00000,0.25531,0.23899,0.00000,0.00000,0.00000,-0.00001,0.0000,,,,0.0013,,,,,,"[0.001, 0.001, 0.999, 0.999, 0.999, 0.999, 0.002, 0.002]",0x00111100,3.8950,4,0,0.000000,0.000000,-0.000718,0.0000,NO
78,3.9450,3.9450,0.0500,0.050,APPROACHING,0,359.11,327.80,0.00,0.00,0.00,-0.00,0.35911,0.32780,0.00000,0.00000,0.00000,-0.00000,-0.25073,-0.23466,0.00000,0.00000,0.00000,-0.00000,0.00000,0.00000,0.00000,0.00000,0.00000,0.00000,0.00000,0.00000,0.00000,0.00000,0.00000,0.00000,0.35911,0.32780,0.00000,0.00000,0.00000,0.00000,0.25073,0.23466,0.00000,0.00000,0.00000,0.00000,0.0000,,,,0.0024,,,,,,"[0.001, 0.001, 0.999, 0.999, 0.999, 0.999, 0.002, 0.002]",0x00111100,3.9450,4,0,0.000000,0.000000,-0.000699,0.0000,NO
79,3.9950,3.9950,0.0500,0.050,APPROACHING,0,346.69,316.18,0.00,0.00,0.00,-0.00,0.34669,0.31618,0.00000,0.00000,0.00000,-0.00000,-0.24615,-0.23033,0.00000,0.00000,0.00000,0.00000,0.00000,0.00000,0.00000,0.00000,0.00000,0.00000,0.00000,0.00000,0.00000,0.00000,0.00000,0.00000,0.34669,0.31618,0.00000,0.00000,0.00000,0.00000,0.24615,0.23033,0.00000,0.00000,0.00000,-0.00000,0.0000,,,,0.0024,,,,,,"[0.001, 0.001, 0.999, 0.998, 0.999, 0.999, 0.002, 0.002]",0x00111100,3.9950,4,0,0.000000,0.000000,-0.000711,0.0000,NO
80,4.0450,4.0450,0.0500,0.050,APPROACHING,0,334.49,304.77,0.00,0.00,0.00,-0.00,0.33449,0.30477,0.00000,0.00000,0.00000,-0.00000,-0.24157,-0.22600,0.00000,0.00000,0.00000,0.00000,0.00000,0.00000,0.00000,0.00000,0.00000,0.00000,0.00000,0.00000,0.00000,0.00000,0.00000,0.00000,0.33449,0.30477,0.00000,0.00000,0.00000,0.00000,0.24157,0.22600,0.00000,0.00000,0.00000,-0.00000,0.0000,,,,0.0024,,,,,,"[0.002, 0.002, 0.998, 0.998, 0.998, 0.998, 0.002, 0.002]",0x00111100,4.0450,4,0,0.000000,0.000000,-0.000702,0.0000,NO
81,4.0950,4.0950,0.0500,0.050,APPROACHING,0,322.53,293.58,0.00,0.00,0.00,-0.00,0.32253,0.29358,0.00000,0.00000,0.00000,-0.00000,-0.23699,-0.22167,0.00000,0.00000,0.00000,0.00000,0.00000,0.00000,0.00000,0.00000,0.00000,0.00000,0.00000,0.00000,0.00000,0.00000,0.00000,0.00000,0.32253,0.29358,0.00000,0.00000,0.00000,0.00000,0.23699,0.22167,0.00000,0.00000,0.00000,-0.00000,0.0000,,,,0.0034,,,,,,"[0.001, 0.001, 0.999, 0.999, 0.999, 0.999, 0.001, 0.001]",0x00111100,4.0950,4,0,0.000000,0.000000,-0.000710,0.0000,NO
82,4.1450,4.1450,0.0500,0.050,APPROACHING,0,310.79,282.60,0.00,0.00,0.00,-0.00,0.31079,0.28260,0.00000,0.00000,0.00000,-0.00000,-0.23241,-0.21735,0.00000,0.00000,0.00000,0.00000,0.00000,0.00000,0.00000,0.00000,0.00000,0.00000,0.00000,0.00000,0.00000,0.00000,0.00000,0.00000,0.31079,0.28260,0.00000,0.00000,0.00000,0.00000,0.23241,0.21735,0.00000,0.00000,0.00000,-0.00000,0.0000,,,,0.0023,,,,,,"[0.002, 0.002, 0.999, 0.998, 0.998, 0.998, 0.002, 0.002]",0x00111100,4.1450,4,0,0.000000,0.000000,-0.000702,0.0000,NO
83,4.1950,4.1950,0.0500,0.050,APPROACHING,0,299.29,271.84,0.00,0.00,0.00,-0.00,0.29929,0.27184,0.00000,0.00000,0.00000,-0.00000,-0.22783,-0.21302,0.00000,0.00000,0.00000,0.00000,0.00000,0.00000,0.00000,0.00000,0.00000,0.00000,0.00000,0.00000,0.00000,0.00000,0.00000,0.00000,0.29929,0.27184,0.00000,0.00000,0.00000,0.00000,0.22783,0.21302,0.00000,0.00000,0.00000,-0.00000,0.0000,,,,0.0023,,,,,,"[0.002, 0.002, 0.999, 0.999, 0.998, 0.998, 0.001, 0.002]",0x00111100,4.1950,4,0,0.000000,0.000000,-0.000710,0.0000,NO
84,4.2450,4.2450,0.0500,0.050,APPROACHING,0,288.01,261.30,0.00,0.00,0.00,-0.00,0.28801,0.26130,0.00000,0.00000,0.00000,-0.00000,-0.22326,-0.20869,0.00000,0.00000,0.00000,0.00000,0.00000,0.00000,0.00000,0.00000,0.00000,0.00000,0.00000,0.00000,0.00000,0.00000,0.00000,0.00000,0.28801,0.26130,0.00000,0.00000,0.00000,0.00000,0.22326,0.20869,0.00000,0.00000,0.00000,-0.00000,0.0000,,,,0.0022,,,,,,"[0.001, 0.001, 0.999, 0.999, 0.999, 0.999, 0.001, 0.001]",0x00111100,4.2450,4,0,0.000000,0.000000,-0.000704,0.0000,NO
85,4.2950,4.2950,0.0500,0.050,APPROACHING,0,276.96,250.97,0.00,0.00,0.00,-0.00,0.27696,0.25097,0.00000,0.00000,0.00000,-0.00000,-0.21868,-0.20436,0.00000,0.00000,0.00000,0.00000,0.00000,0.00000,0.00000,0.00000,0.00000,0.00000,0.00000,0.00000,0.00000,0.00000,0.00000,0.00000,0.27696,0.25097,0.00000,0.00000,0.00000,0.00000,0.21868,0.20436,0.00000,0.00000,0.00000,-0.00000,0.0000,,,,0.0025,,,,,,"[0.001, 0.001, 0.999, 0.999, 0.999, 0.999, 0.001, 0.001]",0x00111100,4.2950,4,0,0.000000,0.000000,-0.000708,0.0000,NO
86,4.3450,4.3450,0.0500,0.050,APPROACHING,0,266.14,240.86,0.00,0.00,0.00,-0.00,0.26614,0.24086,0.00000,0.00000,0.00000,-0.00000,-0.21410,-0.20003,0.00000,0.00000,0.00000,0.00000,0.00000,0.00000,0.00000,0.00000,0.00000,0.00000,0.00000,0.00000,0.00000,0.00000,0.00000,0.00000,0.26614,0.24086,0.00000,0.00000,0.00000,0.00000,0.21410,0.20003,0.00000,0.00000,0.00000,-0.00000,0.0000,,,,0.0023,,,,,,"[0.001, 0.001, 0.999, 0.999, 0.999, 0.999, 0.001, 0.001]",0x00111100,4.3450,4,0,0.000000,0.000000,-0.000705,0.0000,NO
87,4.3950,4.3950,0.0500,0.050,APPROACHING,0,255.55,230.97,0.00,0.00,0.00,-0.00,0.25555,0.23097,0.00000,0.00000,0.00000,-0.00000,-0.20952,-0.19570,0.00000,0.00000,0.00000,0.00000,0.00000,0.00000,0.00000,0.00000,0.00000,0.00000,0.00000,0.00000,0.00000,0.00000,0.00000,0.00000,0.25555,0.23097,0.00000,0.00000,0.00000,0.00000,0.20952,0.19570,0.00000,0.00000,0.00000,-0.00000,0.0000,,,,0.0022,,,,,,"[0.001, 0.001, 0.999, 0.999, 0.999, 0.999, 0.001, 0.001]",0x00111100,4.3950,4,0,0.000000,0.000000,-0.000707,0.0000,NO
88,4.4450,4.4450,0.0500,0.050,APPROACHING,0,245.19,221.29,0.00,0.00,0.00,-0.00,0.24519,0.22129,0.00000,0.00000,0.00000,-0.00000,-0.20494,-0.19137,0.00000,0.00000,0.00000,0.00000,0.00000,0.00000,0.00000,0.00000,0.00000,0.00000,0.00000,0.00000,0.00000,0.00000,0.00000,0.00000,0.24519,0.22129,0.00000,0.00000,0.00000,0.00000,0.20494,0.19137,0.00000,0.00000,0.00000,-0.00000,0.0000,,,,0.0022,,,,,,"[0.001, 0.001, 0.999, 0.999, 0.999, 0.999, 0.001, 0.001]",0x00111100,4.4450,4,0,0.000000,0.000000,-0.000706,0.0000,NO
89,4.4950,4.4950,0.0500,0.050,APPROACHING,0,235.06,211.83,0.00,0.00,0.00,-0.00,0.23506,0.21183,0.00000,0.00000,0.00000,-0.00000,-0.20036,-0.18705,0.00000,0.00000,0.00000,0.00000,0.00000,0.00000,0.00000,0.00000,0.00000,0.00000,0.00000,0.00000,0.00000,0.00000,0.00000,0.00000,0.23506,0.21183,0.00000,0.00000,0.00000,0.00000,0.20036,0.18705,0.00000,0.00000,0.00000,-0.00000,0.0000,,,,0.0023,,,,,,"[0.001, 0.001, 0.999, 0.999, 0.999, 0.999, 0.001, 0.001]",0x00111100,4.4950,4,0,0.000000,0.000000,-0.000707,0.0000,NO
90,4.5450,4.5450,0.0500,0.050,APPROACHING,0,225.16,202.59,0.00,0.00,0.00,-0.00,0.22516,0.20259,0.00000,0.00000,0.00000,-0.00000,-0.19578,-0.18272,0.00000,0.00000,0.00000,0.00000,0.00000,0.00000,0.00000,0.00000,0.00000,0.00000,0.00000,0.00000,0.00000,0.00000,0.00000,0.00000,0.22516,0.20259,0.00000,0.00000,0.00000,0.00000,0.19578,0.18272,0.00000,0.00000,0.00000,-0.00000,0.0000,,,,0.0024,,,,,,"[0.001, 0.001, 0.999, 0.999, 0.999, 0.999, 0.001, 0.001]",0x00111100,4.5450,4,0,0.000000,0.000000,-0.000706,0.0000,NO
91,4.5950,4.5950,0.0500,0.050,APPROACHING,0,215.48,193.56,0.00,0.00,0.00,-0.00,0.21548,0.19356,0.00000,0.00000,0.00000,-0.00000,-0.19120,-0.17839,0.00000,0.00000,0.00000,0.00000,0.00000,0.00000,0.00000,0.00000,0.00000,0.00000,0.00000,0.00000,0.00000,0.00000,0.00000,0.00000,0.21548,0.19356,0.00000,0.00000,0.00000,0.00000,0.19120,0.17839,0.00000,0.00000,0.00000,-0.00000,0.0000,,,,0.0023,,,,,,"[0.001, 0.001, 0.999, 0.999, 0.999, 0.999, 0.001, 0.001]",0x00111100,4.5950,4,0,0.000000,0.000000,-0.000707,0.0000,NO
92,4.6450,4.6450,0.0500,0.050,APPROACHING,0,206.04,184.75,0.00,0.00,0.00,-0.00,0.20604,0.18475,0.00000,0.00000,0.00000,-0.00000,-0.18663,-0.17406,0.00000,0.00000,0.00000,0.00000,0.00000,0.00000,0.00000,0.00000,0.00000,0.00000,0.00000,0.00000,0.00000,0.00000,0.00000,0.00000,0.20604,0.18475,0.00000,0.00000,0.00000,0.00000,0.18663,0.17406,0.00000,0.00000,0.00000,-0.00000,0.0000,,,,0.0024,,,,,,"[0.001, 0.001, 0.999, 0.999, 0.999, 0.999, 0.001, 0.001]",0x00111100,4.6450,4,0,0.000000,0.000000,-0.000706,0.0000,NO
93,4.6950,4.6950,0.0500,0.050,APPROACHING,0,196.82,176.16,0.00,0.00,0.00,-0.00,0.19682,0.17616,0.00000,0.00000,0.00000,-0.00000,-0.18205,-0.16973,0.00000,0.00000,0.00000,0.00000,0.00000,0.00000,0.00000,0.00000,0.00000,0.00000,0.00000,0.00000,0.00000,0.00000,0.00000,0.00000,0.19682,0.17616,0.00000,0.00000,0.00000,0.00000,0.18205,0.16973,0.00000,0.00000,0.00000,-0.00000,0.0000,,,,0.0023,,,,,,"[0.001, 0.001, 0.999, 0.999, 0.999, 0.999, 0.001, 0.001]",0x00111100,4.6950,4,0,0.000000,0.000000,-0.000706,0.0000,NO
94,4.7450,4.7450,0.0500,0.050,APPROACHING,0,187.83,167.78,0.00,0.00,0.00,-0.00,0.18783,0.16778,0.00000,0.00000,0.00000,-0.00000,-0.17747,-0.16540,0.00000,0.00000,0.00000,0.00000,0.00000,0.00000,0.00000,0.00000,0.00000,0.00000,0.00000,0.00000,0.00000,0.00000,0.00000,0.00000,0.18783,0.16778,0.00000,0.00000,0.00000,0.00000,0.17747,0.16540,0.00000,0.00000,0.00000,-0.00000,0.0000,,,,0.0025,,,,,,"[0.001, 0.001, 0.999, 0.999, 0.999, 0.999, 0.001, 0.001]",0x00111100,4.7450,4,0,0.000000,0.000000,-0.000706,0.0000,NO
95,4.7950,4.7950,0.0500,0.050,APPROACHING,0,179.07,159.62,0.00,0.00,0.00,-0.00,0.17907,0.15962,0.00000,0.00000,0.00000,-0.00000,-0.17289,-0.16107,0.00000,0.00000,0.00000,0.00000,0.00000,0.00000,0.00000,0.00000,0.00000,0.00000,0.00000,0.00000,0.00000,0.00000,0.00000,0.00000,0.17907,0.15962,0.00000,0.00000,0.00000,0.00000,0.17289,0.16107,0.00000,0.00000,0.00000,-0.00000,0.0000,,,,0.0024,,,,,,"[0.001, 0.001, 0.999, 0.999, 0.999, 0.999, 0.001, 0.001]",0x00111100,4.7950,4,0,0.000000,0.000000,-0.000706,0.0000,NO
96,4.8450,4.8450,0.0500,0.050,APPROACHING,0,170.54,151.67,0.00,0.00,0.00,-0.00,0.17054,0.15167,0.00000,0.00000,0.00000,-0.00000,-0.16831,-0.15674,0.00000,0.00000,0.00000,0.00000,0.00000,0.00000,0.00000,0.00000,0.00000,0.00000,0.00000,0.00000,0.00000,0.00000,0.00000,0.00000,0.17054,0.15167,0.00000,0.00000,0.00000,0.00000,0.16831,0.15674,0.00000,0.00000,0.00000,-0.00000,0.0000,,,,0.0025,,,,,,"[0.001, 0.001, 0.999, 0.999, 0.999, 0.999, 0.001, 0.001]",0x00111100,4.8450,4,0,0.000000,0.000000,-0.000706,0.0000,NO
97,4.8950,4.8950,0.0500,0.050,APPROACHING,0,162.24,143.94,0.00,0.00,0.00,-0.00,0.16224,0.14394,0.00000,0.00000,0.00000,-0.00000,-0.16373,-0.15242,0.00000,0.00000,0.00000,0.00000,0.00000,0.00000,0.00000,0.00000,0.00000,0.00000,0.00000,0.00000,0.00000,0.00000,0.00000,0.00000,0.16224,0.14394,0.00000,0.00000,0.00000,0.00000,0.16373,0.15242,0.00000,0.00000,0.00000,-0.00000,0.0000,,,,0.0023,,,,,,"[0.000, 0.000, 0.999, 0.999, 1.000, 1.000, 0.001, 0.001]",0x00111100,4.8950,4,0,0.000000,0.000000,-0.000706,0.0000,NO
98,4.9450,4.9450,0.0500,0.050,APPROACHING,0,154.17,136.43,0.00,0.00,0.00,-0.00,0.15417,0.13643,0.00000,0.00000,0.00000,-0.00000,-0.15915,-0.14809,0.00000,0.00000,0.00000,0.00000,0.00000,0.00000,0.00000,0.00000,0.00000,0.00000,0.00000,0.00000,0.00000,0.00000,0.00000,0.00000,0.15417,0.13643,0.00000,0.00000,0.00000,0.00000,0.15915,0.14809,0.00000,0.00000,0.00000,-0.00000,0.0000,,,,0.0022,,,,,,"[0.000, 0.000, 1.000, 0.999, 1.000, 1.000, 0.001, 0.001]",0x00111100,4.9450,4,0,0.000000,0.000000,-0.000706,0.0000,NO
99,4.9950,4.9950,0.0500,0.050,APPROACHING,0,146.33,129.13,0.00,0.00,0.00,-0.00,0.14633,0.12913,0.00000,0.00000,0.00000,-0.00000,-0.15457,-0.14376,0.00000,0.00000,0.00000,0.00000,0.00000,0.00000,0.00000,0.00000,0.00000,0.00000,0.00000,0.00000,0.00000,0.00000,0.00000,0.00000,0.14633,0.12913,0.00000,0.00000,0.00000,0.00000,0.15457,0.14376,0.00000,0.00000,0.00000,-0.00000,0.0000,,,,0.0022,,,,,,"[0.000, 0.000, 1.000, 1.000, 1.000, 1.000, 0.000, 0.000]",0x00111100,4.9950,4,0,0.000000,0.000000,-0.000706,0.0000,NO
100,5.0450,5.0450,0.0500,0.050,APPROACHING,0,138.71,122.05,0.00,0.00,0.00,-0.00,0.13871,0.12205,0.00000,0.00000,0.00000,-0.00000,-0.14999,-0.13943,0.00000,0.00000,0.00000,0.00000,0.00000,0.00000,0.00000,0.00000,0.00000,0.00000,0.00000,0.00000,0.00000,0.00000,0.00000,0.00000,0.13871,0.12205,0.00000,0.00000,0.00000,0.00000,0.14999,0.13943,0.00000,0.00000,0.00000,-0.00000,0.0000,,,,0.0012,,,,,,"[0.001, 0.001, 0.998, 0.998, 0.998, 0.999, 0.002, 0.002]",0x00111100,5.0450,4,0,0.000000,0.000000,-0.000703,0.0000,NO
