Time,Current_X,Current_Y,Current_Z,Current_Roll,Current_Pitch,Current_Yaw,Current_VX,Current_VY,Current_VZ,Current_WX,Current_WY,Current_WZ,Target_X,Target_Y,Target_Z,Target_Roll,Target_Pitch,Target_Yaw,Error_X,Error_Y,Error_Z,Error_Roll,Error_Pitch,Error_Yaw,Command_Vector,Thruster_1_Cmd,Thruster_1_Val,Thruster_2_Cmd,Thruster_2_Val,Thruster_3_Cmd,Thruster_3_Val,Thruster_4_Cmd,Thruster_4_Val,Thruster_5_Cmd,Thruster_5_Val,Thruster_6_Cmd,Thruster_6_Val,Thruster_7_Cmd,Thruster_7_Val,Thruster_8_Cmd,Thruster_8_Val
0.0050,1.00000,1.00000,0.00000,0.00000,0.00000,0.00000,0.00000,0.00000,0.00000,0.00000,0.00000,0.00000,0.00000,0.00000,0.00000,0.00000,0.00000,0.00000,-1.00000,-1.00000,0.00000,0.00000,0.00000,0.00000,"[0.000, 0.000, 0.000, 0.000, 0.000, 0.000, 0.000, 0.000]",0.000,0.000,0.000,0.000,0.000,0.000,0.000,0.000,0.000,0.000,0.000,0.000,0.000,0.000,0.000,0.000
0.0100,1.00000,1.00000,0.00000,0.00000,0.00000,0.00000,0.00000,0.00000,0.00000,0.00000,0.00000,0.00000,0.00000,0.00000,0.00000,0.00000,0.00000,0.00000,-1.00000,-1.00000,0.00000,0.00000,0.00000,0.00000,"[0.000, 0.000, 0.000, 0.000, 0.000, 0.000, 0.000, 0.000]",0.000,0.000,0.000,0.000,0.000,0.000,0.000,0.000,0.000,0.000,0.000,0.000,0.000,0.000,0.000,0.000
0.0150,1.00000,1.00000,0.00000,0.00000,0.00000,0.00000,0.00000,0.00000,0.00000,0.00000,0.00000,0.00000,0.00000,0.00000,0.00000,0.00000,0.00000,0.00000,-1.00000,-1.00000,0.00000,0.00000,0.00000,0.00000,"[0.000, 0.000, 0.000, 0.000, 0.000, 0.000, 0.000, 0.000]",0.000,0.000,0.000,0.000,0.000,0.000,0.000,0.000,0.000,0.000,0.000,0.000,0.000,0.000,0.000,0.000
0.0200,1.00000,1.00000,0.00000,0.00000,0.00000,0.00000,0.00000,0.00000,0.00000,0.00000,0.00000,0.00000,0.00000,0.00000,0.00000,0.00000,0.00000,0.00000,-1.00000,-1.00000,0.00000,0.00000,0.00000,0.00000,"[0.000, 0.000, 0.000, 0.000, 0.000, 0.000, 0.000, 0.000]",0.000,0.000,0.000,0.000,0.000,0.000,0.000,0.000,0.000,0.000,0.000,0.000,0.000,0.000,0.000,0.000
0.0250,1.00000,1.00000,0.00000,0.00000,0.00000,0.00000,0.00000,0.00000,0.00000,0.00000,0.00000,0.00000,0.00000,0.00000,0.00000,0.00000,0.00000,0.00000,-1.00000,-1.00000,0.00000,0.00000,0.00000,0.00000,"[0.000, 0.000, 0.000, 0.000, 0.000, 0.000, 0.000, 0.000]",0.000,0.000,0.000,0.000,0.000,0.000,0.000,0.000,0.000,0.000,0.000,0.000,0.000,0.000,0.000,0.000
0.0300,1.00000,1.00000,0.00000,0.00000,0.00000,0.00000,0.00000,0.00000,0.00000,0.00000,0.00000,0.00000,0.00000,0.00000,0.00000,0.00000,0.00000,0.00000,-1.00000,-1.00000,0.00000,0.00000,0.00000,0.00000,"[0.000, 0.000, 0.000, 0.000, 0.000, 0.000, 0.000, 0.000]",0.000,0.000,0.000,0.000,0.000,0.000,0.000,0.000,0.000,0.000,0.000,0.000,0.000,0.000,0.000,0.000
0.0350,1.00000,1.00000,0.00000,0.00000,0.00000,0.00000,0.00000,0.00000,0.00000,0.00000,0.00000,0.00000,0.00000,0.00000,0.00000,0.00000,0.00000,0.00000,-1.00000,-1.00000,0.00000,0.00000,0.00000,0.00000,"[0.000, 0.000, 0.000, 0.000, 0.000, 0.000, 0.000, 0.000]",0.000,0.000,0.000,0.000,0.000,0.000,0.000,0.000,0.000,0.000,0.000,0.000,0.000,0.000,0.000,0.000
0.0400,1.00000,1.00000,0.00000,0.00000,0.00000,0.00000,0.00000,0.00000,0.00000,0.00000,0.00000,0.00000,0.00000,0.00000,0.00000,0.00000,0.00000,0.00000,-1.00000,-1.00000,0.00000,0.00000,0.00000,0.00000,"[0.000, 0.000, 0.000, 0.000, 0.000, 0.000, 0.000, 0.000]",0.000,0.000,0.000,0.000,0.000,0.000,0.000,0.000,0.000,0.000,0.000,0.000,0.000,0.000,0.000,0.000
0.0450,1.00000,1.00000,0.00000,0.00000,0.00000,0.00000,0.00000,0.00000,0.00000,0.00000,0.00000,0.00000,0.00000,0.00000,0.00000,0.00000,0.00000,0.00000,-1.00000,-1.00000,0.00000,0.00000,0.00000,0.00000,"[0.000, 0.000, 0.000, 0.000, 0.000, 0.000, 0.000, 0.000]",0.000,0.000,0.000,0.000,0.000,0.000,0.000,0.000,0.000,0.000,0.000,0.000,0.000,0.000,0.000,0.000
0.0500,1.00000,1.00000,0.00000,0.00000,0.00000,0.00000,-0.00044,-0.00048,0.00000,0.00000,0.00000,0.00000,0.00000,0.00000,0.00000,0.00000,0.00000,0.00000,-1.00000,-1.00000,0.00000,0.00000,0.00000,-0.00000,"[1.000, 1.000, 0.000, 0.000, 0.000, 0.000, 1.000, 1.000]",1.000,1.000,1.000,1.000,0.000,0.000,0.000,0.000,0.000,0.000,0.000,0.000,1.000,1.000,1.000,1.000
0.0550,1.00000,1.00000,0.00000,0.00000,0.00000,0.00000,-0.00087,-0.00095,0.00000,0.00000,0.00000,0.00000,0.00000,0.00000,0.00000,0.00000,0.00000,0.00000,-1.00000,-1.00000,0.00000,0.00000,0.00000,-0.00000,"[1.000, 1.000, 0.000, 0.000, 0.000, 0.000, 1.000, 1.000]",1.000,1.000,1.000,1.000,0.000,0.000,0.000,0.000,0.000,0.000,0.000,0.000,1.000,1.000,1.000,1.000
0.0600,0.99999,0.99999,0.00000,0.00000,0.00000,0.00000,-0.00131,-0.00143,0.00000,0.00000,0.00000,0.00000,0.00000,0.00000,0.00000,0.00000,0.00000,0.00000,-0.99999,-0.99999,0.00000,0.00000,0.00000,-0.00000,"[1.000, 1.000, 0.000, 0.000, 0.000, 0.000, 1.000, 1.000]",1.000,1.000,1.000,1.000,0.000,0.000,0.000,0.000,0.000,0.000,0.000,0.000,1.000,1.000,1.000,1.000
0.0650,0.99998,0.99998,0.00000,0.00000,0.00000,0.00000,-0.00174,-0.00190,0.00000,0.00000,0.00000,0.00000,0.00000,0.00000,0.00000,0.00000,0.00000,0.00000,-0.99998,-0.99998,0.00000,0.00000,0.00000,-0.00000,"[1.000, 1.000, 0.000, 0.000, 0.000, 0.000, 1.000, 1.000]",1.000,1.000,1.000,1.000,0.000,0.000,0.000,0.000,0.000,0.000,0.000,0.000,1.000,1.000,1.000,1.000
0.0700,0.99997,0.99997,0.00000,0.00000,0.00000,0.00000,-0.00218,-0.00238,0.00000,0.00000,0.00000,0.00000,0.00000,0.00000,0.00000,0.00000,0.00000,0.00000,-0.99997,-0.99997,0.00000,0.00000,0.00000,-0.00000,"[1.000, 1.000, 0.000, 0.000, 0.000, 0.000, 1.000, 1.000]",1.000,1.000,1.000,1.000,0.000,0.000,0.000,0.000,0.000,0.000,0.000,0.000,1.000,1.000,1.000,1.000
0.0750,0.99996,0.99996,0.00000,0.00000,0.00000,0.00000,-0.00262,-0.00285,0.00000,0.00000,0.00000,0.00000,0.00000,0.00000,0.00000,0.00000,0.00000,0.00000,-0.99996,-0.99996,0.00000,0.00000,0.00000,-0.00000,"[1.000, 1.000, 0.000, 0.000, 0.000, 0.000, 1.000, 1.000]",1.000,1.000,1.000,1.000,0.000,0.000,0.000,0.000,0.000,0.000,0.000,0.000,1.000,1.000,1.000,1.000
0.0800,0.99995,0.99994,0.00000,0.00000,0.00000,0.00000,-0.00305,-0.00333,0.00000,0.00000,0.00000,0.00000,0.00000,0.00000,0.00000,0.00000,0.00000,0.00000,-0.99995,-0.99994,0.00000,0.00000,0.00000,-0.00000,"[1.000, 1.000, 0.000, 0.000, 0.000, 0.000, 1.000, 1.000]",1.000,1.000,1.000,1.000,0.000,0.000,0.000,0.000,0.000,0.000,0.000,0.000,1.000,1.000,1.000,1.000
0.0850,0.99993,0.99992,0.00000,0.00000,0.00000,0.00000,-0.00349,-0.00380,0.00000,0.00000,0.00000,0.00000,0.00000,0.00000,0.00000,0.00000,0.00000,0.00000,-0.99993,-0.99992,0.00000,0.00000,0.00000,-0.00000,"[1.000, 1.000, 0.000, 0.000, 0.000, 0.000, 1.000, 1.000]",1.000,1.000,1.000,1.000,0.000,0.000,0.000,0.000,0.000,0.000,0.000,0.000,1.000,1.000,1.000,1.000
0.0900,0.99991,0.99990,0.00000,0.00000,0.00000,0.00000,-0.00392,-0.00428,0.00000,0.00000,0.00000,0.00000,0.00000,0.00000,0.00000,0.00000,0.00000,0.00000,-0.99991,-0.99990,0.00000,0.00000,0.00000,-0.00000,"[1.000, 1.000, 0.000, 0.000, 0.000, 0.000, 1.000, 1.000]",1.000,1.000,1.000,1.000,0.000,0.000,0.000,0.000,0.000,0.000,0.000,0.000,1.000,1.000,1.000,1.000
0.0950,0.99989,0.99988,0.00000,0.00000,0.00000,0.00000,-0.00436,-0.00476,0.00000,0.00000,0.00000,0.00000,0.00000,0.00000,0.00000,0.00000,0.00000,0.00000,-0.99989,-0.99988,0.00000,0.00000,0.00000,-0.00000,"[1.000, 1.000, 0.000, 0.000, 0.000, 0.000, 1.000, 1.000]",1.000,1.000,1.000,1.000,0.000,0.000,0.000,0.000,0.000,0.000,0.000,0.000,1.000,1.000,1.000,1.000
0.1000,0.99987,0.99986,0.00000,0.00000,0.00000,0.00000,-0.00480,-0.00523,0.00000,0.00000,0.00000,0.00000,0.00000,0.00000,0.00000,0.00000,0.00000,0.00000,-0.99987,-0.99986,0.00000,0.00000,0.00000,-0.00000,"[0.999, 0.999, 0.002, 0.002, 0.001, 0.001, 0.998, 0.998]",0.999,0.999,0.999,0.999,0.002,0.002,0.002,0.002,0.001,0.001,0.001,0.001,0.998,0.998,0.998,0.998
0.1050,0.99984,0.99983,0.00000,0.00000,0.00000,0.00000,-0.00523,-0.00571,0.00000,0.00000,0.00000,0.00000,0.00000,0.00000,0.00000,0.00000,0.00000,0.00000,-0.99984,-0.99983,0.00000,0.00000,0.00000,-0.00000,"[0.999, 0.999, 0.002, 0.002, 0.001, 0.001, 0.998, 0.998]",0.999,0.999,0.999,0.999,0.002,0.002,0.002,0.002,0.001,0.001,0.001,0.001,0.998,0.998,0.998,0.998
0.1100,0.99982,0.99980,0.00000,0.00000,0.00000,0.00000,-0.00567,-0.00618,0.00000,0.00000,0.00000,0.00000,0.00000,0.00000,0.00000,0.00000,0.00000,0.00000,-0.99982,-0.99980,0.00000,0.00000,0.00000,-0.00000,"[0.999, 0.999, 0.002, 0.002, 0.001, 0.001, 0.998, 0.998]",0.999,0.999,0.999,0.999,0.002,0.002,0.002,0.002,0.001,0.001,0.001,0.001,0.998,0.998,0.998,0.998
0.1150,0.99979,0.99977,0.00000,0.00000,0.00000,0.00000,-0.00610,-0.00666,0.00000,0.00000,0.00000,0.00000,0.00000,0.00000,0.00000,0.00000,0.00000,0.00000,-0.99979,-0.99977,0.00000,0.00000,0.00000,-0.00000,"[0.999, 0.999, 0.002, 0.002, 0.001, 0.001, 0.998, 0.998]",0.999,0.999,0.999,0.999,0.002,0.002,0.002,0.002,0.001,0.001,0.001,0.001,0.998,0.998,0.998,0.998
0.1200,0.99975,0.99973,0.00000,0.00000,0.00000,0.00000,-0.00654,-0.00713,0.00000,0.00000,0.00000,-0.00000,0.00000,0.00000,0.00000,0.00000,0.00000,0.00000,-0.99975,-0.99973,0.00000,0.00000,0.00000,-0.00000,"[0.999, 0.999, 0.002, 0.002, 0.001, 0.001, 0.998, 0.998]",0.999,0.999,0.999,0.999,0.002,0.002,0.002,0.002,0.001,0.001,0.001,0.001,0.998,0.998,0.998,0.998
0.1250,0.99972,0.99970,0.00000,0.00000,0.00000,0.00000,-0.00698,-0.00761,0.00000,0.00000,0.00000,-0.00000,0.00000,0.00000,0.00000,0.00000,0.00000,0.00000,-0.99972,-0.99970,0.00000,0.00000,0.00000,-0.00000,"[0.999, 0.999, 0.002, 0.002, 0.001, 0.001, 0.998, 0.998]",0.999,0.999,0.999,0.999,0.002,0.002,0.002,0.002,0.001,0.001,0.001,0.001,0.998,0.998,0.998,0.998
0.1300,0.99968,0.99966,0.00000,0.00000,0.00000,0.00000,-0.00741,-0.00808,0.00000,0.00000,0.00000,-0.00000,0.00000,0.00000,0.00000,0.00000,0.00000,0.00000,-0.99968,-0.99966,0.00000,0.00000,0.00000,-0.00000,"[0.999, 0.999, 0.002, 0.002, 0.001, 0.001, 0.998, 0.998]",0.999,0.999,0.999,0.999,0.002,0.002,0.002,0.002,0.001,0.001,0.001,0.001,0.998,0.998,0.998,0.998
0.1350,0.99965,0.99961,0.00000,0.00000,0.00000,0.00000,-0.00785,-0.00856,0.00000,0.00000,0.00000,-0.00000,0.00000,0.00000,0.00000,0.00000,0.00000,0.00000,-0.99965,-0.99961,0.00000,0.00000,0.00000,-0.00000,"[0.999, 0.999, 0.002, 0.002, 0.001, 0.001, 0.998, 0.998]",0.999,0.999,0.999,0.999,0.002,0.002,0.002,0.002,0.001,0.001,0.001,0.001,0.998,0.998,0.998,0.998
0.1400,0.99961,0.99957,0.00000,0.00000,0.00000,0.00000,-0.00829,-0.00904,0.00000,0.00000,0.00000,-0.00000,0.00000,0.00000,0.00000,0.00000,0.00000,0.00000,-0.99961,-0.99957,0.00000,0.00000,0.00000,-0.00000,"[0.999, 0.999, 0.002, 0.002, 0.001, 0.001, 0.998, 0.998]",0.999,0.999,0.999,0.999,0.002,0.002,0.002,0.002,0.001,0.001,0.001,0.001,0.998,0.998,0.998,0.998
0.1450,0.99956,0.99952,0.00000,0.00000,0.00000,0.00000,-0.00872,-0.00951,0.00000,0.00000,0.00000,-0.00000,0.00000,0.00000,0.00000,0.00000,0.00000,0.00000,-0.99956,-0.99952,0.00000,0.00000,0.00000,-0.00000,"[0.999, 0.999, 0.002, 0.002, 0.001, 0.001, 0.998, 0.998]",0.999,0.999,0.999,0.999,0.002,0.002,0.002,0.002,0.001,0.001,0.001,0.001,0.998,0.998,0.998,0.998
0.1500,0.99952,0.99948,0.00000,0.00000,0.00000,0.00000,-0.00916,-0.00999,0.00000,0.00000,0.00000,-0.00000,0.00000,0.00000,0.00000,0.00000,0.00000,0.00000,-0.99952,-0.99948,0.00000,0.00000,0.00000,-0.00000,"[0.998, 0.999, 0.002, 0.002, 0.002, 0.002, 0.998, 0.998]",0.998,0.998,0.999,0.999,0.002,0.002,0.002,0.002,0.002,0.002,0.002,0.002,0.998,0.998,0.998,0.998
0.1550,0.99947,0.99942,0.00000,0.00000,0.00000,0.00000,-0.00959,-0.01046,0.00000,0.00000,0.00000,-0.00000,0.00000,0.00000,0.00000,0.00000,0.00000,0.00000,-0.99947,-0.99942,0.00000,0.00000,0.00000,-0.00000,"[0.998, 0.999, 0.002, 0.002, 0.002, 0.002, 0.998, 0.998]",0.998,0.998,0.999,0.999,0.002,0.002,0.002,0.002,0.002,0.002,0.002,0.002,0.998,0.998,0.998,0.998
0.1600,0.99942,0.99937,0.00000,0.00000,0.00000,-0.00000,-0.01003,-0.01094,0.00000,0.00000,0.00000,-0.00000,0.00000,0.00000,0.00000,0.00000,0.00000,0.00000,-0.99942,-0.99937,0.00000,0.00000,0.00000,0.00000,"[0.998, 0.999, 0.002, 0.002, 0.002, 0.002, 0.998, 0.998]",0.998,0.998,0.999,0.999,0.002,0.002,0.002,0.002,0.002,0.002,0.002,0.002,0.998,0.998,0.998,0.998
0.1650,0.99937,0.99932,0.00000,0.00000,0.00000,-0.00000,-0.01047,-0.01141,0.00000,0.00000,0.00000,-0.00000,0.00000,0.00000,0.00000,0.00000,0.00000,0.00000,-0.99937,-0.99932,0.00000,0.00000,0.00000,0.00000,"[0.998, 0.999, 0.002, 0.002, 0.002, 0.002, 0.998, 0.998]",0.998,0.998,0.999,0.999,0.002,0.002,0.002,0.002,0.002,0.002,0.002,0.002,0.998,0.998,0.998,0.998
0.1700,0.99932,0.99926,0.00000,0.00000,0.00000,-0.00000,-0.01090,-0.01189,0.00000,0.00000,0.00000,-0.00000,0.00000,0.00000,0.00000,0.00000,0.00000,0.00000,-0.99932,-0.99926,0.00000,0.00000,0.00000,0.00000,"[0.998, 0.999, 0.002, 0.002, 0.002, 0.002, 0.998, 0.998]",0.998,0.998,0.999,0.999,0.002,0.002,0.002,0.002,0.002,0.002,0.002,0.002,0.998,0.998,0.998,0.998
0.1750,0.99926,0.99920,0.00000,0.00000,0.00000,-0.00000,-0.01134,-0.01236,0.00000,0.00000,0.00000,-0.00000,0.00000,0.00000,0.00000,0.00000,0.00000,0.00000,-0.99926,-0.99920,0.00000,0.00000,0.00000,0.00000,"[0.998, 0.999, 0.002, 0.002, 0.002, 0.002, 0.998, 0.998]",0.998,0.998,0.999,0.999,0.002,0.002,0.002,0.002,0.002,0.002,0.002,0.002,0.998,0.998,0.998,0.998
0.1800,0.99921,0.99913,0.00000,0.00000,0.00000,-0.00000,-0.01177,-0.01284,0.00000,0.00000,0.00000,-0.00000,0.00000,0.00000,0.00000,0.00000,0.00000,0.00000,-0.99921,-0.99913,0.00000,0.00000,0.00000,0.00000,"[0.998, 0.999, 0.002, 0.002, 0.002, 0.002, 0.998, 0.998]",0.998,0.998,0.999,0.999,0.002,0.002,0.002,0.002,0.002,0.002,0.002,0.002,0.998,0.998,0.998,0.998
0.1850,0.99915,0.99907,0.00000,0.00000,0.00000,-0.00000,-0.01221,-0.01332,0.00000,0.00000,0.00000,-0.00000,0.00000,0.00000,0.00000,0.00000,0.00000,0.00000,-0.99915,-0.99907,0.00000,0.00000,0.00000,0.00000,"[0.998, 0.999, 0.002, 0.002, 0.002, 0.002, 0.998, 0.998]",0.998,0.998,0.999,0.999,0.002,0.002,0.002,0.002,0.002,0.002,0.002,0.002,0.998,0.998,0.998,0.998
0.1900,0.99908,0.99900,0.00000,0.00000,0.00000,-0.00000,-0.01265,-0.01379,0.00000,0.00000,0.00000,-0.00000,0.00000,0.00000,0.00000,0.00000,0.00000,0.00000,-0.99908,-0.99900,0.00000,0.00000,0.00000,0.00000,"[0.998, 0.999, 0.002, 0.002, 0.002, 0.002, 0.998, 0.998]",0.998,0.998,0.999,0.999,0.002,0.002,0.002,0.002,0.002,0.002,0.002,0.002,0.998,0.998,0.998,0.998
0.1950,0.99902,0.99893,0.00000,0.00000,0.00000,-0.00000,-0.01308,-0.01427,0.00000,0.00000,0.00000,-0.00000,0.00000,0.00000,0.00000,0.00000,0.00000,0.00000,-0.99902,-0.99893,0.00000,0.00000,0.00000,0.00000,"[0.998, 0.999, 0.002, 0.002, 0.002, 0.002, 0.998, 0.998]",0.998,0.998,0.999,0.999,0.002,0.002,0.002,0.002,0.002,0.002,0.002,0.002,0.998,0.998,0.998,0.998
0.2000,0.99895,0.99886,0.00000,0.00000,0.00000,-0.00000,-0.01352,-0.01474,0.00000,0.00000,0.00000,-0.00000,0.00000,0.00000,0.00000,0.00000,0.00000,0.00000,-0.99895,-0.99886,0.00000,0.00000,0.00000,0.00000,"[0.999, 0.999, 0.001, 0.001, 0.002, 0.001, 0.999, 0.999]",0.999,0.999,0.999,0.999,0.001,0.001,0.001,0.001,0.002,0.002,0.001,0.001,0.999,0.999,0.999,0.999
0.2050,0.99888,0.99878,0.00000,0.00000,0.00000,-0.00000,-0.01395,-0.01522,0.00000,0.00000,0.00000,-0.00000,0.00000,0.00000,0.00000,0.00000,0.00000,0.00000,-0.99888,-0.99878,0.00000,0.00000,0.00000,0.00000,"[0.999, 0.999, 0.001, 0.001, 0.002, 0.001, 0.999, 0.999]",0.999,0.999,0.999,0.999,0.001,0.001,0.001,0.001,0.002,0.002,0.001,0.001,0.999,0.999,0.999,0.999
0.2100,0.99881,0.99871,0.00000,0.00000,0.00000,-0.00000,-0.01439,-0.01569,0.00000,0.00000,0.00000,-0.00000,0.00000,0.00000,0.00000,0.00000,0.00000,0.00000,-0.99881,-0.99871,0.00000,0.00000,0.00000,0.00000,"[0.999, 0.999, 0.001, 0.001, 0.002, 0.001, 0.999, 0.999]",0.999,0.999,0.999,0.999,0.001,0.001,0.001,0.001,0.002,0.002,0.001,0.001,0.999,0.999,0.999,0.999
0.2150,0.99874,0.99863,0.00000,0.00000,0.00000,-0.00000,-0.01483,-0.01617,0.00000,0.00000,0.00000,-0.00000,0.00000,0.00000,0.00000,0.00000,0.00000,0.00000,-0.99874,-0.99863,0.00000,0.00000,0.00000,0.00000,"[0.999, 0.999, 0.001, 0.001, 0.002, 0.001, 0.999, 0.999]",0.999,0.999,0.999,0.999,0.001,0.001,0.001,0.001,0.002,0.002,0.001,0.001,0.999,0.999,0.999,0.999
0.2200,0.99866,0.99854,0.00000,0.00000,0.00000,-0.00000,-0.01526,-0.01664,0.00000,0.00000,0.00000,-0.00000,0.00000,0.00000,0.00000,0.00000,0.00000,0.00000,-0.99866,-0.99854,0.00000,0.00000,0.00000,0.00000,"[0.999, 0.999, 0.001, 0.001, 0.002, 0.001, 0.999, 0.999]",0.999,0.999,0.999,0.999,0.001,0.001,0.001,0.001,0.002,0.002,0.001,0.001,0.999,0.999,0.999,0.999
0.2250,0.99859,0.99846,0.00000,0.00000,0.00000,-0.00000,-0.01570,-0.01712,0.00000,0.00000,0.00000,-0.00000,0.00000,0.00000,0.00000,0.00000,0.00000,0.00000,-0.99859,-0.99846,0.00000,0.00000,0.00000,0.00000,"[0.999, 0.999, 0.001, 0.001, 0.002, 0.001, 0.999, 0.999]",0.999,0.999,0.999,0.999,0.001,0.001,0.001,0.001,0.002,0.002,0.001,0.001,0.999,0.999,0.999,0.999
0.2300,0.99851,0.99837,0.00000,0.00000,0.00000,-0.00000,-0.01613,-0.01759,0.00000,0.00000,0.00000,-0.00000,0.00000,0.00000,0.00000,0.00000,0.00000,0.00000,-0.99851,-0.99837,0.00000,0.00000,0.00000,0.00000,"[0.999, 0.999, 0.001, 0.001, 0.002, 0.001, 0.999, 0.999]",0.999,0.999,0.999,0.999,0.001,0.001,0.001,0.001,0.002,0.002,0.001,0.001,0.999,0.999,0.999,0.999
0.2350,0.99843,0.99828,0.00000,0.00000,0.00000,-0.00000,-0.01657,-0.01807,0.00000,0.00000,0.00000,-0.00000,0.00000,0.00000,0.00000,0.00000,0.00000,0.00000,-0.99843,-0.99828,0.00000,0.00000,0.00000,0.00000,"[0.999, 0.999, 0.001, 0.001, 0.002, 0.001, 0.999, 0.999]",0.999,0.999,0.999,0.999,0.001,0.001,0.001,0.001,0.002,0.002,0.001,0.001,0.999,0.999,0.999,0.999
0.2400,0.99834,0.99819,0.00000,0.00000,0.00000,-0.00000,-0.01701,-0.01855,0.00000,0.00000,0.00000,-0.00000,0.00000,0.00000,0.00000,0.00000,0.00000,0.00000,-0.99834,-0.99819,0.00000,0.00000,0.00000,0.00000,"[0.999, 0.999, 0.001, 0.001, 0.002, 0.001, 0.999, 0.999]",0.999,0.999,0.999,0.999,0.001,0.001,0.001,0.001,0.002,0.002,0.001,0.001,0.999,0.999,0.999,0.999
0.2450,0.99826,0.99810,0.00000,0.00000,0.00000,-0.00000,-0.01744,-0.01902,0.00000,0.00000,0.00000,-0.00000,0.00000,0.00000,0.00000,0.00000,0.00000,0.00000,-0.99826,-0.99810,0.00000,0.00000,0.00000,0.00000,"[0.999, 0.999, 0.001, 0.001, 0.002, 0.001, 0.999, 0.999]",0.999,0.999,0.999,0.999,0.001,0.001,0.001,0.001,0.002,0.002,0.001,0.001,0.999,0.999,0.999,0.999
0.2500,0.99817,0.99800,0.00000,0.00000,0.00000,-0.00000,-0.01788,-0.01950,0.00000,0.00000,0.00000,-0.00000,0.00000,0.00000,0.00000,0.00000,0.00000,0.00000,-0.99817,-0.99800,0.00000,0.00000,0.00000,0.00000,"[0.998, 0.998, 0.002, 0.002, 0.002, 0.002, 0.998, 0.998]",0.998,0.998,0.998,0.998,0.002,0.002,0.002,0.002,0.002,0.002,0.002,0.002,0.998,0.998,0.998,0.998
0.2550,0.99808,0.99790,0.00000,0.00000,0.00000,-0.00000,-0.01831,-0.01997,0.00000,0.00000,0.00000,-0.00000,0.00000,0.00000,0.00000,0.00000,0.00000,0.00000,-0.99808,-0.99790,0.00000,0.00000,0.00000,0.00000,"[0.998, 0.998, 0.002, 0.002, 0.002, 0.002, 0.998, 0.998]",0.998,0.998,0.998,0.998,0.002,0.002,0.002,0.002,0.002,0.002,0.002,0.002,0.998,0.998,0.998,0.998
0.2600,0.99798,0.99780,0.00000,0.00000,0.00000,-0.00000,-0.01875,-0.02045,0.00000,0.00000,0.00000,-0.00000,0.00000,0.00000,0.00000,0.00000,0.00000,0.00000,-0.99798,-0.99780,0.00000,0.00000,0.00000,0.00000,"[0.998, 0.998, 0.002, 0.002, 0.002, 0.002, 0.998, 0.998]",0.998,0.998,0.998,0.998,0.002,0.002,0.002,0.002,0.002,0.002,0.002,0.002,0.998,0.998,0.998,0.998
0.2650,0.99789,0.99770,0.00000,0.00000,0.00000,-0.00000,-0.01919,-0.02092,0.00000,0.00000,0.00000,-0.00000,0.00000,0.00000,0.00000,0.00000,0.00000,0.00000,-0.99789,-0.99770,0.00000,0.00000,0.00000,0.00000,"[0.998, 0.998, 0.002, 0.002, 0.002, 0.002, 0.998, 0.998]",0.998,0.998,0.998,0.998,0.002,0.002,0.002,0.002,0.002,0.002,0.002,0.002,0.998,0.998,0.998,0.998
0.2700,0.99779,0.99759,0.00000,0.00000,0.00000,-0.00000,-0.01962,-0.02140,0.00000,0.00000,0.00000,-0.00000,0.00000,0.00000,0.00000,0.00000,0.00000,0.00000,-0.99779,-0.99759,0.00000,0.00000,0.00000,0.00000,"[0.998, 0.998, 0.002, 0.002, 0.002, 0.002, 0.998, 0.998]",0.998,0.998,0.998,0.998,0.002,0.002,0.002,0.002,0.002,0.002,0.002,0.002,0.998,0.998,0.998,0.998
0.2750,0.99769,0.99748,0.00000,0.00000,0.00000,-0.00000,-0.02006,-0.02187,0.00000,0.00000,0.00000,-0.00000,0.00000,0.00000,0.00000,0.00000,0.00000,0.00000,-0.99769,-0.99748,0.00000,0.00000,0.00000,0.00000,"[0.998, 0.998, 0.002, 0.002, 0.002, 0.002, 0.998, 0.998]",0.998,0.998,0.998,0.998,0.002,0.002,0.002,0.002,0.002,0.002,0.002,0.002,0.998,0.998,0.998,0.998
0.2800,0.99759,0.99737,0.00000,0.00000,0.00000,-0.00000,-0.02049,-0.02235,0.00000,0.00000,0.00000,-0.00000,0.00000,0.00000,0.00000,0.00000,0.00000,0.00000,-0.99759,-0.99737,0.00000,0.00000,0.00000,0.00000,"[0.998, 0.998, 0.002, 0.002, 0.002, 0.002, 0.998, 0.998]",0.998,0.998,0.998,0.998,0.002,0.002,0.002,0.002,0.002,0.002,0.002,0.002,0.998,0.998,0.998,0.998
0.2850,0.99749,0.99726,0.00000,0.00000,0.00000,-0.00000,-0.02093,-0.02283,0.00000,0.00000,0.00000,-0.00000,0.00000,0.00000,0.00000,0.00000,0.00000,0.00000,-0.99749,-0.99726,0.00000,0.00000,0.00000,0.00000,"[0.998, 0.998, 0.002, 0.002, 0.002, 0.002, 0.998, 0.998]",0.998,0.998,0.998,0.998,0.002,0.002,0.002,0.002,0.002,0.002,0.002,0.002,0.998,0.998,0.998,0.998
0.2900,0.99738,0.99715,0.00000,0.00000,0.00000,-0.00000,-0.02137,-0.02330,0.00000,0.00000,0.00000,-0.00000,0.00000,0.00000,0.00000,0.00000,0.00000,0.00000,-0.99738,-0.99715,0.00000,0.00000,0.00000,0.00000,"[0.998, 0.998, 0.002, 0.002, 0.002, 0.002, 0.998, 0.998]",0.998,0.998,0.998,0.998,0.002,0.002,0.002,0.002,0.002,0.002,0.002,0.002,0.998,0.998,0.998,0.998
0.2950,0.99727,0.99703,0.00000,0.00000,0.00000,-0.00000,-0.02180,-0.02378,0.00000,0.00000,0.00000,-0.00000,0.00000,0.00000,0.00000,0.00000,0.00000,0.00000,-0.99727,-0.99703,0.00000,0.00000,0.00000,0.00000,"[0.998, 0.998, 0.002, 0.002, 0.002, 0.002, 0.998, 0.998]",0.998,0.998,0.998,0.998,0.002,0.002,0.002,0.002,0.002,0.002,0.002,0.002,0.998,0.998,0.998,0.998
0.3000,0.99716,0.99691,0.00000,0.00000,0.00000,-0.00000,-0.02224,-0.02425,0.00000,0.00000,0.00000,-0.00000,0.00000,0.00000,0.00000,0.00000,0.00000,0.00000,-0.99716,-0.99691,0.00000,0.00000,0.00000,0.00000,"[0.999, 0.999, 0.001, 0.001, 0.001, 0.001, 0.999, 0.999]",0.999,0.999,0.999,0.999,0.001,0.001,0.001,0.001,0.001,0.001,0.001,0.001,0.999,0.999,0.999,0.999
0.3050,0.99705,0.99679,0.00000,0.00000,0.00000,-0.00000,-0.02267,-0.02473,0.00000,0.00000,0.00000,-0.00000,0.00000,0.00000,0.00000,0.00000,0.00000,0.00000,-0.99705,-0.99679,0.00000,0.00000,0.00000,0.00000,"[0.999, 0.999, 0.001, 0.001, 0.001, 0.001, 0.999, 0.999]",0.999,0.999,0.999,0.999,0.001,0.001,0.001,0.001,0.001,0.001,0.001,0.001,0.999,0.999,0.999,0.999
0.3100,0.99694,0.99666,0.00000,0.00000,0.00000,-0.00000,-0.02311,-0.02520,0.00000,0.00000,0.00000,-0.00000,0.00000,0.00000,0.00000,0.00000,0.00000,0.00000,-0.99694,-0.99666,0.00000,0.00000,0.00000,0.00000,"[0.999, 0.999, 0.001, 0.001, 0.001, 0.001, 0.999, 0.999]",0.999,0.999,0.999,0.999,0.001,0.001,0.001,0.001,0.001,0.001,0.001,0.001,0.999,0.999,0.999,0.999
0.3150,0.99682,0.99653,0.00000,0.00000,0.00000,-0.00000,-0.02355,-0.02568,0.00000,0.00000,0.00000,-0.00000,0.00000,0.00000,0.00000,0.00000,0.00000,0.00000,-0.99682,-0.99653,0.00000,0.00000,0.00000,0.00000,"[0.999, 0.999, 0.001, 0.001, 0.001, 0.001, 0.999, 0.999]",0.999,0.999,0.999,0.999,0.001,0.001,0.001,0.001,0.001,0.001,0.001,0.001,0.999,0.999,0.999,0.999
0.3200,0.99670,0.99640,0.00000,0.00000,0.00000,-0.00000,-0.02398,-0.02615,0.00000,0.00000,0.00000,-0.00000,0.00000,0.00000,0.00000,0.00000,0.00000,0.00000,-0.99670,-0.99640,0.00000,0.00000,0.00000,0.00000,"[0.999, 0.999, 0.001, 0.001, 0.001, 0.001, 0.999, 0.999]",0.999,0.999,0.999,0.999,0.001,0.001,0.001,0.001,0.001,0.001,0.001,0.001,0.999,0.999,0.999,0.999
0.3250,0.99658,0.99627,0.00000,0.00000,0.00000,-0.00000,-0.02442,-0.02663,0.00000,0.00000,0.00000,-0.00000,0.00000,0.00000,0.00000,0.00000,0.00000,0.00000,-0.99658,-0.99627,0.00000,0.00000,0.00000,0.00000,"[0.999, 0.999, 0.001, 0.001, 0.001, 0.001, 0.999, 0.999]",0.999,0.999,0.999,0.999,0.001,0.001,0.001,0.001,0.001,0.001,0.001,0.001,0.999,0.999,0.999,0.999
0.3300,0.99646,0.99614,0.00000,0.00000,0.00000,-0.00000,-0.02486,-0.02711,0.00000,0.00000,0.00000,-0.00000,0.00000,0.00000,0.00000,0.00000,0.00000,0.00000,-0.99646,-0.99614,0.00000,0.00000,0.00000,0.00000,"[0.999, 0.999, 0.001, 0.001, 0.001, 0.001, 0.999, 0.999]",0.999,0.999,0.999,0.999,0.001,0.001,0.001,0.001,0.001,0.001,0.001,0.001,0.999,0.999,0.999,0.999
0.3350,0.99633,0.99600,0.00000,0.00000,0.00000,-0.00000,-0.02529,-0.02758,0.00000,0.00000,0.00000,-0.00000,0.00000,0.00000,0.00000,0.00000,0.00000,0.00000,-0.99633,-0.99600,0.00000,0.00000,0.00000,0.00000,"[0.999, 0.999, 0.001, 0.001, 0.001, 0.001, 0.999, 0.999]",0.999,0.999,0.999,0.999,0.001,0.001,0.001,0.001,0.001,0.001,0.001,0.001,0.999,0.999,0.999,0.999
0.3400,0.99621,0.99586,0.00000,0.00000,0.00000,-0.00000,-0.02573,-0.02806,0.00000,0.00000,0.00000,-0.00000,0.00000,0.00000,0.00000,0.00000,0.00000,0.00000,-0.99621,-0.99586,0.00000,0.00000,0.00000,0.00000,"[0.999, 0.999, 0.001, 0.001, 0.001, 0.001, 0.999, 0.999]",0.999,0.999,0.999,0.999,0.001,0.001,0.001,0.001,0.001,0.001,0.001,0.001,0.999,0.999,0.999,0.999
0.3450,0.99608,0.99572,0.00000,0.00000,0.00000,-0.00000,-0.02616,-0.02853,0.00000,0.00000,0.00000,-0.00000,0.00000,0.00000,0.00000,0.00000,0.00000,0.00000,-0.99608,-0.99572,0.00000,0.00000,0.00000,0.00000,"[0.999, 0.999, 0.001, 0.001, 0.001, 0.001, 0.999, 0.999]",0.999,0.999,0.999,0.999,0.001,0.001,0.001,0.001,0.001,0.001,0.001,0.001,0.999,0.999,0.999,0.999
0.3500,0.99594,0.99558,0.00000,0.00000,0.00000,-0.00000,-0.02660,-0.02901,0.00000,0.00000,0.00000,-0.00000,0.00000,0.00000,0.00000,0.00000,0.00000,0.00000,-0.99594,-0.99558,0.00000,0.00000,0.00000,0.00000,"[0.999, 0.999, 0.002, 0.002, 0.002, 0.001, 0.998, 0.998]",0.999,0.999,0.999,0.999,0.002,0.002,0.002,0.002,0.002,0.002,0.001,0.001,0.998,0.998,0.998,0.998
0.3550,0.99581,0.99543,0.00000,0.00000,0.00000,-0.00000,-0.02704,-0.02948,0.00000,0.00000,0.00000,-0.00000,0.00000,0.00000,0.00000,0.00000,0.00000,0.00000,-0.99581,-0.99543,0.00000,0.00000,0.00000,0.00000,"[0.999, 0.999, 0.002, 0.002, 0.002, 0.001, 0.998, 0.998]",0.999,0.999,0.999,0.999,0.002,0.002,0.002,0.002,0.002,0.002,0.001,0.001,0.998,0.998,0.998,0.998
0.3600,0.99567,0.99528,0.00000,0.00000,0.00000,-0.00000,-0.02747,-0.02996,0.00000,0.00000,0.00000,-0.00000,0.00000,0.00000,0.00000,0.00000,0.00000,0.00000,-0.99567,-0.99528,0.00000,0.00000,0.00000,0.00000,"[0.999, 0.999, 0.002, 0.002, 0.002, 0.001, 0.998, 0.998]",0.999,0.999,0.999,0.999,0.002,0.002,0.002,0.002,0.002,0.002,0.001,0.001,0.998,0.998,0.998,0.998
0.3650,0.99553,0.99513,0.00000,0.00000,0.00000,-0.00000,-0.02791,-0.03043,0.00000,0.00000,0.00000,-0.00000,0.00000,0.00000,0.00000,0.00000,0.00000,0.00000,-0.99553,-0.99513,0.00000,0.00000,0.00000,0.00000,"[0.999, 0.999, 0.002, 0.002, 0.002, 0.001, 0.998, 0.998]",0.999,0.999,0.999,0.999,0.002,0.002,0.002,0.002,0.002,0.002,0.001,0.001,0.998,0.998,0.998,0.998
0.3700,0.99539,0.99498,0.00000,0.00000,0.00000,-0.00000,-0.02834,-0.03091,0.00000,0.00000,0.00000,-0.00000,0.00000,0.00000,0.00000,0.00000,0.00000,0.00000,-0.99539,-0.99498,0.00000,0.00000,0.00000,0.00000,"[0.999, 0.999, 0.002, 0.002, 0.002, 0.001, 0.998, 0.998]",0.999,0.999,0.999,0.999,0.002,0.002,0.002,0.002,0.002,0.002,0.001,0.001,0.998,0.998,0.998,0.998
0.3750,0.99525,0.99482,0.00000,0.00000,0.00000,-0.00000,-0.02878,-0.03139,0.00000,0.00000,0.00000,-0.00000,0.00000,0.00000,0.00000,0.00000,0.00000,0.00000,-0.99525,-0.99482,0.00000,0.00000,0.00000,0.00000,"[0.999, 0.999, 0.002, 0.002, 0.002, 0.001, 0.998, 0.998]",0.999,0.999,0.999,0.999,0.002,0.002,0.002,0.002,0.002,0.002,0.001,0.001,0.998,0.998,0.998,0.998
0.3800,0.99511,0.99466,0.00000,0.00000,0.00000,-0.00000,-0.02922,-0.03186,0.00000,0.00000,0.00000,-0.00000,0.00000,0.00000,0.00000,0.00000,0.00000,0.00000,-0.99511,-0.99466,0.00000,0.00000,0.00000,0.00000,"[0.999, 0.999, 0.002, 0.002, 0.002, 0.001, 0.998, 0.998]",0.999,0.999,0.999,0.999,0.002,0.002,0.002,0.002,0.002,0.002,0.001,0.001,0.998,0.998,0.998,0.998
0.3850,0.99496,0.99450,0.00000,0.00000,0.00000,-0.00000,-0.02965,-0.03234,0.00000,0.00000,0.00000,-0.00000,0.00000,0.00000,0.00000,0.00000,0.00000,0.00000,-0.99496,-0.99450,0.00000,0.00000,0.00000,0.00000,"[0.999, 0.999, 0.002, 0.002, 0.002, 0.001, 0.998, 0.998]",0.999,0.999,0.999,0.999,0.002,0.002,0.002,0.002,0.002,0.002,0.001,0.001,0.998,0.998,0.998,0.998
0.3900,0.99481,0.99434,0.00000,0.00000,0.00000,-0.00000,-0.03009,-0.03281,0.00000,0.00000,0.00000,-0.00000,0.00000,0.00000,0.00000,0.00000,0.00000,0.00000,-0.99481,-0.99434,0.00000,0.00000,0.00000,0.00000,"[0.999, 0.999, 0.002, 0.002, 0.002, 0.001, 0.998, 0.998]",0.999,0.999,0.999,0.999,0.002,0.002,0.002,0.002,0.002,0.002,0.001,0.001,0.998,0.998,0.998,0.998
0.3950,0.99466,0.99417,0.00000,0.00000,0.00000,-0.00000,-0.03052,-0.03329,0.00000,0.00000,0.00000,-0.00000,0.00000,0.00000,0.00000,0.00000,0.00000,0.00000,-0.99466,-0.99417,0.00000,0.00000,0.00000,0.00000,"[0.999, 0.999, 0.002, 0.002, 0.002, 0.001, 0.998, 0.998]",0.999,0.999,0.999,0.999,0.002,0.002,0.002,0.002,0.002,0.002,0.001,0.001,0.998,0.998,0.998,0.998
0.4000,0.99450,0.99401,0.00000,0.00000,0.00000,-0.00000,-0.03096,-0.03376,0.00000,0.00000,0.00000,-0.00000,0.00000,0.00000,0.00000,0.00000,0.00000,0.00000,-0.99450,-0.99401,0.00000,0.00000,0.00000,0.00000,"[0.999, 0.999, 0.001, 0.001, 0.001, 0.001, 0.999, 0.999]",0.999,0.999,0.999,0.999,0.001,0.001,0.001,0.001,0.001,0.001,0.001,0.001,0.999,0.999,0.999,0.999
0.4050,0.99435,0.99384,0.00000,0.00000,0.00000,-0.00000,-0.03140,-0.03424,0.00000,0.00000,0.00000,-0.00000,0.00000,0.00000,0.00000,0.00000,0.00000,0.00000,-0.99435,-0.99384,0.00000,0.00000,0.00000,0.00000,"[0.999, 0.999, 0.001, 0.001, 0.001, 0.001, 0.999, 0.999]",0.999,0.999,0.999,0.999,0.001,0.001,0.001,0.001,0.001,0.001,0.001,0.001,0.999,0.999,0.999,0.999
0.4100,0.99419,0.99366,0.00000,0.00000,0.00000,-0.00000,-0.03183,-0.03471,0.00000,0.00000,0.00000,-0.00000,0.00000,0.00000,0.00000,0.00000,0.00000,0.00000,-0.99419,-0.99366,0.00000,0.00000,0.00000,0.00000,"[0.999, 0.999, 0.001, 0.001, 0.001, 0.001, 0.999, 0.999]",0.999,0.999,0.999,0.999,0.001,0.001,0.001,0.001,0.001,0.001,0.001,0.001,0.999,0.999,0.999,0.999
0.4150,0.99403,0.99349,0.00000,0.00000,0.00000,-0.00000,-0.03227,-0.03519,0.00000,0.00000,0.00000,-0.00000,0.00000,0.00000,0.00000,0.00000,0.00000,0.00000,-0.99403,-0.99349,0.00000,0.00000,0.00000,0.00000,"[0.999, 0.999, 0.001, 0.001, 0.001, 0.001, 0.999, 0.999]",0.999,0.999,0.999,0.999,0.001,0.001,0.001,0.001,0.001,0.001,0.001,0.001,0.999,0.999,0.999,0.999
0.4200,0.99387,0.99331,0.00000,0.00000,0.00000,-0.00000,-0.03270,-0.03567,0.00000,0.00000,0.00000,-0.00000,0.00000,0.00000,0.00000,0.00000,0.00000,0.00000,-0.99387,-0.99331,0.00000,0.00000,0.00000,0.00000,"[0.999, 0.999, 0.001, 0.001, 0.001, 0.001, 0.999, 0.999]",0.999,0.999,0.999,0.999,0.001,0.001,0.001,0.001,0.001,0.001,0.001,0.001,0.999,0.999,0.999,0.999
0.4250,0.99370,0.99313,0.00000,0.00000,0.00000,-0.00000,-0.03314,-0.03614,0.00000,0.00000,0.00000,-0.00000,0.00000,0.00000,0.00000,0.00000,0.00000,0.00000,-0.99370,-0.99313,0.00000,0.00000,0.00000,0.00000,"[0.999, 0.999, 0.001, 0.001, 0.001, 0.001, 0.999, 0.999]",0.999,0.999,0.999,0.999,0.001,0.001,0.001,0.001,0.001,0.001,0.001,0.001,0.999,0.999,0.999,0.999
0.4300,0.99354,0.99295,0.00000,0.00000,0.00000,-0.00000,-0.03358,-0.03662,0.00000,0.00000,0.00000,-0.00000,0.00000,0.00000,0.00000,0.00000,0.00000,0.00000,-0.99354,-0.99295,0.00000,0.00000,0.00000,0.00000,"[0.999, 0.999, 0.001, 0.001, 0.001, 0.001, 0.999, 0.999]",0.999,0.999,0.999,0.999,0.001,0.001,0.001,0.001,0.001,0.001,0.001,0.001,0.999,0.999,0.999,0.999
0.4350,0.99337,0.99277,0.00000,0.00000,0.00000,-0.00000,-0.03401,-0.03709,0.00000,0.00000,0.00000,-0.00000,0.00000,0.00000,0.00000,0.00000,0.00000,0.00000,-0.99337,-0.99277,0.00000,0.00000,0.00000,0.00000,"[0.999, 0.999, 0.001, 0.001, 0.001, 0.001, 0.999, 0.999]",0.999,0.999,0.999,0.999,0.001,0.001,0.001,0.001,0.001,0.001,0.001,0.001,0.999,0.999,0.999,0.999
0.4400,0.99320,0.99258,0.00000,0.00000,0.00000,-0.00000,-0.03445,-0.03757,0.00000,0.00000,0.00000,-0.00000,0.00000,0.00000,0.00000,0.00000,0.00000,0.00000,-0.99320,-0.99258,0.00000,0.00000,0.00000,0.00000,"[0.999, 0.999, 0.001, 0.001, 0.001, 0.001, 0.999, 0.999]",0.999,0.999,0.999,0.999,0.001,0.001,0.001,0.001,0.001,0.001,0.001,0.001,0.999,0.999,0.999,0.999
0.4450,0.99302,0.99239,0.00000,0.00000,0.00000,-0.00000,-0.03488,-0.03804,0.00000,0.00000,0.00000,-0.00000,0.00000,0.00000,0.00000,0.00000,0.00000,0.00000,-0.99302,-0.99239,0.00000,0.00000,0.00000,0.00000,"[0.999, 0.999, 0.001, 0.001, 0.001, 0.001, 0.999, 0.999]",0.999,0.999,0.999,0.999,0.001,0.001,0.001,0.001,0.001,0.001,0.001,0.001,0.999,0.999,0.999,0.999
0.4500,0.99285,0.99220,0.00000,0.00000,0.00000,-0.00000,-0.03532,-0.03852,0.00000,0.00000,0.00000,-0.00000,0.00000,0.00000,0.00000,0.00000,0.00000,0.00000,-0.99285,-0.99220,0.00000,0.00000,0.00000,0.00000,"[0.999, 0.999, 0.001, 0.001, 0.001, 0.001, 0.999, 0.999]",0.999,0.999,0.999,0.999,0.001,0.001,0.001,0.001,0.001,0.001,0.001,0.001,0.999,0.999,0.999,0.999
0.4550,0.99267,0.99201,0.00000,0.00000,0.00000,-0.00000,-0.03576,-0.03899,0.00000,0.00000,0.00000,-0.00000,0.00000,0.00000,0.00000,0.00000,0.00000,0.00000,-0.99267,-0.99201,0.00000,0.00000,0.00000,0.00000,"[0.999, 0.999, 0.001, 0.001, 0.001, 0.001, 0.999, 0.999]",0.999,0.999,0.999,0.999,0.001,0.001,0.001,0.001,0.001,0.001,0.001,0.001,0.999,0.999,0.999,0.999
0.4600,0.99249,0.99181,0.00000,0.00000,0.00000,-0.00000,-0.03619,-0.03947,0.00000,0.00000,0.00000,-0.00000,0.00000,0.00000,0.00000,0.00000,0.00000,0.00000,-0.99249,-0.99181,0.00000,0.00000,0.00000,0.00000,"[0.999, 0.999, 0.001, 0.001, 0.001, 0.001, 0.999, 0.999]",0.999,0.999,0.999,0.999,0.001,0.001,0.001,0.001,0.001,0.001,0.001,0.001,0.999,0.999,0.999,0.999
0.4650,0.99231,0.99161,0.00000,0.00000,0.00000,-0.00000,-0.03663,-0.03995,0.00000,0.00000,0.00000,-0.00000,0.00000,0.00000,0.00000,0.00000,0.00000,0.00000,-0.99231,-0.99161,0.00000,0.00000,0.00000,0.00000,"[0.999, 0.999, 0.001, 0.001, 0.001, 0.001, 0.999, 0.999]",0.999,0.999,0.999,0.999,0.001,0.001,0.001,0.001,0.001,0.001,0.001,0.001,0.999,0.999,0.999,0.999
0.4700,0.99212,0.99141,0.00000,0.00000,0.00000,-0.00000,-0.03706,-0.04042,0.00000,0.00000,0.00000,-0.00000,0.00000,0.00000,0.00000,0.00000,0.00000,0.00000,-0.99212,-0.99141,0.00000,0.00000,0.00000,0.00000,"[0.999, 0.999, 0.001, 0.001, 0.001, 0.001, 0.999, 0.999]",0.999,0.999,0.999,0.999,0.001,0.001,0.001,0.001,0.001,0.001,0.001,0.001,0.999,0.999,0.999,0.999
0.4750,0.99194,0.99121,0.00000,0.00000,0.00000,-0.00000,-0.03750,-0.04090,0.00000,0.00000,0.00000,-0.00000,0.00000,0.00000,0.00000,0.00000,0.00000,0.00000,-0.99194,-0.99121,0.00000,0.00000,0.00000,0.00000,"[0.999, 0.999, 0.001, 0.001, 0.001, 0.001, 0.999, 0.999]",0.999,0.999,0.999,0.999,0.001,0.001,0.001,0.001,0.001,0.001,0.001,0.001,0.999,0.999,0.999,0.999
0.4800,0.99175,0.99100,0.00000,0.00000,0.00000,-0.00000,-0.03794,-0.04137,0.00000,0.00000,0.00000,-0.00000,0.00000,0.00000,0.00000,0.00000,0.00000,0.00000,-0.99175,-0.99100,0.00000,0.00000,0.00000,0.00000,"[0.999, 0.999, 0.001, 0.001, 0.001, 0.001, 0.999, 0.999]",0.999,0.999,0.999,0.999,0.001,0.001,0.001,0.001,0.001,0.001,0.001,0.001,0.999,0.999,0.999,0.999
0.4850,0.99156,0.99079,0.00000,0.00000,0.00000,-0.00000,-0.03837,-0.04185,0.00000,0.00000,0.00000,-0.00000,0.00000,0.00000,0.00000,0.00000,0.00000,0.00000,-0.99156,-0.99079,0.00000,0.00000,0.00000,0.00000,"[0.999, 0.999, 0.001, 0.001, 0.001, 0.001, 0.999, 0.999]",0.999,0.999,0.999,0.999,0.001,0.001,0.001,0.001,0.001,0.001,0.001,0.001,0.999,0.999,0.999,0.999
0.4900,0.99137,0.99058,0.00000,0.00000,0.00000,-0.00000,-0.03881,-0.04232,0.00000,0.00000,0.00000,-0.00000,0.00000,0.00000,0.00000,0.00000,0.00000,0.00000,-0.99137,-0.99058,0.00000,0.00000,0.00000,0.00000,"[0.999, 0.999, 0.001, 0.001, 0.001, 0.001, 0.999, 0.999]",0.999,0.999,0.999,0.999,0.001,0.001,0.001,0.001,0.001,0.001,0.001,0.001,0.999,0.999,0.999,0.999
0.4950,0.99117,0.99037,0.00000,0.00000,0.00000,-0.00000,-0.03924,-0.04280,0.00000,0.00000,0.00000,-0.00000,0.00000,0.00000,0.00000,0.00000,0.00000,0.00000,-0.99117,-0.99037,0.00000,0.00000,0.00000,0.00000,"[0.999, 0.999, 0.001, 0.001, 0.001, 0.001, 0.999, 0.999]",0.999,0.999,0.999,0.999,0.001,0.001,0.001,0.001,0.001,0.001,0.001,0.001,0.999,0.999,0.999,0.999
0.5000,0.99097,0.99016,0.00000,0.00000,0.00000,-0.00000,-0.03968,-0.04327,0.00000,0.00000,0.00000,-0.00000,0.00000,0.00000,0.00000,0.00000,0.00000,0.00000,-0.99097,-0.99016,0.00000,0.00000,0.00000,0.00000,"[0.999, 0.999, 0.001, 0.001, 0.001, 0.001, 0.999, 0.999]",0.999,0.999,0.999,0.999,0.001,0.001,0.001,0.001,0.001,0.001,0.001,0.001,0.999,0.999,0.999,0.999
0.5050,0.99077,0.98994,0.00000,0.00000,0.00000,-0.00000,-0.04012,-0.04375,0.00000,0.00000,0.00000,-0.00000,0.00000,0.00000,0.00000,0.00000,0.00000,0.00000,-0.99077,-0.98994,0.00000,0.00000,0.00000,0.00000,"[0.999, 0.999, 0.001, 0.001, 0.001, 0.001, 0.999, 0.999]",0.999,0.999,0.999,0.999,0.001,0.001,0.001,0.001,0.001,0.001,0.001,0.001,0.999,0.999,0.999,0.999
0.5100,0.99057,0.98972,0.00000,0.00000,0.00000,-0.00000,-0.04055,-0.04423,0.00000,0.00000,0.00000,-0.00000,0.00000,0.00000,0.00000,0.00000,0.00000,0.00000,-0.99057,-0.98972,0.00000,0.00000,0.00000,0.00000,"[0.999, 0.999, 0.001, 0.001, 0.001, 0.001, 0.999, 0.999]",0.999,0.999,0.999,0.999,0.001,0.001,0.001,0.001,0.001,0.001,0.001,0.001,0.999,0.999,0.999,0.999
0.5150,0.99037,0.98950,0.00000,0.00000,0.00000,-0.00000,-0.04099,-0.04470,0.00000,0.00000,0.00000,-0.00000,0.00000,0.00000,0.00000,0.00000,0.00000,0.00000,-0.99037,-0.98950,0.00000,0.00000,0.00000,0.00000,"[0.999, 0.999, 0.001, 0.001, 0.001, 0.001, 0.999, 0.999]",0.999,0.999,0.999,0.999,0.001,0.001,0.001,0.001,0.001,0.001,0.001,0.001,0.999,0.999,0.999,0.999
0.5200,0.99016,0.98927,0.00000,0.00000,0.00000,-0.00000,-0.04143,-0.04518,0.00000,0.00000,0.00000,-0.00000,0.00000,0.00000,0.00000,0.00000,0.00000,0.00000,-0.99016,-0.98927,0.00000,0.00000,0.00000,0.00000,"[0.999, 0.999, 0.001, 0.001, 0.001, 0.001, 0.999, 0.999]",0.999,0.999,0.999,0.999,0.001,0.001,0.001,0.001,0.001,0.001,0.001,0.001,0.999,0.999,0.999,0.999
0.5250,0.98995,0.98904,0.00000,0.00000,0.00000,-0.00000,-0.04186,-0.04565,0.00000,0.00000,0.00000,-0.00000,0.00000,0.00000,0.00000,0.00000,0.00000,0.00000,-0.98995,-0.98904,0.00000,0.00000,0.00000,0.00000,"[0.999, 0.999, 0.001, 0.001, 0.001, 0.001, 0.999, 0.999]",0.999,0.999,0.999,0.999,0.001,0.001,0.001,0.001,0.001,0.001,0.001,0.001,0.999,0.999,0.999,0.999
0.5300,0.98974,0.98881,0.00000,0.00000,0.00000,-0.00000,-0.04230,-0.04613,0.00000,0.00000,0.00000,-0.00000,0.00000,0.00000,0.00000,0.00000,0.00000,0.00000,-0.98974,-0.98881,0.00000,0.00000,0.00000,0.00000,"[0.999, 0.999, 0.001, 0.001, 0.001, 0.001, 0.999, 0.999]",0.999,0.999,0.999,0.999,0.001,0.001,0.001,0.001,0.001,0.001,0.001,0.001,0.999,0.999,0.999,0.999
0.5350,0.98953,0.98858,0.00000,0.00000,0.00000,-0.00000,-0.04273,-0.04660,0.00000,0.00000,0.00000,-0.00000,0.00000,0.00000,0.00000,0.00000,0.00000,0.00000,-0.98953,-0.98858,0.00000,0.00000,0.00000,0.00000,"[0.999, 0.999, 0.001, 0.001, 0.001, 0.001, 0.999, 0.999]",0.999,0.999,0.999,0.999,0.001,0.001,0.001,0.001,0.001,0.001,0.001,0.001,0.999,0.999,0.999,0.999
0.5400,0.98932,0.98835,0.00000,0.00000,0.00000,-0.00000,-0.04317,-0.04708,0.00000,0.00000,0.00000,-0.00000,0.00000,0.00000,0.00000,0.00000,0.00000,0.00000,-0.98932,-0.98835,0.00000,0.00000,0.00000,0.00000,"[0.999, 0.999, 0.001, 0.001, 0.001, 0.001, 0.999, 0.999]",0.999,0.999,0.999,0.999,0.001,0.001,0.001,0.001,0.001,0.001,0.001,0.001,0.999,0.999,0.999,0.999
0.5450,0.98910,0.98811,0.00000,0.00000,0.00000,-0.00000,-0.04361,-0.04755,0.00000,0.00000,0.00000,-0.00000,0.00000,0.00000,0.00000,0.00000,0.00000,0.00000,-0.98910,-0.98811,0.00000,0.00000,0.00000,0.00000,"[0.999, 0.999, 0.001, 0.001, 0.001, 0.001, 0.999, 0.999]",0.999,0.999,0.999,0.999,0.001,0.001,0.001,0.001,0.001,0.001,0.001,0.001,0.999,0.999,0.999,0.999
0.5500,0.98888,0.98787,0.00000,0.00000,0.00000,-0.00000,-0.04404,-0.04803,0.00000,0.00000,0.00000,-0.00000,0.00000,0.00000,0.00000,0.00000,0.00000,0.00000,-0.98888,-0.98787,0.00000,0.00000,0.00000,0.00000,"[0.999, 0.999, 0.001, 0.001, 0.002, 0.001, 0.998, 0.998]",0.999,0.999,0.999,0.999,0.001,0.001,0.001,0.001,0.002,0.002,0.001,0.001,0.998,0.998,0.998,0.998
0.5550,0.98866,0.98763,0.00000,0.00000,0.00000,-0.00000,-0.04448,-0.04851,0.00000,0.00000,0.00000,-0.00000,0.00000,0.00000,0.00000,0.00000,0.00000,0.00000,-0.98866,-0.98763,0.00000,0.00000,0.00000,0.00000,"[0.999, 0.999, 0.001, 0.001, 0.002, 0.001, 0.998, 0.998]",0.999,0.999,0.999,0.999,0.001,0.001,0.001,0.001,0.002,0.002,0.001,0.001,0.998,0.998,0.998,0.998
0.5600,0.98843,0.98739,0.00000,0.00000,0.00000,-0.00000,-0.04491,-0.04898,0.00000,0.00000,0.00000,-0.00000,0.00000,0.00000,0.00000,0.00000,0.00000,0.00000,-0.98843,-0.98739,0.00000,0.00000,0.00000,0.00000,"[0.999, 0.999, 0.001, 0.001, 0.002, 0.001, 0.998, 0.998]",0.999,0.999,0.999,0.999,0.001,0.001,0.001,0.001,0.002,0.002,0.001,0.001,0.998,0.998,0.998,0.998
0.5650,0.98821,0.98714,0.00000,0.00000,0.00000,-0.00000,-0.04535,-0.04946,0.00000,0.00000,0.00000,-0.00000,0.00000,0.00000,0.00000,0.00000,0.00000,0.00000,-0.98821,-0.98714,0.00000,0.00000,0.00000,0.00000,"[0.999, 0.999, 0.001, 0.001, 0.002, 0.001, 0.998, 0.998]",0.999,0.999,0.999,0.999,0.001,0.001,0.001,0.001,0.002,0.002,0.001,0.001,0.998,0.998,0.998,0.998
0.5700,0.98798,0.98689,0.00000,0.00000,0.00000,-0.00000,-0.04579,-0.04993,0.00000,0.00000,0.00000,-0.00000,0.00000,0.00000,0.00000,0.00000,0.00000,0.00000,-0.98798,-0.98689,0.00000,0.00000,0.00000,0.00000,"[0.999, 0.999, 0.001, 0.001, 0.002, 0.001, 0.998, 0.998]",0.999,0.999,0.999,0.999,0.001,0.001,0.001,0.001,0.002,0.002,0.001,0.001,0.998,0.998,0.998,0.998
0.5750,0.98775,0.98664,0.00000,0.00000,0.00000,-0.00000,-0.04622,-0.05041,0.00000,0.00000,0.00000,-0.00000,0.00000,0.00000,0.00000,0.00000,0.00000,0.00000,-0.98775,-0.98664,0.00000,0.00000,0.00000,0.00000,"[0.999, 0.999, 0.001, 0.001, 0.002, 0.001, 0.998, 0.998]",0.999,0.999,0.999,0.999,0.001,0.001,0.001,0.001,0.002,0.002,0.001,0.001,0.998,0.998,0.998,0.998
0.5800,0.98752,0.98639,0.00000,0.00000,0.00000,-0.00000,-0.04666,-0.05088,0.00000,0.00000,0.00000,-0.00000,0.00000,0.00000,0.00000,0.00000,0.00000,0.00000,-0.98752,-0.98639,0.00000,0.00000,0.00000,0.00000,"[0.999, 0.999, 0.001, 0.001, 0.002, 0.001, 0.998, 0.998]",0.999,0.999,0.999,0.999,0.001,0.001,0.001,0.001,0.002,0.002,0.001,0.001,0.998,0.998,0.998,0.998
0.5850,0.98728,0.98613,0.00000,0.00000,0.00000,-0.00000,-0.04709,-0.05136,0.00000,0.00000,0.00000,-0.00000,0.00000,0.00000,0.00000,0.00000,0.00000,0.00000,-0.98728,-0.98613,0.00000,0.00000,0.00000,0.00000,"[0.999, 0.999, 0.001, 0.001, 0.002, 0.001, 0.998, 0.998]",0.999,0.999,0.999,0.999,0.001,0.001,0.001,0.001,0.002,0.002,0.001,0.001,0.998,0.998,0.998,0.998
0.5900,0.98705,0.98588,0.00000,0.00000,0.00000,-0.00000,-0.04753,-0.05183,0.00000,0.00000,0.00000,-0.00000,0.00000,0.00000,0.00000,0.00000,0.00000,0.00000,-0.98705,-0.98588,0.00000,0.00000,0.00000,0.00000,"[0.999, 0.999, 0.001, 0.001, 0.002, 0.001, 0.998, 0.998]",0.999,0.999,0.999,0.999,0.001,0.001,0.001,0.001,0.002,0.002,0.001,0.001,0.998,0.998,0.998,0.998
0.5950,0.98681,0.98561,0.00000,0.00000,0.00000,-0.00000,-0.04797,-0.05231,0.00000,0.00000,0.00000,-0.00000,0.00000,0.00000,0.00000,0.00000,0.00000,0.00000,-0.98681,-0.98561,0.00000,0.00000,0.00000,0.00000,"[0.999, 0.999, 0.001, 0.001, 0.002, 0.001, 0.998, 0.998]",0.999,0.999,0.999,0.999,0.001,0.001,0.001,0.001,0.002,0.002,0.001,0.001,0.998,0.998,0.998,0.998
0.6000,0.98657,0.98535,0.00000,0.00000,0.00000,-0.00000,-0.04840,-0.05278,0.00000,0.00000,0.00000,-0.00000,0.00000,0.00000,0.00000,0.00000,0.00000,0.00000,-0.98657,-0.98535,0.00000,0.00000,0.00000,0.00000,"[0.999, 0.999, 0.001, 0.001, 0.001, 0.001, 0.999, 0.999]",0.999,0.999,0.999,0.999,0.001,0.001,0.001,0.001,0.001,0.001,0.001,0.001,0.999,0.999,0.999,0.999
0.6050,0.98633,0.98509,0.00000,0.00000,0.00000,-0.00000,-0.04884,-0.05326,0.00000,0.00000,0.00000,-0.00000,0.00000,0.00000,0.00000,0.00000,0.00000,0.00000,-0.98633,-0.98509,0.00000,0.00000,0.00000,0.00000,"[0.999, 0.999, 0.001, 0.001, 0.001, 0.001, 0.999, 0.999]",0.999,0.999,0.999,0.999,0.001,0.001,0.001,0.001,0.001,0.001,0.001,0.001,0.999,0.999,0.999,0.999
0.6100,0.98608,0.98482,0.00000,0.00000,0.00000,-0.00000,-0.04927,-0.05374,0.00000,0.00000,0.00000,-0.00000,0.00000,0.00000,0.00000,0.00000,0.00000,0.00000,-0.98608,-0.98482,0.00000,0.00000,0.00000,0.00000,"[0.999, 0.999, 0.001, 0.001, 0.001, 0.001, 0.999, 0.999]",0.999,0.999,0.999,0.999,0.001,0.001,0.001,0.001,0.001,0.001,0.001,0.001,0.999,0.999,0.999,0.999
0.6150,0.98583,0.98455,0.00000,0.00000,0.00000,-0.00000,-0.04971,-0.05421,0.00000,0.00000,0.00000,-0.00000,0.00000,0.00000,0.00000,0.00000,0.00000,0.00000,-0.98583,-0.98455,0.00000,0.00000,0.00000,0.00000,"[0.999, 0.999, 0.001, 0.001, 0.001, 0.001, 0.999, 0.999]",0.999,0.999,0.999,0.999,0.001,0.001,0.001,0.001,0.001,0.001,0.001,0.001,0.999,0.999,0.999,0.999
0.6200,0.98558,0.98428,0.00000,0.00000,0.00000,-0.00000,-0.05015,-0.05469,0.00000,0.00000,0.00000,-0.00000,0.00000,0.00000,0.00000,0.00000,0.00000,0.00000,-0.98558,-0.98428,0.00000,0.00000,0.00000,0.00000,"[0.999, 0.999, 0.001, 0.001, 0.001, 0.001, 0.999, 0.999]",0.999,0.999,0.999,0.999,0.001,0.001,0.001,0.001,0.001,0.001,0.001,0.001,0.999,0.999,0.999,0.999
0.6250,0.98533,0.98400,0.00000,0.00000,0.00000,-0.00000,-0.05058,-0.05516,0.00000,0.00000,0.00000,-0.00000,0.00000,0.00000,0.00000,0.00000,0.00000,0.00000,-0.98533,-0.98400,0.00000,0.00000,0.00000,0.00000,"[0.999, 0.999, 0.001, 0.001, 0.001, 0.001, 0.999, 0.999]",0.999,0.999,0.999,0.999,0.001,0.001,0.001,0.001,0.001,0.001,0.001,0.001,0.999,0.999,0.999,0.999
0.6300,0.98508,0.98373,0.00000,0.00000,0.00000,-0.00000,-0.05102,-0.05564,0.00000,0.00000,0.00000,-0.00000,0.00000,0.00000,0.00000,0.00000,0.00000,0.00000,-0.98508,-0.98373,0.00000,0.00000,0.00000,0.00000,"[0.999, 0.999, 0.001, 0.001, 0.001, 0.001, 0.999, 0.999]",0.999,0.999,0.999,0.999,0.001,0.001,0.001,0.001,0.001,0.001,0.001,0.001,0.999,0.999,0.999,0.999
0.6350,0.98482,0.98345,0.00000,0.00000,0.00000,-0.00000,-0.05145,-0.05611,0.00000,0.00000,0.00000,-0.00000,0.00000,0.00000,0.00000,0.00000,0.00000,0.00000,-0.98482,-0.98345,0.00000,0.00000,0.00000,0.00000,"[0.999, 0.999, 0.001, 0.001, 0.001, 0.001, 0.999, 0.999]",0.999,0.999,0.999,0.999,0.001,0.001,0.001,0.001,0.001,0.001,0.001,0.001,0.999,0.999,0.999,0.999
0.6400,0.98456,0.98316,0.00000,0.00000,0.00000,-0.00000,-0.05189,-0.05659,0.00000,0.00000,0.00000,-0.00000,0.00000,0.00000,0.00000,0.00000,0.00000,0.00000,-0.98456,-0.98316,0.00000,0.00000,0.00000,0.00000,"[0.999, 0.999, 0.001, 0.001, 0.001, 0.001, 0.999, 0.999]",0.999,0.999,0.999,0.999,0.001,0.001,0.001,0.001,0.001,0.001,0.001,0.001,0.999,0.999,0.999,0.999
0.6450,0.98430,0.98288,0.00000,0.00000,0.00000,-0.00000,-0.05233,-0.05706,0.00000,0.00000,0.00000,-0.00000,0.00000,0.00000,0.00000,0.00000,0.00000,0.00000,-0.98430,-0.98288,0.00000,0.00000,0.00000,0.00000,"[0.999, 0.999, 0.001, 0.001, 0.001, 0.001, 0.999, 0.999]",0.999,0.999,0.999,0.999,0.001,0.001,0.001,0.001,0.001,0.001,0.001,0.001,0.999,0.999,0.999,0.999
0.6500,0.98404,0.98259,0.00000,0.00000,0.00000,-0.00000,-0.05276,-0.05754,0.00000,0.00000,0.00000,-0.00000,0.00000,0.00000,0.00000,0.00000,0.00000,0.00000,-0.98404,-0.98259,0.00000,0.00000,0.00000,0.00000,"[0.998, 0.998, 0.001, 0.001, 0.002, 0.002, 0.999, 0.999]",0.998,0.998,0.998,0.998,0.001,0.001,0.001,0.001,0.002,0.002,0.002,0.002,0.999,0.999,0.999,0.999
0.6550,0.98377,0.98231,0.00000,0.00000,0.00000,-0.00000,-0.05320,-0.05802,0.00000,0.00000,0.00000,-0.00000,0.00000,0.00000,0.00000,0.00000,0.00000,0.00000,-0.98377,-0.98231,0.00000,0.00000,0.00000,0.00000,"[0.998, 0.998, 0.001, 0.001, 0.002, 0.002, 0.999, 0.999]",0.998,0.998,0.998,0.998,0.001,0.001,0.001,0.001,0.002,0.002,0.002,0.002,0.999,0.999,0.999,0.999
0.6600,0.98351,0.98201,0.00000,0.00000,0.00000,-0.00000,-0.05363,-0.05849,0.00000,0.00000,0.00000,-0.00000,0.00000,0.00000,0.00000,0.00000,0.00000,0.00000,-0.98351,-0.98201,0.00000,0.00000,0.00000,0.00000,"[0.998, 0.998, 0.001, 0.001, 0.002, 0.002, 0.999, 0.999]",0.998,0.998,0.998,0.998,0.001,0.001,0.001,0.001,0.002,0.002,0.002,0.002,0.999,0.999,0.999,0.999
0.6650,0.98324,0.98172,0.00000,0.00000,0.00000,-0.00000,-0.05407,-0.05897,0.00000,0.00000,0.00000,-0.00000,0.00000,0.00000,0.00000,0.00000,0.00000,0.00000,-0.98324,-0.98172,0.00000,0.00000,0.00000,0.00000,"[0.998, 0.998, 0.001, 0.001, 0.002, 0.002, 0.999, 0.999]",0.998,0.998,0.998,0.998,0.001,0.001,0.001,0.001,0.002,0.002,0.002,0.002,0.999,0.999,0.999,0.999
0.6700,0.98297,0.98142,0.00000,0.00000,0.00000,-0.00000,-0.05451,-0.05944,0.00000,0.00000,0.00000,-0.00000,0.00000,0.00000,0.00000,0.00000,0.00000,0.00000,-0.98297,-0.98142,0.00000,0.00000,0.00000,0.00000,"[0.998, 0.998, 0.001, 0.001, 0.002, 0.002, 0.999, 0.999]",0.998,0.998,0.998,0.998,0.001,0.001,0.001,0.001,0.002,0.002,0.002,0.002,0.999,0.999,0.999,0.999
0.6750,0.98269,0.98113,0.00000,0.00000,0.00000,-0.00000,-0.05494,-0.05992,0.00000,0.00000,0.00000,-0.00000,0.00000,0.00000,0.00000,0.00000,0.00000,0.00000,-0.98269,-0.98113,0.00000,0.00000,0.00000,0.00000,"[0.998, 0.998, 0.001, 0.001, 0.002, 0.002, 0.999, 0.999]",0.998,0.998,0.998,0.998,0.001,0.001,0.001,0.001,0.002,0.002,0.002,0.002,0.999,0.999,0.999,0.999
0.6800,0.98242,0.98083,0.00000,0.00000,0.00000,-0.00000,-0.05538,-0.06039,0.00000,0.00000,0.00000,-0.00000,0.00000,0.00000,0.00000,0.00000,0.00000,0.00000,-0.98242,-0.98083,0.00000,0.00000,0.00000,0.00000,"[0.998, 0.998, 0.001, 0.001, 0.002, 0.002, 0.999, 0.999]",0.998,0.998,0.998,0.998,0.001,0.001,0.001,0.001,0.002,0.002,0.002,0.002,0.999,0.999,0.999,0.999
0.6850,0.98214,0.98052,0.00000,0.00000,0.00000,-0.00000,-0.05581,-0.06087,0.00000,0.00000,0.00000,-0.00000,0.00000,0.00000,0.00000,0.00000,0.00000,0.00000,-0.98214,-0.98052,0.00000,0.00000,0.00000,0.00000,"[0.998, 0.998, 0.001, 0.001, 0.002, 0.002, 0.999, 0.999]",0.998,0.998,0.998,0.998,0.001,0.001,0.001,0.001,0.002,0.002,0.002,0.002,0.999,0.999,0.999,0.999
0.6900,0.98186,0.98022,0.00000,0.00000,0.00000,-0.00000,-0.05625,-0.06134,0.00000,0.00000,0.00000,-0.00000,0.00000,0.00000,0.00000,0.00000,0.00000,0.00000,-0.98186,-0.98022,0.00000,0.00000,0.00000,0.00000,"[0.998, 0.998, 0.001, 0.001, 0.002, 0.002, 0.999, 0.999]",0.998,0.998,0.998,0.998,0.001,0.001,0.001,0.001,0.002,0.002,0.002,0.002,0.999,0.999,0.999,0.999
0.6950,0.98158,0.97991,0.00000,0.00000,0.00000,-0.00000,-0.05669,-0.06182,0.00000,0.00000,0.00000,-0.00000,0.00000,0.00000,0.00000,0.00000,0.00000,0.00000,-0.98158,-0.97991,0.00000,0.00000,0.00000,0.00000,"[0.998, 0.998, 0.001, 0.001, 0.002, 0.002, 0.999, 0.999]",0.998,0.998,0.998,0.998,0.001,0.001,0.001,0.001,0.002,0.002,0.002,0.002,0.999,0.999,0.999,0.999
0.7000,0.98129,0.97960,0.00000,0.00000,0.00000,-0.00000,-0.05712,-0.06230,0.00000,0.00000,0.00000,-0.00000,0.00000,0.00000,0.00000,0.00000,0.00000,0.00000,-0.98129,-0.97960,0.00000,0.00000,0.00000,0.00000,"[0.999, 0.999, 0.001, 0.001, 0.001, 0.001, 0.999, 0.999]",0.999,0.999,0.999,0.999,0.001,0.001,0.001,0.001,0.001,0.001,0.001,0.001,0.999,0.999,0.999,0.999
0.7050,0.98101,0.97929,0.00000,0.00000,0.00000,-0.00000,-0.05756,-0.06277,0.00000,0.00000,0.00000,-0.00000,0.00000,0.00000,0.00000,0.00000,0.00000,0.00000,-0.98101,-0.97929,0.00000,0.00000,0.00000,0.00000,"[0.999, 0.999, 0.001, 0.001, 0.001, 0.001, 0.999, 0.999]",0.999,0.999,0.999,0.999,0.001,0.001,0.001,0.001,0.001,0.001,0.001,0.001,0.999,0.999,0.999,0.999
0.7100,0.98072,0.97897,0.00000,0.00000,0.00000,-0.00000,-0.05800,-0.06325,0.00000,0.00000,0.00000,-0.00000,0.00000,0.00000,0.00000,0.00000,0.00000,0.00000,-0.98072,-0.97897,0.00000,0.00000,0.00000,0.00000,"[0.999, 0.999, 0.001, 0.001, 0.001, 0.001, 0.999, 0.999]",0.999,0.999,0.999,0.999,0.001,0.001,0.001,0.001,0.001,0.001,0.001,0.001,0.999,0.999,0.999,0.999
0.7150,0.98043,0.97865,0.00000,0.00000,0.00000,-0.00000,-0.05843,-0.06372,0.00000,0.00000,0.00000,-0.00000,0.00000,0.00000,0.00000,0.00000,0.00000,0.00000,-0.98043,-0.97865,0.00000,0.00000,0.00000,0.00000,"[0.999, 0.999, 0.001, 0.001, 0.001, 0.001, 0.999, 0.999]",0.999,0.999,0.999,0.999,0.001,0.001,0.001,0.001,0.001,0.001,0.001,0.001,0.999,0.999,0.999,0.999
0.7200,0.98013,0.97833,0.00000,0.00000,0.00000,-0.00000,-0.05887,-0.06420,0.00000,0.00000,0.00000,-0.00000,0.00000,0.00000,0.00000,0.00000,0.00000,0.00000,-0.98013,-0.97833,0.00000,0.00000,0.00000,0.00000,"[0.999, 0.999, 0.001, 0.001, 0.001, 0.001, 0.999, 0.999]",0.999,0.999,0.999,0.999,0.001,0.001,0.001,0.001,0.001,0.001,0.001,0.001,0.999,0.999,0.999,0.999
0.7250,0.97984,0.97801,0.00000,0.00000,0.00000,-0.00000,-0.05930,-0.06467,0.00000,0.00000,0.00000,-0.00000,0.00000,0.00000,0.00000,0.00000,0.00000,0.00000,-0.97984,-0.97801,0.00000,0.00000,0.00000,0.00000,"[0.999, 0.999, 0.001, 0.001, 0.001, 0.001, 0.999, 0.999]",0.999,0.999,0.999,0.999,0.001,0.001,0.001,0.001,0.001,0.001,0.001,0.001,0.999,0.999,0.999,0.999
0.7300,0.97954,0.97769,0.00000,0.00000,0.00000,-0.00000,-0.05974,-0.06515,0.00000,0.00000,0.00000,-0.00000,0.00000,0.00000,0.00000,0.00000,0.00000,0.00000,-0.97954,-0.97769,0.00000,0.00000,0.00000,0.00000,"[0.999, 0.999, 0.001, 0.001, 0.001, 0.001, 0.999, 0.999]",0.999,0.999,0.999,0.999,0.001,0.001,0.001,0.001,0.001,0.001,0.001,0.001,0.999,0.999,0.999,0.999
0.7350,0.97924,0.97736,0.00000,0.00000,0.00000,-0.00000,-0.06018,-0.06562,0.00000,0.00000,0.00000,-0.00000,0.00000,0.00000,0.00000,0.00000,0.00000,0.00000,-0.97924,-0.97736,0.00000,0.00000,0.00000,0.00000,"[0.999, 0.999, 0.001, 0.001, 0.001, 0.001, 0.999, 0.999]",0.999,0.999,0.999,0.999,0.001,0.001,0.001,0.001,0.001,0.001,0.001,0.001,0.999,0.999,0.999,0.999
0.7400,0.97894,0.97703,0.00000,0.00000,0.00000,-0.00000,-0.06061,-0.06610,0.00000,0.00000,0.00000,0.00000,0.00000,0.00000,0.00000,0.00000,0.00000,0.00000,-0.97894,-0.97703,0.00000,0.00000,0.00000,0.00000,"[0.999, 0.999, 0.001, 0.001, 0.001, 0.001, 0.999, 0.999]",0.999,0.999,0.999,0.999,0.001,0.001,0.001,0.001,0.001,0.001,0.001,0.001,0.999,0.999,0.999,0.999
0.7450,0.97863,0.97670,0.00000,0.00000,0.00000,-0.00000,-0.06105,-0.06658,0.00000,0.00000,0.00000,0.00000,0.00000,0.00000,0.00000,0.00000,0.00000,0.00000,-0.97863,-0.97670,0.00000,0.00000,0.00000,0.00000,"[0.999, 0.999, 0.001, 0.001, 0.001, 0.001, 0.999, 0.999]",0.999,0.999,0.999,0.999,0.001,0.001,0.001,0.001,0.001,0.001,0.001,0.001,0.999,0.999,0.999,0.999
0.7500,0.97833,0.97636,0.00000,0.00000,0.00000,-0.00000,-0.06148,-0.06705,0.00000,0.00000,0.00000,0.00000,0.00000,0.00000,0.00000,0.00000,0.00000,0.00000,-0.97833,-0.97636,0.00000,0.00000,0.00000,0.00000,"[0.999, 0.999, 0.001, 0.001, 0.001, 0.001, 0.999, 0.999]",0.999,0.999,0.999,0.999,0.001,0.001,0.001,0.001,0.001,0.001,0.001,0.001,0.999,0.999,0.999,0.999
0.7550,0.97802,0.97603,0.00000,0.00000,0.00000,-0.00000,-0.06192,-0.06753,0.00000,0.00000,0.00000,-0.00000,0.00000,0.00000,0.00000,0.00000,0.00000,0.00000,-0.97802,-0.97603,0.00000,0.00000,0.00000,0.00000,"[0.999, 0.999, 0.001, 0.001, 0.001, 0.001, 0.999, 0.999]",0.999,0.999,0.999,0.999,0.001,0.001,0.001,0.001,0.001,0.001,0.001,0.001,0.999,0.999,0.999,0.999
0.7600,0.97771,0.97569,0.00000,0.00000,0.00000,-0.00000,-0.06236,-0.06800,0.00000,0.00000,0.00000,-0.00000,0.00000,0.00000,0.00000,0.00000,0.00000,0.00000,-0.97771,-0.97569,0.00000,0.00000,0.00000,0.00000,"[0.999, 0.999, 0.001, 0.001, 0.001, 0.001, 0.999, 0.999]",0.999,0.999,0.999,0.999,0.001,0.001,0.001,0.001,0.001,0.001,0.001,0.001,0.999,0.999,0.999,0.999
0.7650,0.97739,0.97535,0.00000,0.00000,0.00000,-0.00000,-0.06279,-0.06848,0.00000,0.00000,0.00000,-0.00000,0.00000,0.00000,0.00000,0.00000,0.00000,0.00000,-0.97739,-0.97535,0.00000,0.00000,0.00000,0.00000,"[0.999, 0.999, 0.001, 0.001, 0.001, 0.001, 0.999, 0.999]",0.999,0.999,0.999,0.999,0.001,0.001,0.001,0.001,0.001,0.001,0.001,0.001,0.999,0.999,0.999,0.999
0.7700,0.97708,0.97500,0.00000,0.00000,0.00000,-0.00000,-0.06323,-0.06895,0.00000,0.00000,0.00000,-0.00000,0.00000,0.00000,0.00000,0.00000,0.00000,0.00000,-0.97708,-0.97500,0.00000,0.00000,0.00000,0.00000,"[0.999, 0.999, 0.001, 0.001, 0.001, 0.001, 0.999, 0.999]",0.999,0.999,0.999,0.999,0.001,0.001,0.001,0.001,0.001,0.001,0.001,0.001,0.999,0.999,0.999,0.999
0.7750,0.97676,0.97466,0.00000,0.00000,0.00000,-0.00000,-0.06366,-0.06943,0.00000,0.00000,0.00000,-0.00000,0.00000,0.00000,0.00000,0.00000,0.00000,0.00000,-0.97676,-0.97466,0.00000,0.00000,0.00000,0.00000,"[0.999, 0.999, 0.001, 0.001, 0.001, 0.001, 0.999, 0.999]",0.999,0.999,0.999,0.999,0.001,0.001,0.001,0.001,0.001,0.001,0.001,0.001,0.999,0.999,0.999,0.999
0.7800,0.97644,0.97431,0.00000,0.00000,0.00000,-0.00000,-0.06410,-0.06990,0.00000,0.00000,0.00000,-0.00000,0.00000,0.00000,0.00000,0.00000,0.00000,0.00000,-0.97644,-0.97431,0.00000,0.00000,0.00000,0.00000,"[0.999, 0.999, 0.001, 0.001, 0.001, 0.001, 0.999, 0.999]",0.999,0.999,0.999,0.999,0.001,0.001,0.001,0.001,0.001,0.001,0.001,0.001,0.999,0.999,0.999,0.999
0.7850,0.97612,0.97396,0.00000,0.00000,0.00000,-0.00000,-0.06454,-0.07038,0.00000,0.00000,0.00000,-0.00000,0.00000,0.00000,0.00000,0.00000,0.00000,0.00000,-0.97612,-0.97396,0.00000,0.00000,0.00000,0.00000,"[0.999, 0.999, 0.001, 0.001, 0.001, 0.001, 0.999, 0.999]",0.999,0.999,0.999,0.999,0.001,0.001,0.001,0.001,0.001,0.001,0.001,0.001,0.999,0.999,0.999,0.999
0.7900,0.97580,0.97361,0.00000,0.00000,0.00000,-0.00000,-0.06497,-0.07086,0.00000,0.00000,0.00000,-0.00000,0.00000,0.00000,0.00000,0.00000,0.00000,0.00000,-0.97580,-0.97361,0.00000,0.00000,0.00000,0.00000,"[0.999, 0.999, 0.001, 0.001, 0.001, 0.001, 0.999, 0.999]",0.999,0.999,0.999,0.999,0.001,0.001,0.001,0.001,0.001,0.001,0.001,0.001,0.999,0.999,0.999,0.999
0.7950,0.97547,0.97325,0.00000,0.00000,0.00000,-0.00000,-0.06541,-0.07133,0.00000,0.00000,0.00000,-0.00000,0.00000,0.00000,0.00000,0.00000,0.00000,0.00000,-0.97547,-0.97325,0.00000,0.00000,0.00000,0.00000,"[0.999, 0.999, 0.001, 0.001, 0.001, 0.001, 0.999, 0.999]",0.999,0.999,0.999,0.999,0.001,0.001,0.001,0.001,0.001,0.001,0.001,0.001,0.999,0.999,0.999,0.999
0.8000,0.97514,0.97289,0.00000,0.00000,0.00000,-0.00000,-0.06584,-0.07181,0.00000,0.00000,0.00000,-0.00000,0.00000,0.00000,0.00000,0.00000,0.00000,0.00000,-0.97514,-0.97289,0.00000,0.00000,0.00000,0.00000,"[0.998, 0.998, 0.001, 0.001, 0.002, 0.002, 0.999, 0.999]",0.998,0.998,0.998,0.998,0.001,0.001,0.001,0.001,0.002,0.002,0.002,0.002,0.999,0.999,0.999,0.999
0.8050,0.97481,0.97253,0.00000,0.00000,0.00000,-0.00000,-0.06628,-0.07228,0.00000,0.00000,0.00000,-0.00000,0.00000,0.00000,0.00000,0.00000,0.00000,0.00000,-0.97481,-0.97253,0.00000,0.00000,0.00000,0.00000,"[0.998, 0.998, 0.001, 0.001, 0.002, 0.002, 0.999, 0.999]",0.998,0.998,0.998,0.998,0.001,0.001,0.001,0.001,0.002,0.002,0.002,0.002,0.999,0.999,0.999,0.999
0.8100,0.97448,0.97217,0.00000,0.00000,0.00000,-0.00000,-0.06672,-0.07276,0.00000,0.00000,0.00000,-0.00000,0.00000,0.00000,0.00000,0.00000,0.00000,0.00000,-0.97448,-0.97217,0.00000,0.00000,0.00000,0.00000,"[0.998, 0.998, 0.001, 0.001, 0.002, 0.002, 0.999, 0.999]",0.998,0.998,0.998,0.998,0.001,0.001,0.001,0.001,0.002,0.002,0.002,0.002,0.999,0.999,0.999,0.999
0.8150,0.97415,0.97181,0.00000,0.00000,0.00000,-0.00000,-0.06715,-0.07323,0.00000,0.00000,0.00000,-0.00000,0.00000,0.00000,0.00000,0.00000,0.00000,0.00000,-0.97415,-0.97181,0.00000,0.00000,0.00000,0.00000,"[0.998, 0.998, 0.001, 0.001, 0.002, 0.002, 0.999, 0.999]",0.998,0.998,0.998,0.998,0.001,0.001,0.001,0.001,0.002,0.002,0.002,0.002,0.999,0.999,0.999,0.999
0.8200,0.97381,0.97144,0.00000,0.00000,0.00000,-0.00000,-0.06759,-0.07371,0.00000,0.00000,0.00000,-0.00000,0.00000,0.00000,0.00000,0.00000,0.00000,0.00000,-0.97381,-0.97144,0.00000,0.00000,0.00000,0.00000,"[0.998, 0.998, 0.001, 0.001, 0.002, 0.002, 0.999, 0.999]",0.998,0.998,0.998,0.998,0.001,0.001,0.001,0.001,0.002,0.002,0.002,0.002,0.999,0.999,0.999,0.999
