Step,MPC_Start_Time,Control_Time,Actual_Time_Interval,CONTROL_DT,Mission_Phase,Waypoint_Number,Telemetry_X_mm,Telemetry_Y_mm,Telemetry_Z_mm,Telemetry_Roll_deg,Telemetry_Pitch_deg,Telemetry_Yaw_deg,Current_X,Current_Y,Current_Z,Current_Roll,Current_Pitch,Current_Yaw,Current_VX,Current_VY,Current_VZ,Current_WX,Current_WY,Current_WZ,Target_X,Target_Y,Target_Z,Target_Roll,Target_Pitch,Target_Yaw,Target_VX,Target_VY,Target_VZ,Target_WX,Target_WY,Target_WZ,Error_X,Error_Y,Error_Z,Error_Roll,Error_Pitch,Error_Yaw,Error_VX,Error_VY,Error_VZ,Error_WX,Error_WY,Error_WZ,MPC_Computation_Time,MPC_Status,MPC_Solver,MPC_Solver_Time_Limit,MPC_Solve_Time,MPC_Time_Limit_Exceeded,MPC_Fallback_Used,MPC_Objective,MPC_Iterations,MPC_Optimality_Gap,Command_Vector,Command_Hex,Command_Sent_Time,Total_Active_Thrusters,Thruster_Switches,RW_Torque_X,RW_Torque_Y,RW_Torque_Z,Total_MPC_Loop_Time,Timing_Violation
0,0.0450,0.0450,0.0500,0.050,APPROACHING,0,1000.00,1000.00,1000.00,0.00,0.00,90.00,1.00000,1.00000,1.00000,0.00000,0.00000,1.57080,0.00000,0.00000,0.00000,0.00000,0.00000,0.00000,0.00000,0.00000,0.00000,0.00000,0.00000,0.00000,0.00000,0.00000,0.00000,0.00000,0.00000,0.00000,1.00000,1.00000,1.00000,0.00000,0.00000,-1.57080,0.00000,0.00000,0.00000,0.00000,0.00000,0.00000,0.0000,,,,0.0120,,,,,,"[1.000, 0.000, 0.000, 1.000, 1.000, 0.000]",0x100110,0.0450,3,0,-0.324920,0.324920,1.840389,0.0000,NO
1,0.0950,0.0950,0.0500,0.050,APPROACHING,0,999.94,999.94,999.94,-0.27,0.28,91.57,0.99994,0.99994,0.99994,-0.00476,0.00489,1.59814,-0.00248,-0.00252,-0.00250,-0.19317,0.19317,1.09417,0.00000,0.00000,0.00000,0.00000,0.00000,0.00000,0.00000,0.00000,0.00000,0.00000,0.00000,0.00000,0.99994,0.99994,0.99994,0.00476,-0.00489,-1.59814,0.00248,0.00252,0.00250,0.19317,-0.19317,-1.09417,0.0000,,,,0.0404,,,,,,"[0.000, 0.000, 0.000, 0.000, 0.000, 0.000]",0x000000,0.0950,0,3,0.000000,0.000000,0.000000,0.0000,NO
2,0.1450,0.1450,0.0500,0.050,APPROACHING,0,999.81,999.81,999.81,-0.80,0.86,94.70,0.99981,0.99981,0.99981,-0.01388,0.01507,1.65276,-0.00248,-0.00252,-0.00250,-0.19317,0.19317,1.09417,0.00000,0.00000,0.00000,0.00000,0.00000,0.00000,0.00000,0.00000,0.00000,0.00000,0.00000,0.00000,0.99981,0.99981,0.99981,0.01388,-0.01507,-1.65276,0.00248,0.00252,0.00250,0.19317,-0.19317,-1.09417,0.0000,,,,0.0120,,,,,,"[1.000, 0.000, 0.000, 1.000, 1.000, 0.000]",0x100110,0.1450,3,3,-0.944516,0.917277,2.000000,0.0000,NO
3,0.1950,0.1950,0.0500,0.050,APPROACHING,0,999.64,999.62,999.63,-2.02,2.31,99.50,0.99964,0.99962,0.99963,-0.03532,0.04039,1.73662,-0.00461,-0.00535,-0.00499,-0.75380,0.73948,2.28322,0.00000,0.00000,0.00000,0.00000,0.00000,0.00000,0.00000,0.00000,0.00000,0.00000,0.00000,0.00000,0.99964,0.99962,0.99963,0.03532,-0.04039,-1.73662,0.00461,0.00535,0.00499,0.75380,-0.73948,-2.28322,0.0000,,,,0.0108,,,,,,"[1.000, 0.000, 0.000, 1.000, 1.000, 0.000]",0x100110,0.1950,3,0,-1.999920,2.000000,2.000000,0.0000,NO
4,0.2450,0.2450,0.0500,0.050,APPROACHING,0,999.36,999.27,999.31,-5.28,6.64,107.51,0.99936,0.99927,0.99931,-0.09221,0.11597,1.87635,-0.00631,-0.00847,-0.00745,-1.93821,1.93308,3.47233,0.00000,0.00000,0.00000,0.00000,0.00000,0.00000,0.00000,0.00000,0.00000,0.00000,0.00000,0.00000,0.99936,0.99927,0.99931,0.09221,-0.11597,-1.87635,0.00631,0.00847,0.00745,1.93821,-1.93308,-3.47233,0.0000,,,,0.0085,,,,,,"[1.000, 0.000, 0.000, 1.000, 1.000, 0.000]",0x100110,0.2450,3,0,-1.999369,1.999152,2.000000,0.0000,NO
5,0.2950,0.2950,0.0500,0.050,APPROACHING,0,999.02,998.76,998.88,-10.52,15.42,118.23,0.99902,0.99876,0.99888,-0.18367,0.26919,2.06358,-0.00718,-0.01201,-0.00977,-3.12230,3.12616,4.66143,0.00000,0.00000,0.00000,0.00000,0.00000,0.00000,0.00000,0.00000,0.00000,0.00000,0.00000,0.00000,0.99902,0.99876,0.99888,0.18367,-0.26919,-2.06358,0.00718,0.01201,0.00977,3.12230,-3.12616,-4.66143,0.0000,,,,0.0086,,,,,,"[1.000, 0.000, 0.000, 1.000, 1.000, 0.000]",0x100110,0.2950,3,0,-1.997596,1.999638,1.996892,0.0000,NO
6,0.3450,0.3450,0.0500,0.050,APPROACHING,0,998.66,998.06,998.34,-16.23,29.31,131.36,0.99866,0.99806,0.99834,-0.28322,0.51149,2.29270,-0.00682,-0.01587,-0.01166,-4.30532,4.31955,5.84869,0.00000,0.00000,0.00000,0.00000,0.00000,0.00000,0.00000,0.00000,0.00000,0.00000,0.00000,0.00000,0.99866,0.99806,0.99834,0.28322,-0.51149,-2.29270,0.00682,0.01587,0.01166,4.30532,-4.31955,-5.84869,0.0000,,,,0.0075,,,,,,"[0.000, 1.000, 0.000, 1.000, 1.000, 0.000]",0x010110,0.3450,3,2,-1.993052,1.993212,2.000000,0.0000,NO
7,0.3950,0.3950,0.0500,0.050,APPROACHING,0,998.29,997.25,997.66,-19.66,48.49,148.26,0.99829,0.99725,0.99766,-0.34312,0.84622,2.58768,-0.00790,-0.01699,-0.01566,-5.48572,5.50906,7.03777,0.00000,0.00000,0.00000,0.00000,0.00000,0.00000,0.00000,0.00000,0.00000,0.00000,0.00000,0.00000,0.99829,0.99725,0.99766,0.34312,-0.84622,-2.58768,0.00790,0.01699,0.01566,5.48572,-5.50906,-7.03777,0.0000,,,,0.0129,,,,,,"[0.000, 1.000, 0.000, 1.000, 0.000, 1.000]",0x010101,0.3950,3,2,-1.986322,1.988426,2.000000,0.0000,NO
8,0.4450,0.4450,0.0500,0.050,APPROACHING,0,997.80,996.36,996.85,-6.71,71.35,-177.17,0.99780,0.99636,0.99685,-0.11713,1.24526,-3.09212,-0.01146,-0.01899,-0.01694,-6.66218,6.69566,8.22685,0.00000,0.00000,0.00000,0.00000,0.00000,0.00000,0.00000,0.00000,0.00000,0.00000,0.00000,0.00000,0.99780,0.99636,0.99685,0.11713,-1.24526,3.09212,0.01146,0.01899,0.01694,6.66218,-6.69566,-8.22685,0.0000,,,,0.0416,,,,,,"[0.000, 0.000, 0.000, 0.000, 0.000, 0.000]",0x000000,0.4450,0,3,0.000000,0.000000,0.000000,0.0000,NO
9,0.4950,0.4950,0.0500,0.050,APPROACHING,0,997.23,995.41,996.00,83.44,72.08,-64.70,0.99723,0.99541,0.99600,1.45630,1.25799,-1.12925,-0.01146,-0.01899,-0.01694,-6.66218,6.69566,8.22685,0.00000,0.00000,0.00000,0.00000,0.00000,0.00000,0.00000,0.00000,0.00000,0.00000,0.00000,0.00000,0.99723,0.99541,0.99600,-1.45630,-1.25799,1.12925,0.01146,0.01899,0.01694,6.66218,-6.69566,-8.22685,0.0000,,,,0.0128,,,,,,"[0.000, 1.000, 0.985, 0.000, 0.000, 1.000]",0x011001,0.4950,3,3,-2.000000,1.998585,1.985795,0.0000,NO
10,0.5450,0.5450,0.0500,0.050,APPROACHING,0,996.59,994.44,995.07,97.38,45.32,-24.84,0.99659,0.99444,0.99507,1.69963,0.79102,-0.43357,-0.01377,-0.01986,-0.02040,-7.84650,7.88861,9.40746,0.00000,0.00000,0.00000,0.00000,0.00000,0.00000,0.00000,0.00000,0.00000,0.00000,0.00000,0.00000,0.99659,0.99444,0.99507,-1.69963,-0.79102,0.43357,0.01377,0.01986,0.02040,7.84650,-7.88861,-9.40746,0.0000,,,,0.0416,,,,,,"[0.000, 0.000, 0.000, 0.000, 0.000, 0.000]",0x000000,0.5450,0,3,0.000000,0.000000,0.000000,0.0000,NO
11,0.5950,0.5950,0.0500,0.050,APPROACHING,0,995.90,993.45,994.05,87.52,17.11,-0.15,0.99590,0.99345,0.99405,1.52751,0.29868,-0.00257,-0.01377,-0.01986,-0.02040,-7.84650,7.88861,9.40746,0.00000,0.00000,0.00000,0.00000,0.00000,0.00000,0.00000,0.00000,0.00000,0.00000,0.00000,0.00000,0.99590,0.99345,0.99405,-1.52751,-0.29868,0.00257,0.01377,0.01986,0.02040,7.84650,-7.88861,-9.40746,0.0000,,,,0.0279,,,,,,"[1.000, 0.000, 1.000, 0.000, 0.000, 1.000]",0x101001,0.5950,3,3,-1.999427,2.000000,1.990078,0.0000,NO
12,0.6450,0.6450,0.0500,0.050,APPROACHING,0,995.15,992.38,992.99,65.61,-5.46,29.87,0.99515,0.99238,0.99299,1.14504,-0.09522,0.52125,-0.01575,-0.02322,-0.02206,-9.03051,9.08235,10.59062,0.00000,0.00000,0.00000,0.00000,0.00000,0.00000,0.00000,0.00000,0.00000,0.00000,0.00000,0.00000,0.99515,0.99238,0.99299,-1.14504,0.09522,-0.52125,0.01575,0.02322,0.02206,9.03051,-9.08235,-10.59062,0.0000,,,,0.0416,,,,,,"[0.000, 0.000, 0.000, 0.000, 0.000, 0.000]",0x000000,0.6450,0,3,0.000000,0.000000,0.000000,0.0000,NO
13,0.6950,0.6950,0.0500,0.050,APPROACHING,0,994.36,991.22,991.89,32.55,-11.53,69.48,0.99436,0.99122,0.99189,0.56805,-0.20124,1.21268,-0.01575,-0.02322,-0.02206,-9.03051,9.08235,10.59062,0.00000,0.00000,0.00000,0.00000,0.00000,0.00000,0.00000,0.00000,0.00000,0.00000,0.00000,0.00000,0.99436,0.99122,0.99189,-0.56805,0.20124,-1.21268,0.01575,0.02322,0.02206,9.03051,-9.08235,-10.59062,0.0000,,,,0.0331,,,,,,"[1.000, 0.000, 0.000, 1.000, 1.000, 0.000]",0x100110,0.6950,3,3,-1.994982,2.000000,1.991885,0.0000,NO
14,0.7450,0.7450,0.0500,0.050,APPROACHING,0,993.49,990.01,990.74,1.71,6.00,107.76,0.99349,0.99001,0.99074,0.02981,0.10471,1.88081,-0.01889,-0.02535,-0.02388,-10.21192,10.27599,11.77491,0.00000,0.00000,0.00000,0.00000,0.00000,0.00000,0.00000,0.00000,0.00000,0.00000,0.00000,0.00000,0.99349,0.99001,0.99074,-0.02981,-0.10471,-1.88081,0.01889,0.02535,0.02388,10.21192,-10.27599,-11.77491,0.0000,,,,0.0416,,,,,,"[0.000, 0.000, 0.000, 0.000, 0.000, 0.000]",0x000000,0.7450,0,3,0.000000,0.000000,0.000000,0.0000,NO
15,0.7950,0.7950,0.0500,0.050,APPROACHING,0,992.54,988.75,989.55,-15.92,39.95,139.40,0.99254,0.98875,0.98955,-0.27782,0.69721,2.43302,-0.01889,-0.02535,-0.02388,-10.21192,10.27599,11.77491,0.00000,0.00000,0.00000,0.00000,0.00000,0.00000,0.00000,0.00000,0.00000,0.00000,0.00000,0.00000,0.99254,0.98875,0.98955,0.27782,-0.69721,-2.43302,0.01889,0.02535,0.02388,10.21192,-10.27599,-11.77491,0.0000,,,,0.0159,,,,,,"[0.000, 1.000, 0.000, 1.000, 1.000, 0.000]",0x010110,0.7950,3,3,-1.975752,2.000000,2.000000,0.0000,NO
16,0.8450,0.8450,0.0500,0.050,APPROACHING,0,991.60,987.43,988.26,14.51,77.30,-151.93,0.99160,0.98743,0.98826,0.25329,1.34912,-2.65171,-0.01837,-0.02728,-0.02756,-11.38203,11.46919,12.96429,0.00000,0.00000,0.00000,0.00000,0.00000,0.00000,0.00000,0.00000,0.00000,0.00000,0.00000,0.00000,0.99160,0.98743,0.98826,-0.25329,-1.34912,2.65171,0.01837,0.02728,0.02756,11.38203,-11.46919,-12.96429,0.0000,,,,0.0416,,,,,,"[0.000, 0.000, 0.000, 0.000, 0.000, 0.000]",0x000000,0.8450,0,3,0.000000,0.000000,0.000000,0.0000,NO
17,0.8950,0.8950,0.0500,0.050,APPROACHING,0,990.68,986.07,986.88,100.18,49.24,-27.49,0.99068,0.98607,0.98688,1.74855,0.85947,-0.47987,-0.01837,-0.02728,-0.02756,-11.38203,11.46919,12.96429,0.00000,0.00000,0.00000,0.00000,0.00000,0.00000,0.00000,0.00000,0.00000,0.00000,0.00000,0.00000,0.99068,0.98607,0.98688,-1.74855,-0.85947,0.47987,0.01837,0.02728,0.02756,11.38203,-11.46919,-12.96429,0.0000,,,,0.0417,,,,,,"[0.000, 0.000, 0.000, 0.000, 0.000, 0.000]",0x000000,0.8950,0,0,0.000000,0.000000,0.000000,0.0000,NO
18,0.9450,0.9450,0.0500,0.050,APPROACHING,0,989.76,984.71,985.50,84.25,10.00,7.57,0.98976,0.98471,0.98550,1.47040,0.17461,0.13220,-0.01837,-0.02728,-0.02756,-11.38203,11.46919,12.96429,0.00000,0.00000,0.00000,0.00000,0.00000,0.00000,0.00000,0.00000,0.00000,0.00000,0.00000,0.00000,0.98976,0.98471,0.98550,-1.47040,-0.17461,-0.13220,0.01837,0.02728,0.02756,11.38203,-11.46919,-12.96429,0.0000,,,,0.0417,,,,,,"[0.000, 0.000, 0.000, 0.000, 0.000, 0.000]",0x000000,0.9450,0,0,0.000000,0.000000,0.000000,0.0000,NO
19,0.9950,0.9950,0.0500,0.050,APPROACHING,0,988.84,983.34,984.12,48.77,-11.74,51.61,0.98884,0.98334,0.98412,0.85113,-0.20492,0.90079,-0.01837,-0.02728,-0.02756,-11.38203,11.46919,12.96429,0.00000,0.00000,0.00000,0.00000,0.00000,0.00000,0.00000,0.00000,0.00000,0.00000,0.00000,0.00000,0.98884,0.98334,0.98412,-0.85113,0.20492,-0.90079,0.01837,0.02728,0.02756,11.38203,-11.46919,-12.96429,0.0000,,,,0.0416,,,,,,"[0.000, 0.000, 0.000, 0.000, 0.000, 0.000]",0x000000,0.9950,0,0,0.000000,0.000000,0.000000,0.0000,NO
20,1.0450,1.0450,0.0500,0.050,APPROACHING,0,987.92,981.98,982.75,8.67,-0.25,99.47,0.98792,0.98198,0.98275,0.15126,-0.00434,1.73610,-0.01837,-0.02728,-0.02756,-11.38203,11.46919,12.96429,0.00000,0.00000,0.00000,0.00000,0.00000,0.00000,0.00000,0.00000,0.00000,0.00000,0.00000,0.00000,0.98792,0.98198,0.98275,-0.15126,0.00434,-1.73610,0.01837,0.02728,0.02756,11.38203,-11.46919,-12.96429,0.0000,,,,0.0415,,,,,,"[0.000, 0.000, 0.000, 0.000, 0.000, 0.000]",0x000000,1.0450,0,0,0.000000,0.000000,0.000000,0.0000,NO
21,1.0950,1.0950,0.0500,0.050,APPROACHING,0,987.00,980.61,981.37,-14.37,35.17,135.60,0.98700,0.98061,0.98137,-0.25081,0.61375,2.36664,-0.01837,-0.02728,-0.02756,-11.38203,11.46919,12.96429,0.00000,0.00000,0.00000,0.00000,0.00000,0.00000,0.00000,0.00000,0.00000,0.00000,0.00000,0.00000,0.98700,0.98061,0.98137,0.25081,-0.61375,-2.36664,0.01837,0.02728,0.02756,11.38203,-11.46919,-12.96429,0.0000,,,,0.0416,,,,,,"[0.000, 0.000, 0.000, 0.000, 0.000, 0.000]",0x000000,1.0950,0,0,0.000000,0.000000,0.000000,0.0000,NO
22,1.1450,1.1450,0.0500,0.050,APPROACHING,0,986.08,979.25,979.99,5.11,75.57,-163.81,0.98608,0.97925,0.97999,0.08919,1.31899,-2.85906,-0.01837,-0.02728,-0.02756,-11.38203,11.46919,12.96429,0.00000,0.00000,0.00000,0.00000,0.00000,0.00000,0.00000,0.00000,0.00000,0.00000,0.00000,0.00000,0.98608,0.97925,0.97999,-0.08919,-1.31899,2.85906,0.01837,0.02728,0.02756,11.38203,-11.46919,-12.96429,0.0000,,,,0.0287,,,,,,"[0.000, 1.000, 0.000, 1.000, 0.000, 1.000]",0x010101,1.1450,3,3,-2.000000,1.995939,1.997204,0.0000,NO
23,1.1950,1.1950,0.0500,0.050,APPROACHING,0,985.13,977.80,978.57,100.36,50.04,-27.93,0.98513,0.97780,0.97857,1.75154,0.87340,-0.48754,-0.01914,-0.03107,-0.02906,-12.56658,12.66049,14.15153,0.00000,0.00000,0.00000,0.00000,0.00000,0.00000,0.00000,0.00000,0.00000,0.00000,0.00000,0.00000,0.98513,0.97780,0.97857,-1.75154,-0.87340,0.48754,0.01914,0.03107,0.02906,12.56658,-12.66049,-14.15153,0.0000,,,,0.0416,,,,,,"[0.000, 0.000, 0.000, 0.000, 0.000, 0.000]",0x000000,1.1950,0,3,0.000000,0.000000,0.000000,0.0000,NO
24,1.2450,1.2450,0.0500,0.050,APPROACHING,0,984.17,976.24,977.12,82.18,7.56,11.03,0.98417,0.97624,0.97712,1.43425,0.13201,0.19243,-0.01914,-0.03107,-0.02906,-12.56658,12.66049,14.15153,0.00000,0.00000,0.00000,0.00000,0.00000,0.00000,0.00000,0.00000,0.00000,0.00000,0.00000,0.00000,0.98417,0.97624,0.97712,-1.43425,-0.13201,-0.19243,0.01914,0.03107,0.02906,12.56658,-12.66049,-14.15153,0.0000,,,,0.0416,,,,,,"[0.000, 0.000, 0.000, 0.000, 0.000, 0.000]",0x000000,1.2450,0,0,0.000000,0.000000,0.000000,0.0000,NO
25,1.2950,1.2950,0.0500,0.050,APPROACHING,0,983.22,974.69,975.67,41.24,-11.87,61.07,0.98322,0.97469,0.97567,0.71971,-0.20713,1.06587,-0.01914,-0.03107,-0.02906,-12.56658,12.66049,14.15153,0.00000,0.00000,0.00000,0.00000,0.00000,0.00000,0.00000,0.00000,0.00000,0.00000,0.00000,0.00000,0.98322,0.97469,0.97567,-0.71971,0.20713,-1.06587,0.01914,0.03107,0.02906,12.56658,-12.66049,-14.15153,0.0000,,,,0.0416,,,,,,"[0.000, 0.000, 0.000, 0.000, 0.000, 0.000]",0x000000,1.2950,0,0,0.000000,0.000000,0.000000,0.0000,NO
26,1.3450,1.3450,0.0500,0.050,APPROACHING,0,982.26,973.14,974.21,0.72,8.43,110.77,0.98226,0.97314,0.97421,0.01253,0.14717,1.93334,-0.01914,-0.03107,-0.02906,-12.56658,12.66049,14.15153,0.00000,0.00000,0.00000,0.00000,0.00000,0.00000,0.00000,0.00000,0.00000,0.00000,0.00000,0.00000,0.98226,0.97314,0.97421,-0.01253,-0.14717,-1.93334,0.01914,0.03107,0.02906,12.56658,-12.66049,-14.15153,0.0000,,,,0.0415,,,,,,"[0.000, 0.000, 0.000, 0.000, 0.000, 0.000]",0x000000,1.3450,0,0,0.000000,0.000000,0.000000,0.0000,NO
27,1.3950,1.3950,0.0500,0.050,APPROACHING,0,981.30,971.58,972.76,-16.76,51.18,149.81,0.98130,0.97158,0.97276,-0.29247,0.89323,2.61463,-0.01914,-0.03107,-0.02906,-12.56658,12.66049,14.15153,0.00000,0.00000,0.00000,0.00000,0.00000,0.00000,0.00000,0.00000,0.00000,0.00000,0.00000,0.00000,0.98130,0.97158,0.97276,0.29247,-0.89323,-2.61463,0.01914,0.03107,0.02906,12.56658,-12.66049,-14.15153,0.0000,,,,0.0415,,,,,,"[0.000, 0.000, 0.000, 0.000, 0.000, 0.000]",0x000000,1.3950,0,0,0.000000,0.000000,0.000000,0.0000,NO
28,1.4450,1.4450,0.0500,0.050,APPROACHING,0,980.35,970.03,971.31,85.81,73.09,-65.14,0.98035,0.97003,0.97131,1.49758,1.27565,-1.13685,-0.01914,-0.03107,-0.02906,-12.56658,12.66049,14.15153,0.00000,0.00000,0.00000,0.00000,0.00000,0.00000,0.00000,0.00000,0.00000,0.00000,0.00000,0.00000,0.98035,0.97003,0.97131,-1.49758,-1.27565,1.13685,0.01914,0.03107,0.02906,12.56658,-12.66049,-14.15153,0.0000,,,,0.0237,,,,,,"[0.000, 1.000, 0.000, 1.000, 0.000, 1.000]",0x010101,1.4450,3,3,-1.969750,2.000000,2.000000,0.0000,NO
29,1.4950,1.4950,0.0500,0.050,APPROACHING,0,979.40,968.37,969.83,94.09,26.39,-7.32,0.97940,0.96837,0.96983,1.64210,0.46055,-0.12782,-0.01803,-0.03498,-0.02972,-13.73314,13.85351,15.34106,0.00000,0.00000,0.00000,0.00000,0.00000,0.00000,0.00000,0.00000,0.00000,0.00000,0.00000,0.00000,0.97940,0.96837,0.96983,-1.64210,-0.46055,0.12782,0.01803,0.03498,0.02972,13.73314,-13.85351,-15.34106,0.0000,,,,0.0415,,,,,,"[0.000, 0.000, 0.000, 0.000, 0.000, 0.000]",0x000000,1.4950,0,3,0.000000,0.000000,0.000000,0.0000,NO
30,1.5450,1.5450,0.0500,0.050,APPROACHING,0,978.50,966.63,968.34,59.15,-8.54,40.31,0.97850,0.96663,0.96834,1.03235,-0.14897,0.70352,-0.01803,-0.03498,-0.02972,-13.73314,13.85351,15.34106,0.00000,0.00000,0.00000,0.00000,0.00000,0.00000,0.00000,0.00000,0.00000,0.00000,0.00000,0.00000,0.97850,0.96663,0.96834,-1.03235,0.14897,-0.70352,0.01803,0.03498,0.02972,13.73314,-13.85351,-15.34106,0.0000,,,,0.0415,,,,,,"[0.000, 0.000, 0.000, 0.000, 0.000, 0.000]",0x000000,1.5450,0,0,0.000000,0.000000,0.000000,0.0000,NO
31,1.5950,1.5950,0.0500,0.050,APPROACHING,0,977.60,964.88,966.85,10.89,-0.74,97.96,0.97760,0.96488,0.96685,0.19009,-0.01294,1.70973,-0.01803,-0.03498,-0.02972,-13.73314,13.85351,15.34106,0.00000,0.00000,0.00000,0.00000,0.00000,0.00000,0.00000,0.00000,0.00000,0.00000,0.00000,0.00000,0.97760,0.96488,0.96685,-0.19009,0.01294,-1.70973,0.01803,0.03498,0.02972,13.73314,-13.85351,-15.34106,0.0000,,,,0.0415,,,,,,"[0.000, 0.000, 0.000, 0.000, 0.000, 0.000]",0x000000,1.5950,0,0,0.000000,0.000000,0.000000,0.0000,NO
32,1.6450,1.6450,0.0500,0.050,APPROACHING,0,976.70,963.13,965.37,-15.13,41.89,141.49,0.97670,0.96313,0.96537,-0.26401,0.73113,2.46948,-0.01803,-0.03498,-0.02972,-13.73314,13.85351,15.34106,0.00000,0.00000,0.00000,0.00000,0.00000,0.00000,0.00000,0.00000,0.00000,0.00000,0.00000,0.00000,0.97670,0.96313,0.96537,0.26401,-0.73113,-2.46948,0.01803,0.03498,0.02972,13.73314,-13.85351,-15.34106,0.0000,,,,0.0416,,,,,,"[0.000, 0.000, 0.000, 0.000, 0.000, 0.000]",0x000000,1.6450,0,0,0.000000,0.000000,0.000000,0.0000,NO
33,1.6950,1.6950,0.0500,0.050,APPROACHING,0,975.80,961.38,963.88,71.39,76.73,-84.41,0.97580,0.96138,0.96388,1.24598,1.33925,-1.47330,-0.01803,-0.03498,-0.02972,-13.73314,13.85351,15.34106,0.00000,0.00000,0.00000,0.00000,0.00000,0.00000,0.00000,0.00000,0.00000,0.00000,0.00000,0.00000,0.97580,0.96138,0.96388,-1.24598,-1.33925,1.47330,0.01803,0.03498,0.02972,13.73314,-13.85351,-15.34106,0.0000,,,,0.0415,,,,,,"[0.000, 0.000, 0.000, 0.000, 0.000, 0.000]",0x000000,1.6950,0,0,0.000000,0.000000,0.000000,0.0000,NO
34,1.7450,1.7450,0.0500,0.050,APPROACHING,0,974.89,959.63,962.40,95.38,29.39,-9.91,0.97489,0.95963,0.96240,1.66470,0.51288,-0.17299,-0.01803,-0.03498,-0.02972,-13.73314,13.85351,15.34106,0.00000,0.00000,0.00000,0.00000,0.00000,0.00000,0.00000,0.00000,0.00000,0.00000,0.00000,0.00000,0.97489,0.95963,0.96240,-1.66470,-0.51288,0.17299,0.01803,0.03498,0.02972,13.73314,-13.85351,-15.34106,0.0000,,,,0.0415,,,,,,"[0.000, 0.000, 0.000, 0.000, 0.000, 0.000]",0x000000,1.7450,0,0,0.000000,0.000000,0.000000,0.0000,NO
35,1.7950,1.7950,0.0500,0.050,APPROACHING,0,973.99,957.88,960.91,62.15,-7.33,36.70,0.97399,0.95788,0.96091,1.08479,-0.12801,0.64053,-0.01803,-0.03498,-0.02972,-13.73314,13.85351,15.34106,0.00000,0.00000,0.00000,0.00000,0.00000,0.00000,0.00000,0.00000,0.00000,0.00000,0.00000,0.00000,0.97399,0.95788,0.96091,-1.08479,0.12801,-0.64053,0.01803,0.03498,0.02972,13.73314,-13.85351,-15.34106,0.0000,,,,0.0415,,,,,,"[0.000, 0.000, 0.000, 0.000, 0.000, 0.000]",0x000000,1.7950,0,0,0.000000,0.000000,0.000000,0.0000,NO
36,1.8450,1.8450,0.0500,0.050,APPROACHING,0,973.09,956.13,959.42,13.49,-2.62,94.69,0.97309,0.95613,0.95942,0.23551,-0.04575,1.65265,-0.01803,-0.03498,-0.02972,-13.73314,13.85351,15.34106,0.00000,0.00000,0.00000,0.00000,0.00000,0.00000,0.00000,0.00000,0.00000,0.00000,0.00000,0.00000,0.97309,0.95613,0.95942,-0.23551,0.04575,-1.65265,0.01803,0.03498,0.02972,13.73314,-13.85351,-15.34106,0.0000,,,,0.0415,,,,,,"[0.000, 0.000, 0.000, 0.000, 0.000, 0.000]",0x000000,1.8450,0,0,0.000000,0.000000,0.000000,0.0000,NO
37,1.8950,1.8950,0.0500,0.050,APPROACHING,0,972.19,954.38,957.94,-14.37,38.73,138.79,0.97219,0.95438,0.95794,-0.25083,0.67603,2.42227,-0.01803,-0.03498,-0.02972,-13.73314,13.85351,15.34106,0.00000,0.00000,0.00000,0.00000,0.00000,0.00000,0.00000,0.00000,0.00000,0.00000,0.00000,0.00000,0.97219,0.95438,0.95794,0.25083,-0.67603,-2.42227,0.01803,0.03498,0.02972,13.73314,-13.85351,-15.34106,0.0000,,,,0.0416,,,,,,"[0.000, 0.000, 0.000, 0.000, 0.000, 0.000]",0x000000,1.8950,0,0,0.000000,0.000000,0.000000,0.0000,NO
38,1.9450,1.9450,0.0500,0.050,APPROACHING,0,971.29,952.63,956.45,58.19,78.20,-100.49,0.97129,0.95263,0.95645,1.01564,1.36490,-1.75396,-0.01803,-0.03498,-0.02972,-13.73314,13.85351,15.34106,0.00000,0.00000,0.00000,0.00000,0.00000,0.00000,0.00000,0.00000,0.00000,0.00000,0.00000,0.00000,0.97129,0.95263,0.95645,-1.01564,-1.36490,1.75396,0.01803,0.03498,0.02972,13.73314,-13.85351,-15.34106,0.0000,,,,0.0415,,,,,,"[0.000, 0.000, 0.000, 0.000, 0.000, 0.000]",0x000000,1.9450,0,0,0.000000,0.000000,0.000000,0.0000,NO
39,1.9950,1.9950,0.0500,0.050,APPROACHING,0,970.39,950.88,954.96,96.56,32.43,-12.50,0.97039,0.95088,0.95496,1.68522,0.56605,-0.21819,-0.01803,-0.03498,-0.02972,-13.73314,13.85351,15.34106,0.00000,0.00000,0.00000,0.00000,0.00000,0.00000,0.00000,0.00000,0.00000,0.00000,0.00000,0.00000,0.97039,0.95088,0.95496,-1.68522,-0.56605,0.21819,0.01803,0.03498,0.02972,13.73314,-13.85351,-15.34106,0.0000,,,,0.0415,,,,,,"[0.000, 0.000, 0.000, 0.000, 0.000, 0.000]",0x000000,1.9950,0,0,0.000000,0.000000,0.000000,0.0000,NO
40,2.0450,2.0450,0.0500,0.050,APPROACHING,0,969.49,949.13,953.48,65.07,-5.95,33.17,0.96949,0.94913,0.95348,1.13566,-0.10385,0.57890,-0.01803,-0.03498,-0.02972,-13.73314,13.85351,15.34106,0.00000,0.00000,0.00000,0.00000,0.00000,0.00000,0.00000,0.00000,0.00000,0.00000,0.00000,0.00000,0.96949,0.94913,0.95348,-1.13566,0.10385,-0.57890,0.01803,0.03498,0.02972,13.73314,-13.85351,-15.34106,0.0000,,,,0.0415,,,,,,"[0.000, 0.000, 0.000, 0.000, 0.000, 0.000]",0x000000,2.0450,0,0,0.000000,0.000000,0.000000,0.0000,NO
41,2.0950,2.0950,0.0500,0.050,APPROACHING,0,968.58,947.39,951.99,16.20,-4.35,91.33,0.96858,0.94739,0.95199,0.28282,-0.07588,1.59403,-0.01803,-0.03498,-0.02972,-13.73314,13.85351,15.34106,0.00000,0.00000,0.00000,0.00000,0.00000,0.00000,0.00000,0.00000,0.00000,0.00000,0.00000,0.00000,0.96858,0.94739,0.95199,-0.28282,0.07588,-1.59403,0.01803,0.03498,0.02972,13.73314,-13.85351,-15.34106,0.0000,,,,0.0415,,,,,,"[0.000, 0.000, 0.000, 0.000, 0.000, 0.000]",0x000000,2.0950,0,0,0.000000,0.000000,0.000000,0.0000,NO
42,2.1450,2.1450,0.0500,0.050,APPROACHING,0,967.68,945.64,950.51,-13.46,35.61,136.14,0.96768,0.94564,0.95051,-0.23500,0.62146,2.37609,-0.01803,-0.03498,-0.02972,-13.73314,13.85351,15.34106,0.00000,0.00000,0.00000,0.00000,0.00000,0.00000,0.00000,0.00000,0.00000,0.00000,0.00000,0.00000,0.96768,0.94564,0.95051,0.23500,-0.62146,-2.37609,0.01803,0.03498,0.02972,13.73314,-13.85351,-15.34106,0.0000,,,,0.0415,,,,,,"[0.000, 0.000, 0.000, 0.000, 0.000, 0.000]",0x000000,2.1450,0,0,0.000000,0.000000,0.000000,0.0000,NO
43,2.1950,2.1950,0.0500,0.050,APPROACHING,0,966.78,943.89,949.02,42.31,78.75,-119.26,0.96678,0.94389,0.94902,0.73843,1.37438,-2.08140,-0.01803,-0.03498,-0.02972,-13.73314,13.85351,15.34106,0.00000,0.00000,0.00000,0.00000,0.00000,0.00000,0.00000,0.00000,0.00000,0.00000,0.00000,0.00000,0.96678,0.94389,0.94902,-0.73843,-1.37438,2.08140,0.01803,0.03498,0.02972,13.73314,-13.85351,-15.34106,0.0000,,,,0.0415,,,,,,"[0.000, 0.000, 0.000, 0.000, 0.000, 0.000]",0x000000,2.1950,0,0,0.000000,0.000000,0.000000,0.0000,NO
44,2.2450,2.2450,0.0500,0.050,APPROACHING,0,965.88,942.14,947.53,97.60,35.52,-15.11,0.96588,0.94214,0.94753,1.70351,0.61997,-0.26371,-0.01803,-0.03498,-0.02972,-13.73314,13.85351,15.34106,0.00000,0.00000,0.00000,0.00000,0.00000,0.00000,0.00000,0.00000,0.00000,0.00000,0.00000,0.00000,0.96588,0.94214,0.94753,-1.70351,-0.61997,0.26371,0.01803,0.03498,0.02972,13.73314,-13.85351,-15.34106,0.0000,,,,0.0415,,,,,,"[0.000, 0.000, 0.000, 0.000, 0.000, 0.000]",0x000000,2.2450,0,0,0.000000,0.000000,0.000000,0.0000,NO
45,2.2950,2.2950,0.0500,0.050,APPROACHING,0,964.98,940.39,946.05,67.89,-4.39,29.72,0.96498,0.94039,0.94605,1.18483,-0.07666,0.51872,-0.01803,-0.03498,-0.02972,-13.73314,13.85351,15.34106,0.00000,0.00000,0.00000,0.00000,0.00000,0.00000,0.00000,0.00000,0.00000,0.00000,0.00000,0.00000,0.96498,0.94039,0.94605,-1.18483,0.07666,-0.51872,0.01803,0.03498,0.02972,13.73314,-13.85351,-15.34106,0.0000,,,,0.0416,,,,,,"[0.000, 0.000, 0.000, 0.000, 0.000, 0.000]",0x000000,2.2950,0,0,0.000000,0.000000,0.000000,0.0000,NO
46,2.3450,2.3450,0.0500,0.050,APPROACHING,0,964.08,938.64,944.56,19.02,-5.91,87.89,0.96408,0.93864,0.94456,0.33194,-0.10315,1.53389,-0.01803,-0.03498,-0.02972,-13.73314,13.85351,15.34106,0.00000,0.00000,0.00000,0.00000,0.00000,0.00000,0.00000,0.00000,0.00000,0.00000,0.00000,0.00000,0.96408,0.93864,0.94456,-0.33194,0.10315,-1.53389,0.01803,0.03498,0.02972,13.73314,-13.85351,-15.34106,0.0000,,,,0.0415,,,,,,"[0.000, 0.000, 0.000, 0.000, 0.000, 0.000]",0x000000,2.3450,0,0,0.000000,0.000000,0.000000,0.0000,NO
47,2.3950,2.3950,0.0500,0.050,APPROACHING,0,963.18,936.89,943.07,-12.42,32.52,133.53,0.96318,0.93689,0.94307,-0.21677,0.56752,2.33056,-0.01803,-0.03498,-0.02972,-13.73314,13.85351,15.34106,0.00000,0.00000,0.00000,0.00000,0.00000,0.00000,0.00000,0.00000,0.00000,0.00000,0.00000,0.00000,0.96318,0.93689,0.94307,0.21677,-0.56752,-2.33056,0.01803,0.03498,0.02972,13.73314,-13.85351,-15.34106,0.0000,,,,0.0416,,,,,,"[0.000, 0.000, 0.000, 0.000, 0.000, 0.000]",0x000000,2.3950,0,0,0.000000,0.000000,0.000000,0.0000,NO
48,2.4450,2.4450,0.0500,0.050,APPROACHING,0,962.27,935.14,941.59,26.38,78.23,-138.06,0.96227,0.93514,0.94159,0.46047,1.36540,-2.40959,-0.01803,-0.03498,-0.02972,-13.73314,13.85351,15.34106,0.00000,0.00000,0.00000,0.00000,0.00000,0.00000,0.00000,0.00000,0.00000,0.00000,0.00000,0.00000,0.96227,0.93514,0.94159,-0.46047,-1.36540,2.40959,0.01803,0.03498,0.02972,13.73314,-13.85351,-15.34106,0.0000,,,,0.0415,,,,,,"[0.000, 0.000, 0.000, 0.000, 0.000, 0.000]",0x000000,2.4450,0,0,0.000000,0.000000,0.000000,0.0000,NO
49,2.4950,2.4950,0.0500,0.050,APPROACHING,0,961.37,933.39,940.10,98.51,38.65,-17.75,0.96137,0.93339,0.94010,1.71941,0.67453,-0.30987,-0.01803,-0.03498,-0.02972,-13.73314,13.85351,15.34106,0.00000,0.00000,0.00000,0.00000,0.00000,0.00000,0.00000,0.00000,0.00000,0.00000,0.00000,0.00000,0.96137,0.93339,0.94010,-1.71941,-0.67453,0.30987,0.01803,0.03498,0.02972,13.73314,-13.85351,-15.34106,0.0000,,,,0.0415,,,,,,"[0.000, 0.000, 0.000, 0.000, 0.000, 0.000]",0x000000,2.4950,0,0,0.000000,0.000000,0.000000,0.0000,NO
50,2.5450,2.5450,0.0500,0.050,APPROACHING,0,960.47,931.64,938.62,70.60,-2.67,26.36,0.96047,0.93164,0.93862,1.23219,-0.04661,0.46006,-0.01803,-0.03498,-0.02972,-13.73314,13.85351,15.34106,0.00000,0.00000,0.00000,0.00000,0.00000,0.00000,0.00000,0.00000,0.00000,0.00000,0.00000,0.00000,0.96047,0.93164,0.93862,-1.23219,0.04661,-0.46006,0.01803,0.03498,0.02972,13.73314,-13.85351,-15.34106,0.0000,,,,0.0416,,,,,,"[0.000, 0.000, 0.000, 0.000, 0.000, 0.000]",0x000000,2.5450,0,0,0.000000,0.000000,0.000000,0.0000,NO
51,2.5950,2.5950,0.0500,0.050,APPROACHING,0,959.57,929.89,937.13,21.93,-7.30,84.36,0.95957,0.92989,0.93713,0.38277,-0.12739,1.47229,-0.01803,-0.03498,-0.02972,-13.73314,13.85351,15.34106,0.00000,0.00000,0.00000,0.00000,0.00000,0.00000,0.00000,0.00000,0.00000,0.00000,0.00000,0.00000,0.95957,0.92989,0.93713,-0.38277,0.12739,-1.47229,0.01803,0.03498,0.02972,13.73314,-13.85351,-15.34106,0.0000,,,,0.0416,,,,,,"[0.000, 0.000, 0.000, 0.000, 0.000, 0.000]",0x000000,2.5950,0,0,0.000000,0.000000,0.000000,0.0000,NO
52,2.6450,2.6450,0.0500,0.050,APPROACHING,0,958.67,928.15,935.64,-11.25,29.47,130.94,0.95867,0.92815,0.93564,-0.19632,0.51433,2.28535,-0.01803,-0.03498,-0.02972,-13.73314,13.85351,15.34106,0.00000,0.00000,0.00000,0.00000,0.00000,0.00000,0.00000,0.00000,0.00000,0.00000,0.00000,0.00000,0.95867,0.92815,0.93564,0.19632,-0.51433,-2.28535,0.01803,0.03498,0.02972,13.73314,-13.85351,-15.34106,0.0000,,,,0.0415,,,,,,"[0.000, 0.000, 0.000, 0.000, 0.000, 0.000]",0x000000,2.6450,0,0,0.000000,0.000000,0.000000,0.0000,NO
53,2.6950,2.6950,0.0500,0.050,APPROACHING,0,957.77,926.40,934.16,13.09,76.78,-154.23,0.95777,0.92640,0.93416,0.22850,1.34013,-2.69188,-0.01803,-0.03498,-0.02972,-13.73314,13.85351,15.34106,0.00000,0.00000,0.00000,0.00000,0.00000,0.00000,0.00000,0.00000,0.00000,0.00000,0.00000,0.00000,0.95777,0.92640,0.93416,-0.22850,-1.34013,2.69188,0.01803,0.03498,0.02972,13.73314,-13.85351,-15.34106,0.0000,,,,0.0416,,,,,,"[0.000, 0.000, 0.000, 0.000, 0.000, 0.000]",0x000000,2.6950,0,0,0.000000,0.000000,0.000000,0.0000,NO
54,2.7450,2.7450,0.0500,0.050,APPROACHING,0,956.87,924.65,932.67,99.27,41.80,-20.46,0.95687,0.92465,0.93267,1.73267,0.72961,-0.35705,-0.01803,-0.03498,-0.02972,-13.73314,13.85351,15.34106,0.00000,0.00000,0.00000,0.00000,0.00000,0.00000,0.00000,0.00000,0.00000,0.00000,0.00000,0.00000,0.95687,0.92465,0.93267,-1.73267,-0.72961,0.35705,0.01803,0.03498,0.02972,13.73314,-13.85351,-15.34106,0.0000,,,,0.0415,,,,,,"[0.000, 0.000, 0.000, 0.000, 0.000, 0.000]",0x000000,2.7450,0,0,0.000000,0.000000,0.000000,0.0000,NO
55,2.7950,2.7950,0.0500,0.050,APPROACHING,0,955.96,922.90,931.18,73.20,-0.80,23.09,0.95596,0.92290,0.93118,1.27766,-0.01388,0.40294,-0.01803,-0.03498,-0.02972,-13.73314,13.85351,15.34106,0.00000,0.00000,0.00000,0.00000,0.00000,0.00000,0.00000,0.00000,0.00000,0.00000,0.00000,0.00000,0.95596,0.92290,0.93118,-1.27766,0.01388,-0.40294,0.01803,0.03498,0.02972,13.73314,-13.85351,-15.34106,0.0000,,,,0.0416,,,,,,"[0.000, 0.000, 0.000, 0.000, 0.000, 0.000]",0x000000,2.7950,0,0,0.000000,0.000000,0.000000,0.0000,NO
56,2.8450,2.8450,0.0500,0.050,APPROACHING,0,955.06,921.15,929.70,24.93,-8.51,80.75,0.95506,0.92115,0.92970,0.43517,-0.14844,1.40934,-0.01803,-0.03498,-0.02972,-13.73314,13.85351,15.34106,0.00000,0.00000,0.00000,0.00000,0.00000,0.00000,0.00000,0.00000,0.00000,0.00000,0.00000,0.00000,0.95506,0.92115,0.92970,-0.43517,0.14844,-1.40934,0.01803,0.03498,0.02972,13.73314,-13.85351,-15.34106,0.0000,,,,0.0416,,,,,,"[0.000, 0.000, 0.000, 0.000, 0.000, 0.000]",0x000000,2.8450,0,0,0.000000,0.000000,0.000000,0.0000,NO
57,2.8950,2.8950,0.0500,0.050,APPROACHING,0,954.16,919.40,928.21,-9.96,26.47,128.35,0.95416,0.91940,0.92821,-0.17377,0.46198,2.24018,-0.01803,-0.03498,-0.02972,-13.73314,13.85351,15.34106,0.00000,0.00000,0.00000,0.00000,0.00000,0.00000,0.00000,0.00000,0.00000,0.00000,0.00000,0.00000,0.95416,0.91940,0.92821,0.17377,-0.46198,-2.24018,0.01803,0.03498,0.02972,13.73314,-13.85351,-15.34106,0.0000,,,,0.0415,,,,,,"[0.000, 0.000, 0.000, 0.000, 0.000, 0.000]",0x000000,2.8950,0,0,0.000000,0.000000,0.000000,0.0000,NO
58,2.9450,2.9450,0.0500,0.050,APPROACHING,0,953.26,917.65,926.73,3.27,74.67,-166.95,0.95326,0.91765,0.92673,0.05706,1.30320,-2.91383,-0.01803,-0.03498,-0.02972,-13.73314,13.85351,15.34106,0.00000,0.00000,0.00000,0.00000,0.00000,0.00000,0.00000,0.00000,0.00000,0.00000,0.00000,0.00000,0.95326,0.91765,0.92673,-0.05706,-1.30320,2.91383,0.01803,0.03498,0.02972,13.73314,-13.85351,-15.34106,0.0000,,,,0.0415,,,,,,"[0.000, 0.000, 0.000, 0.000, 0.000, 0.000]",0x000000,2.9450,0,0,0.000000,0.000000,0.000000,0.0000,NO
59,2.9950,2.9950,0.0500,0.050,APPROACHING,0,952.36,915.90,925.24,99.86,44.98,-23.25,0.95236,0.91590,0.92524,1.74295,0.78512,-0.40573,-0.01803,-0.03498,-0.02972,-13.73314,13.85351,15.34106,0.00000,0.00000,0.00000,0.00000,0.00000,0.00000,0.00000,0.00000,0.00000,0.00000,0.00000,0.00000,0.95236,0.91590,0.92524,-1.74295,-0.78512,0.40573,0.01803,0.03498,0.02972,13.73314,-13.85351,-15.34106,0.0000,,,,0.0416,,,,,,"[0.000, 0.000, 0.000, 0.000, 0.000, 0.000]",0x000000,2.9950,0,0,0.000000,0.000000,0.000000,0.0000,NO
60,3.0450,3.0450,0.0500,0.050,APPROACHING,0,951.46,914.15,923.75,75.70,1.22,19.90,0.95146,0.91415,0.92375,1.32120,0.02136,0.34735,-0.01803,-0.03498,-0.02972,-13.73314,13.85351,15.34106,0.00000,0.00000,0.00000,0.00000,0.00000,0.00000,0.00000,0.00000,0.00000,0.00000,0.00000,0.00000,0.95146,0.91415,0.92375,-1.32120,-0.02136,-0.34735,0.01803,0.03498,0.02972,13.73314,-13.85351,-15.34106,0.0000,,,,0.0416,,,,,,"[0.000, 0.000, 0.000, 0.000, 0.000, 0.000]",0x000000,3.0450,0,0,0.000000,0.000000,0.000000,0.0000,NO
61,3.0950,3.0950,0.0500,0.050,APPROACHING,0,950.56,912.40,922.27,28.02,-9.52,77.07,0.95056,0.91240,0.92227,0.48897,-0.16616,1.34517,-0.01803,-0.03498,-0.02972,-13.73314,13.85351,15.34106,0.00000,0.00000,0.00000,0.00000,0.00000,0.00000,0.00000,0.00000,0.00000,0.00000,0.00000,0.00000,0.95056,0.91240,0.92227,-0.48897,0.16616,-1.34517,0.01803,0.03498,0.02972,13.73314,-13.85351,-15.34106,0.0000,,,,0.0416,,,,,,"[0.000, 0.000, 0.000, 0.000, 0.000, 0.000]",0x000000,3.0950,0,0,0.000000,0.000000,0.000000,0.0000,NO
62,3.1450,3.1450,0.0500,0.050,APPROACHING,0,949.65,910.66,920.78,-8.55,23.52,125.75,0.94965,0.91066,0.92078,-0.14920,0.41058,2.19482,-0.01803,-0.03498,-0.02972,-13.73314,13.85351,15.34106,0.00000,0.00000,0.00000,0.00000,0.00000,0.00000,0.00000,0.00000,0.00000,0.00000,0.00000,0.00000,0.94965,0.91066,0.92078,0.14920,-0.41058,-2.19482,0.01803,0.03498,0.02972,13.73314,-13.85351,-15.34106,0.0000,,,,0.0415,,,,,,"[0.000, 0.000, 0.000, 0.000, 0.000, 0.000]",0x000000,3.1450,0,0,0.000000,0.000000,0.000000,0.0000,NO
63,3.1950,3.1950,0.0500,0.050,APPROACHING,0,948.75,908.91,919.29,-3.60,72.12,-176.73,0.94875,0.90891,0.91929,-0.06281,1.25879,-3.08448,-0.01803,-0.03498,-0.02972,-13.73314,13.85351,15.34106,0.00000,0.00000,0.00000,0.00000,0.00000,0.00000,0.00000,0.00000,0.00000,0.00000,0.00000,0.00000,0.94875,0.90891,0.91929,0.06281,-1.25879,3.08448,0.01803,0.03498,0.02972,13.73314,-13.85351,-15.34106,0.0000,,,,0.0416,,,,,,"[0.000, 0.000, 0.000, 0.000, 0.000, 0.000]",0x000000,3.1950,0,0,0.000000,0.000000,0.000000,0.0000,NO
64,3.2450,3.2450,0.0500,0.050,APPROACHING,0,947.85,907.16,917.81,100.26,48.18,-26.16,0.94785,0.90716,0.91781,1.74980,0.84094,-0.45650,-0.01803,-0.03498,-0.02972,-13.73314,13.85351,15.34106,0.00000,0.00000,0.00000,0.00000,0.00000,0.00000,0.00000,0.00000,0.00000,0.00000,0.00000,0.00000,0.94785,0.90716,0.91781,-1.74980,-0.84094,0.45650,0.01803,0.03498,0.02972,13.73314,-13.85351,-15.34106,0.0000,,,,0.0415,,,,,,"[0.000, 0.000, 0.000, 0.000, 0.000, 0.000]",0x000000,3.2450,0,0,0.000000,0.000000,0.000000,0.0000,NO
65,3.2950,3.2950,0.0500,0.050,APPROACHING,0,946.95,905.41,916.32,78.08,3.38,16.80,0.94695,0.90541,0.91632,1.36277,0.05894,0.29328,-0.01803,-0.03498,-0.02972,-13.73314,13.85351,15.34106,0.00000,0.00000,0.00000,0.00000,0.00000,0.00000,0.00000,0.00000,0.00000,0.00000,0.00000,0.00000,0.94695,0.90541,0.91632,-1.36277,-0.05894,-0.29328,0.01803,0.03498,0.02972,13.73314,-13.85351,-15.34106,0.0000,,,,0.0415,,,,,,"[0.000, 0.000, 0.000, 0.000, 0.000, 0.000]",0x000000,3.2950,0,0,0.000000,0.000000,0.000000,0.0000,NO
66,3.3450,3.3450,0.0500,0.050,APPROACHING,0,946.05,903.66,914.84,31.17,-10.34,73.33,0.94605,0.90366,0.91484,0.54397,-0.18040,1.27994,-0.01803,-0.03498,-0.02972,-13.73314,13.85351,15.34106,0.00000,0.00000,0.00000,0.00000,0.00000,0.00000,0.00000,0.00000,0.00000,0.00000,0.00000,0.00000,0.94605,0.90366,0.91484,-0.54397,0.18040,-1.27994,0.01803,0.03498,0.02972,13.73314,-13.85351,-15.34106,0.0000,,,,0.0416,,,,,,"[0.000, 0.000, 0.000, 0.000, 0.000, 0.000]",0x000000,3.3450,0,0,0.000000,0.000000,0.000000,0.0000,NO
67,3.3950,3.3950,0.0500,0.050,APPROACHING,0,945.15,901.91,913.35,-7.03,20.64,123.13,0.94515,0.90191,0.91335,-0.12267,0.36025,2.14905,-0.01803,-0.03498,-0.02972,-13.73314,13.85351,15.34106,0.00000,0.00000,0.00000,0.00000,0.00000,0.00000,0.00000,0.00000,0.00000,0.00000,0.00000,0.00000,0.94515,0.90191,0.91335,0.12267,-0.36025,-2.14905,0.01803,0.03498,0.02972,13.73314,-13.85351,-15.34106,0.0000,,,,0.0416,,,,,,"[0.000, 0.000, 0.000, 0.000, 0.000, 0.000]",0x000000,3.3950,0,0,0.000000,0.000000,0.000000,0.0000,NO
68,3.4450,3.4450,0.0500,0.050,APPROACHING,0,944.25,900.16,911.86,-8.31,69.31,175.63,0.94425,0.90016,0.91186,-0.14499,1.20975,3.06536,-0.01803,-0.03498,-0.02972,-13.73314,13.85351,15.34106,0.00000,0.00000,0.00000,0.00000,0.00000,0.00000,0.00000,0.00000,0.00000,0.00000,0.00000,0.00000,0.94425,0.90016,0.91186,0.14499,-1.20975,-3.06536,0.01803,0.03498,0.02972,13.73314,-13.85351,-15.34106,0.0000,,,,0.0415,,,,,,"[0.000, 0.000, 0.000, 0.000, 0.000, 0.000]",0x000000,3.4450,0,0,0.000000,0.000000,0.000000,0.0000,NO
69,3.4950,3.4950,0.0500,0.050,APPROACHING,0,943.35,898.41,910.38,100.41,51.39,-29.23,0.94335,0.89841,0.91038,1.75257,0.89692,-0.51013,-0.01803,-0.03498,-0.02972,-13.73314,13.85351,15.34106,0.00000,0.00000,0.00000,0.00000,0.00000,0.00000,0.00000,0.00000,0.00000,0.00000,0.00000,0.00000,0.94335,0.89841,0.91038,-1.75257,-0.89692,0.51013,0.01803,0.03498,0.02972,13.73314,-13.85351,-15.34106,0.0000,,,,0.0301,,,,,,"[0.000, 1.000, 1.000, 0.000, 0.000, 1.000]",0x011001,3.4950,3,3,-1.975255,2.000000,2.000000,0.0000,NO
70,3.5450,3.5450,0.0500,0.050,APPROACHING,0,942.44,896.61,908.80,78.90,4.27,15.81,0.94244,0.89661,0.90880,1.37699,0.07457,0.27599,-0.01752,-0.03715,-0.03312,-14.90297,15.04667,16.53046,0.00000,0.00000,0.00000,0.00000,0.00000,0.00000,0.00000,0.00000,0.00000,0.00000,0.00000,0.00000,0.94244,0.89661,0.90880,-1.37699,-0.07457,-0.27599,0.01752,0.03715,0.03312,14.90297,-15.04667,-16.53046,0.0000,,,,0.0416,,,,,,"[0.000, 0.000, 0.000, 0.000, 0.000, 0.000]",0x000000,3.5450,0,3,0.000000,0.000000,0.000000,0.0000,NO
71,3.5950,3.5950,0.0500,0.050,APPROACHING,0,941.56,894.76,907.14,28.34,-9.27,76.90,0.94156,0.89476,0.90714,0.49461,-0.16172,1.34213,-0.01752,-0.03715,-0.03312,-14.90297,15.04667,16.53046,0.00000,0.00000,0.00000,0.00000,0.00000,0.00000,0.00000,0.00000,0.00000,0.00000,0.00000,0.00000,0.94156,0.89476,0.90714,-0.49461,0.16172,-1.34213,0.01752,0.03715,0.03312,14.90297,-15.04667,-16.53046,0.0000,,,,0.0416,,,,,,"[0.000, 0.000, 0.000, 0.000, 0.000, 0.000]",0x000000,3.5950,0,0,0.000000,0.000000,0.000000,0.0000,NO
72,3.6450,3.6450,0.0500,0.050,APPROACHING,0,940.69,892.90,905.49,-9.95,27.44,129.00,0.94069,0.89290,0.90549,-0.17372,0.47889,2.25145,-0.01752,-0.03715,-0.03312,-14.90297,15.04667,16.53046,0.00000,0.00000,0.00000,0.00000,0.00000,0.00000,0.00000,0.00000,0.00000,0.00000,0.00000,0.00000,0.94069,0.89290,0.90549,0.17372,-0.47889,-2.25145,0.01752,0.03715,0.03312,14.90297,-15.04667,-16.53046,0.0000,,,,0.0415,,,,,,"[0.000, 0.000, 0.000, 0.000, 0.000, 0.000]",0x000000,3.6450,0,0,0.000000,0.000000,0.000000,0.0000,NO
73,3.6950,3.6950,0.0500,0.050,APPROACHING,0,939.81,891.04,903.83,20.83,77.64,-145.15,0.93981,0.89104,0.90383,0.36359,1.35513,-2.53341,-0.01752,-0.03715,-0.03312,-14.90297,15.04667,16.53046,0.00000,0.00000,0.00000,0.00000,0.00000,0.00000,0.00000,0.00000,0.00000,0.00000,0.00000,0.00000,0.93981,0.89104,0.90383,-0.36359,-1.35513,2.53341,0.01752,0.03715,0.03312,14.90297,-15.04667,-16.53046,0.0000,,,,0.0415,,,,,,"[0.000, 0.000, 0.000, 0.000, 0.000, 0.000]",0x000000,3.6950,0,0,0.000000,0.000000,0.000000,0.0000,NO
74,3.7450,3.7450,0.0500,0.050,APPROACHING,0,938.93,889.18,902.18,97.79,36.00,-15.56,0.93893,0.88918,0.90218,1.70668,0.62836,-0.27165,-0.01752,-0.03715,-0.03312,-14.90297,15.04667,16.53046,0.00000,0.00000,0.00000,0.00000,0.00000,0.00000,0.00000,0.00000,0.00000,0.00000,0.00000,0.00000,0.93893,0.88918,0.90218,-1.70668,-0.62836,0.27165,0.01752,0.03715,0.03312,14.90297,-15.04667,-16.53046,0.0000,,,,0.0205,,,,,,"[1.000, 0.000, 1.000, 0.000, 0.000, 1.000]",0x101001,3.7450,3,3,-2.000000,1.994292,1.971754,0.0000,NO
75,3.7950,3.7950,0.0500,0.050,APPROACHING,0,937.98,887.27,900.49,62.81,-6.70,36.05,0.93798,0.88727,0.90049,1.09630,-0.11700,0.62917,-0.02007,-0.03990,-0.03461,-16.08697,16.23767,17.70243,0.00000,0.00000,0.00000,0.00000,0.00000,0.00000,0.00000,0.00000,0.00000,0.00000,0.00000,0.00000,0.93798,0.88727,0.90049,-1.09630,0.11700,-0.62917,0.02007,0.03990,0.03461,16.08697,-16.23767,-17.70243,0.0000,,,,0.0416,,,,,,"[0.000, 0.000, 0.000, 0.000, 0.000, 0.000]",0x000000,3.7950,0,3,0.000000,0.000000,0.000000,0.0000,NO
76,3.8450,3.8450,0.0500,0.050,APPROACHING,0,936.97,885.27,898.76,7.91,2.68,102.19,0.93697,0.88527,0.89876,0.13802,0.04685,1.78349,-0.02007,-0.03990,-0.03461,-16.08697,16.23767,17.70243,0.00000,0.00000,0.00000,0.00000,0.00000,0.00000,0.00000,0.00000,0.00000,0.00000,0.00000,0.00000,0.93697,0.88527,0.89876,-0.13802,-0.04685,-1.78349,0.02007,0.03990,0.03461,16.08697,-16.23767,-17.70243,0.0000,,,,0.0417,,,,,,"[0.000, 0.000, 0.000, 0.000, 0.000, 0.000]",0x000000,3.8450,0,0,0.000000,0.000000,0.000000,0.0000,NO
77,3.8950,3.8950,0.0500,0.050,APPROACHING,0,935.97,883.28,897.03,-15.37,54.98,153.60,0.93597,0.88328,0.89703,-0.26827,0.95960,2.68081,-0.02007,-0.03990,-0.03461,-16.08697,16.23767,17.70243,0.00000,0.00000,0.00000,0.00000,0.00000,0.00000,0.00000,0.00000,0.00000,0.00000,0.00000,0.00000,0.93597,0.88328,0.89703,0.26827,-0.95960,-2.68081,0.02007,0.03990,0.03461,16.08697,-16.23767,-17.70243,0.0000,,,,0.0281,,,,,,"[0.000, 1.000, 0.000, 1.000, 0.000, 1.000]",0x010101,3.8950,3,3,-1.973160,2.000000,1.999120,0.0000,NO
78,3.9450,3.9450,0.0500,0.050,APPROACHING,0,934.90,881.22,895.26,100.46,56.03,-34.20,0.93490,0.88122,0.89526,1.75330,0.97785,-0.59698,-0.02209,-0.04300,-0.03611,-17.25559,17.43071,18.89139,0.00000,0.00000,0.00000,0.00000,0.00000,0.00000,0.00000,0.00000,0.00000,0.00000,0.00000,0.00000,0.93490,0.88122,0.89526,-1.75330,-0.97785,0.59698,0.02209,0.04300,0.03611,17.25559,-17.43071,-18.89139,0.0000,,,,0.0416,,,,,,"[0.000, 0.000, 0.000, 0.000, 0.000, 0.000]",0x000000,3.9450,0,3,0.000000,0.000000,0.000000,0.0000,NO
79,3.9950,3.9950,0.0500,0.050,APPROACHING,0,933.79,879.07,893.45,74.91,0.75,21.42,0.93379,0.87907,0.89345,1.30745,0.01316,0.37386,-0.02209,-0.04300,-0.03611,-17.25559,17.43071,18.89139,0.00000,0.00000,0.00000,0.00000,0.00000,0.00000,0.00000,0.00000,0.00000,0.00000,0.00000,0.00000,0.93379,0.87907,0.89345,-1.30745,-0.01316,-0.37386,0.02209,0.04300,0.03611,17.25559,-17.43071,-18.89139,0.0000,,,,0.0416,,,,,,"[0.000, 0.000, 0.000, 0.000, 0.000, 0.000]",0x000000,3.9950,0,0,0.000000,0.000000,0.000000,0.0000,NO
80,4.0450,4.0450,0.0500,0.050,APPROACHING,0,932.69,876.92,891.65,16.02,-3.19,92.29,0.93269,0.87692,0.89165,0.27956,-0.05563,1.61082,-0.02209,-0.04300,-0.03611,-17.25559,17.43071,18.89139,0.00000,0.00000,0.00000,0.00000,0.00000,0.00000,0.00000,0.00000,0.00000,0.00000,0.00000,0.00000,0.93269,0.87692,0.89165,-0.27956,0.05563,-1.61082,0.02209,0.04300,0.03611,17.25559,-17.43071,-18.89139,0.0000,,,,0.0416,,,,,,"[0.000, 0.000, 0.000, 0.000, 0.000, 0.000]",0x000000,4.0450,0,0,0.000000,0.000000,0.000000,0.0000,NO
81,4.0950,4.0950,0.0500,0.050,APPROACHING,0,931.58,874.77,889.84,-15.27,49.23,147.87,0.93158,0.87477,0.88984,-0.26643,0.85931,2.58089,-0.02209,-0.04300,-0.03611,-17.25559,17.43071,18.89139,0.00000,0.00000,0.00000,0.00000,0.00000,0.00000,0.00000,0.00000,0.00000,0.00000,0.00000,0.00000,0.93158,0.87477,0.88984,0.26643,-0.85931,-2.58089,0.02209,0.04300,0.03611,17.25559,-17.43071,-18.89139,0.0000,,,,0.0416,,,,,,"[0.000, 0.000, 0.000, 0.000, 0.000, 0.000]",0x000000,4.0950,0,0,0.000000,0.000000,0.000000,0.0000,NO
82,4.1450,4.1450,0.0500,0.050,APPROACHING,0,930.48,872.62,888.04,99.64,59.69,-38.61,0.93048,0.87262,0.88804,1.73908,1.04175,-0.67387,-0.02209,-0.04300,-0.03611,-17.25559,17.43071,18.89139,0.00000,0.00000,0.00000,0.00000,0.00000,0.00000,0.00000,0.00000,0.00000,0.00000,0.00000,0.00000,0.93048,0.87262,0.88804,-1.73908,-1.04175,0.67387,0.02209,0.04300,0.03611,17.25559,-17.43071,-18.89139,0.0000,,,,0.0415,,,,,,"[0.000, 0.000, 0.000, 0.000, 0.000, 0.000]",0x000000,4.1450,0,0,0.000000,0.000000,0.000000,0.0000,NO
83,4.1950,4.1950,0.0500,0.050,APPROACHING,0,929.37,870.47,886.23,77.71,3.16,17.80,0.92937,0.87047,0.88623,1.35623,0.05516,0.31067,-0.02209,-0.04300,-0.03611,-17.25559,17.43071,18.89139,0.00000,0.00000,0.00000,0.00000,0.00000,0.00000,0.00000,0.00000,0.00000,0.00000,0.00000,0.00000,0.92937,0.87047,0.88623,-1.35623,-0.05516,-0.31067,0.02209,0.04300,0.03611,17.25559,-17.43071,-18.89139,0.0000,,,,0.0415,,,,,,"[0.000, 0.000, 0.000, 0.000, 0.000, 0.000]",0x000000,4.1950,0,0,0.000000,0.000000,0.000000,0.0000,NO
84,4.2450,4.2450,0.0500,0.050,APPROACHING,0,928.27,868.32,884.42,19.22,-5.03,88.35,0.92827,0.86832,0.88442,0.33544,-0.08779,1.54196,-0.02209,-0.04300,-0.03611,-17.25559,17.43071,18.89139,0.00000,0.00000,0.00000,0.00000,0.00000,0.00000,0.00000,0.00000,0.00000,0.00000,0.00000,0.00000,0.92827,0.86832,0.88442,-0.33544,0.08779,-1.54196,0.02209,0.04300,0.03611,17.25559,-17.43071,-18.89139,0.0000,,,,0.0416,,,,,,"[0.000, 0.000, 0.000, 0.000, 0.000, 0.000]",0x000000,4.2450,0,0,0.000000,0.000000,0.000000,0.0000,NO
85,4.2950,4.2950,0.0500,0.050,APPROACHING,0,927.16,866.17,882.62,-14.87,45.56,144.45,0.92716,0.86617,0.88262,-0.25950,0.79514,2.52114,-0.02209,-0.04300,-0.03611,-17.25559,17.43071,18.89139,0.00000,0.00000,0.00000,0.00000,0.00000,0.00000,0.00000,0.00000,0.00000,0.00000,0.00000,0.00000,0.92716,0.86617,0.88262,0.25950,-0.79514,-2.52114,0.02209,0.04300,0.03611,17.25559,-17.43071,-18.89139,0.0000,,,,0.0415,,,,,,"[0.000, 0.000, 0.000, 0.000, 0.000, 0.000]",0x000000,4.2950,0,0,0.000000,0.000000,0.000000,0.0000,NO
86,4.3450,4.3450,0.0500,0.050,APPROACHING,0,926.06,864.02,880.81,98.10,63.30,-43.68,0.92606,0.86402,0.88081,1.71223,1.10481,-0.76234,-0.02209,-0.04300,-0.03611,-17.25559,17.43071,18.89139,0.00000,0.00000,0.00000,0.00000,0.00000,0.00000,0.00000,0.00000,0.00000,0.00000,0.00000,0.00000,0.92606,0.86402,0.88081,-1.71223,-1.10481,0.76234,0.02209,0.04300,0.03611,17.25559,-17.43071,-18.89139,0.0000,,,,0.0416,,,,,,"[0.000, 0.000, 0.000, 0.000, 0.000, 0.000]",0x000000,4.3450,0,0,0.000000,0.000000,0.000000,0.0000,NO
87,4.3950,4.3950,0.0500,0.050,APPROACHING,0,924.95,861.87,879.01,80.35,5.74,14.29,0.92495,0.86187,0.87901,1.40242,0.10011,0.24939,-0.02209,-0.04300,-0.03611,-17.25559,17.43071,18.89139,0.00000,0.00000,0.00000,0.00000,0.00000,0.00000,0.00000,0.00000,0.00000,0.00000,0.00000,0.00000,0.92495,0.86187,0.87901,-1.40242,-0.10011,-0.24939,0.02209,0.04300,0.03611,17.25559,-17.43071,-18.89139,0.0000,,,,0.0415,,,,,,"[0.000, 0.000, 0.000, 0.000, 0.000, 0.000]",0x000000,4.3950,0,0,0.000000,0.000000,0.000000,0.0000,NO
88,4.4450,4.4450,0.0500,0.050,APPROACHING,0,923.85,859.72,877.20,22.55,-6.65,84.29,0.92385,0.85972,0.87720,0.39358,-0.11598,1.47119,-0.02209,-0.04300,-0.03611,-17.25559,17.43071,18.89139,0.00000,0.00000,0.00000,0.00000,0.00000,0.00000,0.00000,0.00000,0.00000,0.00000,0.00000,0.00000,0.92385,0.85972,0.87720,-0.39358,0.11598,-1.47119,0.02209,0.04300,0.03611,17.25559,-17.43071,-18.89139,0.0000,,,,0.0415,,,,,,"[0.000, 0.000, 0.000, 0.000, 0.000, 0.000]",0x000000,4.4450,0,0,0.000000,0.000000,0.000000,0.0000,NO
89,4.4950,4.4950,0.0500,0.050,APPROACHING,0,922.74,857.57,875.40,-14.20,41.90,141.20,0.92274,0.85757,0.87540,-0.24785,0.73135,2.46434,-0.02209,-0.04300,-0.03611,-17.25559,17.43071,18.89139,0.00000,0.00000,0.00000,0.00000,0.00000,0.00000,0.00000,0.00000,0.00000,0.00000,0.00000,0.00000,0.92274,0.85757,0.87540,0.24785,-0.73135,-2.46434,0.02209,0.04300,0.03611,17.25559,-17.43071,-18.89139,0.0000,,,,0.0417,,,,,,"[0.000, 0.000, 0.000, 0.000, 0.000, 0.000]",0x000000,4.4950,0,0,0.000000,0.000000,0.000000,0.0000,NO
90,4.5450,4.5450,0.0500,0.050,APPROACHING,0,921.64,855.42,873.59,95.54,66.83,-49.72,0.92164,0.85542,0.87359,1.66751,1.16634,-0.86777,-0.02209,-0.04300,-0.03611,-17.25559,17.43071,18.89139,0.00000,0.00000,0.00000,0.00000,0.00000,0.00000,0.00000,0.00000,0.00000,0.00000,0.00000,0.00000,0.92164,0.85542,0.87359,-1.66751,-1.16634,0.86777,0.02209,0.04300,0.03611,17.25559,-17.43071,-18.89139,0.0000,,,,0.0416,,,,,,"[0.000, 0.000, 0.000, 0.000, 0.000, 0.000]",0x000000,4.5450,0,0,0.000000,0.000000,0.000000,0.0000,NO
91,4.5950,4.5950,0.0500,0.050,APPROACHING,0,920.54,853.27,871.79,82.85,8.47,10.88,0.92054,0.85327,0.87179,1.44600,0.14775,0.18992,-0.02209,-0.04300,-0.03611,-17.25559,17.43071,18.89139,0.00000,0.00000,0.00000,0.00000,0.00000,0.00000,0.00000,0.00000,0.00000,0.00000,0.00000,0.00000,0.92054,0.85327,0.87179,-1.44600,-0.14775,-0.18992,0.02209,0.04300,0.03611,17.25559,-17.43071,-18.89139,0.0000,,,,0.0416,,,,,,"[0.000, 0.000, 0.000, 0.000, 0.000, 0.000]",0x000000,4.5950,0,0,0.000000,0.000000,0.000000,0.0000,NO
92,4.6450,4.6450,0.0500,0.050,APPROACHING,0,919.43,851.12,869.98,26.00,-8.02,80.14,0.91943,0.85112,0.86998,0.45379,-0.13995,1.39864,-0.02209,-0.04300,-0.03611,-17.25559,17.43071,18.89139,0.00000,0.00000,0.00000,0.00000,0.00000,0.00000,0.00000,0.00000,0.00000,0.00000,0.00000,0.00000,0.91943,0.85112,0.86998,-0.45379,0.13995,-1.39864,0.02209,0.04300,0.03611,17.25559,-17.43071,-18.89139,0.0000,,,,0.0416,,,,,,"[0.000, 0.000, 0.000, 0.000, 0.000, 0.000]",0x000000,4.6450,0,0,0.000000,0.000000,0.000000,0.0000,NO
93,4.6950,4.6950,0.0500,0.050,APPROACHING,0,918.33,848.97,868.17,-13.30,38.28,138.06,0.91833,0.84897,0.86817,-0.23221,0.66812,2.40956,-0.02209,-0.04300,-0.03611,-17.25559,17.43071,18.89139,0.00000,0.00000,0.00000,0.00000,0.00000,0.00000,0.00000,0.00000,0.00000,0.00000,0.00000,0.00000,0.91833,0.84897,0.86817,0.23221,-0.66812,-2.40956,0.02209,0.04300,0.03611,17.25559,-17.43071,-18.89139,0.0000,,,,0.0415,,,,,,"[0.000, 0.000, 0.000, 0.000, 0.000, 0.000]",0x000000,4.6950,0,0,0.000000,0.000000,0.000000,0.0000,NO
94,4.7450,4.7450,0.0500,0.050,APPROACHING,0,917.22,846.82,866.37,91.48,70.20,-57.22,0.91722,0.84682,0.86637,1.59658,1.22524,-0.99866,-0.02209,-0.04300,-0.03611,-17.25559,17.43071,18.89139,0.00000,0.00000,0.00000,0.00000,0.00000,0.00000,0.00000,0.00000,0.00000,0.00000,0.00000,0.00000,0.91722,0.84682,0.86637,-1.59658,-1.22524,0.99866,0.02209,0.04300,0.03611,17.25559,-17.43071,-18.89139,0.0000,,,,0.0415,,,,,,"[0.000, 0.000, 0.000, 0.000, 0.000, 0.000]",0x000000,4.7450,0,0,0.000000,0.000000,0.000000,0.0000,NO
95,4.7950,4.7950,0.0500,0.050,APPROACHING,0,916.12,844.67,864.56,85.20,11.34,7.57,0.91612,0.84467,0.86456,1.48700,0.19784,0.13212,-0.02209,-0.04300,-0.03611,-17.25559,17.43071,18.89139,0.00000,0.00000,0.00000,0.00000,0.00000,0.00000,0.00000,0.00000,0.00000,0.00000,0.00000,0.00000,0.91612,0.84467,0.86456,-1.48700,-0.19784,-0.13212,0.02209,0.04300,0.03611,17.25559,-17.43071,-18.89139,0.0000,,,,0.0415,,,,,,"[0.000, 0.000, 0.000, 0.000, 0.000, 0.000]",0x000000,4.7950,0,0,0.000000,0.000000,0.000000,0.0000,NO
96,4.8450,4.8450,0.0500,0.050,APPROACHING,0,915.01,842.52,862.76,29.55,-9.14,75.89,0.91501,0.84252,0.86276,0.51579,-0.15949,1.32453,-0.02209,-0.04300,-0.03611,-17.25559,17.43071,18.89139,0.00000,0.00000,0.00000,0.00000,0.00000,0.00000,0.00000,0.00000,0.00000,0.00000,0.00000,0.00000,0.91501,0.84252,0.86276,-0.51579,0.15949,-1.32453,0.02209,0.04300,0.03611,17.25559,-17.43071,-18.89139,0.0000,,,,0.0415,,,,,,"[0.000, 0.000, 0.000, 0.000, 0.000, 0.000]",0x000000,4.8450,0,0,0.000000,0.000000,0.000000,0.0000,NO
97,4.8950,4.8950,0.0500,0.050,APPROACHING,0,913.91,840.37,860.95,-12.21,34.70,134.99,0.91391,0.84037,0.86095,-0.21309,0.60564,2.35607,-0.02209,-0.04300,-0.03611,-17.25559,17.43071,18.89139,0.00000,0.00000,0.00000,0.00000,0.00000,0.00000,0.00000,0.00000,0.00000,0.00000,0.00000,0.00000,0.91391,0.84037,0.86095,0.21309,-0.60564,-2.35607,0.02209,0.04300,0.03611,17.25559,-17.43071,-18.89139,0.0000,,,,0.0416,,,,,,"[0.000, 0.000, 0.000, 0.000, 0.000, 0.000]",0x000000,4.8950,0,0,0.000000,0.000000,0.000000,0.0000,NO
98,4.9450,4.9450,0.0500,0.050,APPROACHING,0,912.80,838.22,859.15,85.16,73.32,-66.94,0.91280,0.83822,0.85915,1.48633,1.27964,-1.16828,-0.02209,-0.04300,-0.03611,-17.25559,17.43071,18.89139,0.00000,0.00000,0.00000,0.00000,0.00000,0.00000,0.00000,0.00000,0.00000,0.00000,0.00000,0.00000,0.91280,0.83822,0.85915,-1.48633,-1.27964,1.16828,0.02209,0.04300,0.03611,17.25559,-17.43071,-18.89139,0.0000,,,,0.0416,,,,,,"[0.000, 0.000, 0.000, 0.000, 0.000, 0.000]",0x000000,4.9450,0,0,0.000000,0.000000,0.000000,0.0000,NO
99,4.9950,4.9950,0.0500,0.050,APPROACHING,0,911.70,836.07,857.34,87.40,14.33,4.34,0.91170,0.83607,0.85734,1.52542,0.25016,0.07580,-0.02209,-0.04300,-0.03611,-17.25559,17.43071,18.89139,0.00000,0.00000,0.00000,0.00000,0.00000,0.00000,0.00000,0.00000,0.00000,0.00000,0.00000,0.00000,0.91170,0.83607,0.85734,-1.52542,-0.25016,-0.07580,0.02209,0.04300,0.03611,17.25559,-17.43071,-18.89139,0.0000,,,,0.0416,,,,,,"[0.000, 0.000, 0.000, 0.000, 0.000, 0.000]",0x000000,4.9950,0,0,0.000000,0.000000,0.000000,0.0000,NO
100,5.0450,5.0450,0.0500,0.050,APPROACHING,0,910.59,833.92,855.54,33.19,-9.99,71.57,0.91059,0.83392,0.85554,0.57926,-0.17439,1.24912,-0.02209,-0.04300,-0.03611,-17.25559,17.43071,18.89139,0.00000,0.00000,0.00000,0.00000,0.00000,0.00000,0.00000,0.00000,0.00000,0.00000,0.00000,0.00000,0.91059,0.83392,0.85554,-0.57926,0.17439,-1.24912,0.02209,0.04300,0.03611,17.25559,-17.43071,-18.89139,0.0000,,,,0.0415,,,,,,"[0.000, 0.000, 0.000, 0.000, 0.000, 0.000]",0x000000,5.0450,0,0,0.000000,0.000000,0.000000,0.0000,NO
101,5.0950,5.0950,0.0500,0.050,APPROACHING,0,909.49,831.77,853.73,-10.94,31.17,131.97,0.90949,0.83177,0.85373,-0.19086,0.54406,2.30331,-0.02209,-0.04300,-0.03611,-17.25559,17.43071,18.89139,0.00000,0.00000,0.00000,0.00000,0.00000,0.00000,0.00000,0.00000,0.00000,0.00000,0.00000,0.00000,0.90949,0.83177,0.85373,0.19086,-0.54406,-2.30331,0.02209,0.04300,0.03611,17.25559,-17.43071,-18.89139,0.0000,,,,0.0416,,,,,,"[0.000, 0.000, 0.000, 0.000, 0.000, 0.000]",0x000000,5.0950,0,0,0.000000,0.000000,0.000000,0.0000,NO
102,5.1450,5.1450,0.0500,0.050,APPROACHING,0,908.38,829.62,851.92,75.51,75.99,-79.96,0.90838,0.82962,0.85192,1.31791,1.32624,-1.39562,-0.02209,-0.04300,-0.03611,-17.25559,17.43071,18.89139,0.00000,0.00000,0.00000,0.00000,0.00000,0.00000,0.00000,0.00000,0.00000,0.00000,0.00000,0.00000,0.90838,0.82962,0.85192,-1.31791,-1.32624,1.39562,0.02209,0.04300,0.03611,17.25559,-17.43071,-18.89139,0.0000,,,,0.0415,,,,,,"[0.000, 0.000, 0.000, 0.000, 0.000, 0.000]",0x000000,5.1450,0,0,0.000000,0.000000,0.000000,0.0000,NO
103,5.1950,5.1950,0.0500,0.050,APPROACHING,0,907.28,827.47,850.12,89.46,17.45,1.19,0.90728,0.82747,0.85012,1.56129,0.30448,0.02077,-0.02209,-0.04300,-0.03611,-17.25559,17.43071,18.89139,0.00000,0.00000,0.00000,0.00000,0.00000,0.00000,0.00000,0.00000,0.00000,0.00000,0.00000,0.00000,0.90728,0.82747,0.85012,-1.56129,-0.30448,-0.02077,0.02209,0.04300,0.03611,17.25559,-17.43071,-18.89139,0.0000,,,,0.0415,,,,,,"[0.000, 0.000, 0.000, 0.000, 0.000, 0.000]",0x000000,5.1950,0,0,0.000000,0.000000,0.000000,0.0000,NO
104,5.2450,5.2450,0.0500,0.050,APPROACHING,0,906.17,825.32,848.31,36.89,-10.57,67.19,0.90617,0.82532,0.84831,0.64385,-0.18450,1.17273,-0.02209,-0.04300,-0.03611,-17.25559,17.43071,18.89139,0.00000,0.00000,0.00000,0.00000,0.00000,0.00000,0.00000,0.00000,0.00000,0.00000,0.00000,0.00000,0.90617,0.82532,0.84831,-0.64385,0.18450,-1.17273,0.02209,0.04300,0.03611,17.25559,-17.43071,-18.89139,0.0000,,,,0.0416,,,,,,"[0.000, 0.000, 0.000, 0.000, 0.000, 0.000]",0x000000,5.2450,0,0,0.000000,0.000000,0.000000,0.0000,NO
105,5.2950,5.2950,0.0500,0.050,APPROACHING,0,905.07,823.17,846.51,-9.50,27.71,128.96,0.90507,0.82317,0.84651,-0.16574,0.48355,2.25080,-0.02209,-0.04300,-0.03611,-17.25559,17.43071,18.89139,0.00000,0.00000,0.00000,0.00000,0.00000,0.00000,0.00000,0.00000,0.00000,0.00000,0.00000,0.00000,0.90507,0.82317,0.84651,0.16574,-0.48355,-2.25080,0.02209,0.04300,0.03611,17.25559,-17.43071,-18.89139,0.0000,,,,0.0415,,,,,,"[0.000, 0.000, 0.000, 0.000, 0.000, 0.000]",0x000000,5.2950,0,0,0.000000,0.000000,0.000000,0.0000,NO
106,5.3450,5.3450,0.0500,0.050,APPROACHING,0,903.96,821.02,844.70,61.49,77.90,-97.34,0.90396,0.82102,0.84470,1.07319,1.35963,-1.69897,-0.02209,-0.04300,-0.03611,-17.25559,17.43071,18.89139,0.00000,0.00000,0.00000,0.00000,0.00000,0.00000,0.00000,0.00000,0.00000,0.00000,0.00000,0.00000,0.90396,0.82102,0.84470,-1.07319,-1.35963,1.69897,0.02209,0.04300,0.03611,17.25559,-17.43071,-18.89139,0.0000,,,,0.0415,,,,,,"[0.000, 0.000, 0.000, 0.000, 0.000, 0.000]",0x000000,5.3450,0,0,0.000000,0.000000,0.000000,0.0000,NO
107,5.3950,5.3950,0.0500,0.050,APPROACHING,0,902.86,818.87,842.90,91.36,20.66,-1.90,0.90286,0.81887,0.84290,1.59459,0.36060,-0.03321,-0.02209,-0.04300,-0.03611,-17.25559,17.43071,18.89139,0.00000,0.00000,0.00000,0.00000,0.00000,0.00000,0.00000,0.00000,0.00000,0.00000,0.00000,0.00000,0.90286,0.81887,0.84290,-1.59459,-0.36060,0.03321,0.02209,0.04300,0.03611,17.25559,-17.43071,-18.89139,0.0000,,,,0.0415,,,,,,"[0.000, 0.000, 0.000, 0.000, 0.000, 0.000]",0x000000,5.3950,0,0,0.000000,0.000000,0.000000,0.0000,NO
108,5.4450,5.4450,0.0500,0.050,APPROACHING,0,901.76,816.72,841.09,40.63,-10.87,62.78,0.90176,0.81672,0.84109,0.70912,-0.18971,1.09573,-0.02209,-0.04300,-0.03611,-17.25559,17.43071,18.89139,0.00000,0.00000,0.00000,0.00000,0.00000,0.00000,0.00000,0.00000,0.00000,0.00000,0.00000,0.00000,0.90176,0.81672,0.84109,-0.70912,0.18971,-1.09573,0.02209,0.04300,0.03611,17.25559,-17.43071,-18.89139,0.0000,,,,0.0415,,,,,,"[0.000, 0.000, 0.000, 0.000, 0.000, 0.000]",0x000000,5.4450,0,0,0.000000,0.000000,0.000000,0.0000,NO
109,5.4950,5.4950,0.0500,0.050,APPROACHING,0,900.65,814.57,839.28,-7.90,24.31,125.95,0.90065,0.81457,0.83928,-0.13790,0.42427,2.19816,-0.02209,-0.04300,-0.03611,-17.25559,17.43071,18.89139,0.00000,0.00000,0.00000,0.00000,0.00000,0.00000,0.00000,0.00000,0.00000,0.00000,0.00000,0.00000,0.90065,0.81457,0.83928,0.13790,-0.42427,-2.19816,0.02209,0.04300,0.03611,17.25559,-17.43071,-18.89139,0.0000,,,,0.0416,,,,,,"[0.000, 0.000, 0.000, 0.000, 0.000, 0.000]",0x000000,5.4950,0,0,0.000000,0.000000,0.000000,0.0000,NO
110,5.5450,5.5450,0.0500,0.050,APPROACHING,0,899.55,812.42,837.48,43.65,78.66,-118.53,0.89955,0.81242,0.83748,0.76183,1.37285,-2.06880,-0.02209,-0.04300,-0.03611,-17.25559,17.43071,18.89139,0.00000,0.00000,0.00000,0.00000,0.00000,0.00000,0.00000,0.00000,0.00000,0.00000,0.00000,0.00000,0.89955,0.81242,0.83748,-0.76183,-1.37285,2.06880,0.02209,0.04300,0.03611,17.25559,-17.43071,-18.89139,0.0000,,,,0.0416,,,,,,"[0.000, 0.000, 0.000, 0.000, 0.000, 0.000]",0x000000,5.5450,0,0,0.000000,0.000000,0.000000,0.0000,NO
111,5.5950,5.5950,0.0500,0.050,APPROACHING,0,898.44,810.27,835.67,93.12,23.97,-4.95,0.89844,0.81027,0.83567,1.62533,0.41832,-0.08640,-0.02209,-0.04300,-0.03611,-17.25559,17.43071,18.89139,0.00000,0.00000,0.00000,0.00000,0.00000,0.00000,0.00000,0.00000,0.00000,0.00000,0.00000,0.00000,0.89844,0.81027,0.83567,-1.62533,-0.41832,0.08640,0.02209,0.04300,0.03611,17.25559,-17.43071,-18.89139,0.0000,,,,0.0416,,,,,,"[0.000, 0.000, 0.000, 0.000, 0.000, 0.000]",0x000000,5.5950,0,0,0.000000,0.000000,0.000000,0.0000,NO
112,5.6450,5.6450,0.0500,0.050,APPROACHING,0,897.34,808.12,833.87,44.38,-10.88,58.36,0.89734,0.80812,0.83387,0.77464,-0.18997,1.01850,-0.02209,-0.04300,-0.03611,-17.25559,17.43071,18.89139,0.00000,0.00000,0.00000,0.00000,0.00000,0.00000,0.00000,0.00000,0.00000,0.00000,0.00000,0.00000,0.89734,0.80812,0.83387,-0.77464,0.18997,-1.01850,0.02209,0.04300,0.03611,17.25559,-17.43071,-18.89139,0.0000,,,,0.0416,,,,,,"[0.000, 0.000, 0.000, 0.000, 0.000, 0.000]",0x000000,5.6450,0,0,0.000000,0.000000,0.000000,0.0000,NO
113,5.6950,5.6950,0.0500,0.050,APPROACHING,0,896.23,805.97,832.06,-6.16,20.99,122.90,0.89623,0.80597,0.83206,-0.10743,0.36639,2.14504,-0.02209,-0.04300,-0.03611,-17.25559,17.43071,18.89139,0.00000,0.00000,0.00000,0.00000,0.00000,0.00000,0.00000,0.00000,0.00000,0.00000,0.00000,0.00000,0.89623,0.80597,0.83206,0.10743,-0.36639,-2.14504,0.02209,0.04300,0.03611,17.25559,-17.43071,-18.89139,0.0000,,,,0.0415,,,,,,"[0.000, 0.000, 0.000, 0.000, 0.000, 0.000]",0x000000,5.6950,0,0,0.000000,0.000000,0.000000,0.0000,NO
114,5.7450,5.7450,0.0500,0.050,APPROACHING,0,895.13,803.82,830.26,25.58,78.04,-139.95,0.89513,0.80382,0.83026,0.44645,1.36201,-2.44265,-0.02209,-0.04300,-0.03611,-17.25559,17.43071,18.89139,0.00000,0.00000,0.00000,0.00000,0.00000,0.00000,0.00000,0.00000,0.00000,0.00000,0.00000,0.00000,0.89513,0.80382,0.83026,-0.44645,-1.36201,2.44265,0.02209,0.04300,0.03611,17.25559,-17.43071,-18.89139,0.0000,,,,0.0418,,,,,,"[0.000, 0.000, 0.000, 0.000, 0.000, 0.000]",0x000000,5.7450,0,0,0.000000,0.000000,0.000000,0.0000,NO
