Time,Current_X,Current_Y,Current_Z,Current_Roll,Current_Pitch,Current_Yaw,Current_VX,Current_VY,Current_VZ,Current_WX,Current_WY,Current_WZ,Target_X,Target_Y,Target_Z,Target_Roll,Target_Pitch,Target_Yaw,Error_X,Error_Y,Error_Z,Error_Roll,Error_Pitch,Error_Yaw,Command_Vector,Thruster_1_Cmd,Thruster_1_Val,Thruster_2_Cmd,Thruster_2_Val,Thruster_3_Cmd,Thruster_3_Val,Thruster_4_Cmd,Thruster_4_Val,Thruster_5_Cmd,Thruster_5_Val,Thruster_6_Cmd,Thruster_6_Val
0.0050,1.00000,1.00000,1.00000,0.00000,0.00000,1.57080,0.00000,0.00000,0.00000,0.00000,0.00000,0.00000,0.00000,0.00000,0.00000,0.00000,0.00000,1.57080,-1.00000,-1.00000,-1.00000,0.00000,0.00000,0.00000,"[0.000, 0.000, 0.000, 0.000, 0.000, 0.000]",0.000,0.000,0.000,0.000,0.000,0.000,0.000,0.000,0.000,0.000,0.000,0.000
0.0100,1.00000,1.00000,1.00000,0.00000,0.00000,1.57080,0.00000,0.00000,0.00000,0.00000,0.00000,0.00000,0.00000,0.00000,0.00000,0.00000,0.00000,1.57080,-1.00000,-1.00000,-1.00000,0.00000,0.00000,0.00000,"[0.000, 0.000, 0.000, 0.000, 0.000, 0.000]",0.000,0.000,0.000,0.000,0.000,0.000,0.000,0.000,0.000,0.000,0.000,0.000
0.0150,1.00000,1.00000,1.00000,0.00000,0.00000,1.57080,0.00000,0.00000,0.00000,0.00000,0.00000,0.00000,0.00000,0.00000,0.00000,0.00000,0.00000,1.57080,-1.00000,-1.00000,-1.00000,0.00000,0.00000,0.00000,"[0.000, 0.000, 0.000, 0.000, 0.000, 0.000]",0.000,0.000,0.000,0.000,0.000,0.000,0.000,0.000,0.000,0.000,0.000,0.000
0.0200,1.00000,1.00000,1.00000,0.00000,0.00000,1.57080,0.00000,0.00000,0.00000,0.00000,0.00000,0.00000,0.00000,0.00000,0.00000,0.00000,0.00000,1.57080,-1.00000,-1.00000,-1.00000,0.00000,0.00000,0.00000,"[0.000, 0.000, 0.000, 0.000, 0.000, 0.000]",0.000,0.000,0.000,0.000,0.000,0.000,0.000,0.000,0.000,0.000,0.000,0.000
0.0250,1.00000,1.00000,1.00000,0.00000,0.00000,1.57080,0.00000,0.00000,0.00000,0.00000,0.00000,0.00000,0.00000,0.00000,0.00000,0.00000,0.00000,1.57080,-1.00000,-1.00000,-1.00000,0.00000,0.00000,0.00000,"[0.000, 0.000, 0.000, 0.000, 0.000, 0.000]",0.000,0.000,0.000,0.000,0.000,0.000,0.000,0.000,0.000,0.000,0.000,0.000
0.0300,1.00000,1.00000,1.00000,0.00000,0.00000,1.57080,0.00000,0.00000,0.00000,0.00000,0.00000,0.00000,0.00000,0.00000,0.00000,0.00000,0.00000,1.57080,-1.00000,-1.00000,-1.00000,0.00000,0.00000,0.00000,"[0.000, 0.000, 0.000, 0.000, 0.000, 0.000]",0.000,0.000,0.000,0.000,0.000,0.000,0.000,0.000,0.000,0.000,0.000,0.000
0.0350,1.00000,1.00000,1.00000,0.00000,0.00000,1.57080,0.00000,0.00000,0.00000,0.00000,0.00000,0.00000,0.00000,0.00000,0.00000,0.00000,0.00000,1.57080,-1.00000,-1.00000,-1.00000,0.00000,0.00000,0.00000,"[0.000, 0.000, 0.000, 0.000, 0.000, 0.000]",0.000,0.000,0.000,0.000,0.000,0.000,0.000,0.000,0.000,0.000,0.000,0.000
0.0400,1.00000,1.00000,1.00000,0.00000,0.00000,1.57080,0.00000,0.00000,0.00000,0.00000,0.00000,0.00000,0.00000,0.00000,0.00000,0.00000,0.00000,1.57080,-1.00000,-1.00000,-1.00000,0.00000,0.00000,0.00000,"[0.000, 0.000, 0.000, 0.000, 0.000, 0.000]",0.000,0.000,0.000,0.000,0.000,0.000,0.000,0.000,0.000,0.000,0.000,0.000
0.0450,1.00000,1.00000,1.00000,0.00000,0.00000,1.57080,0.00000,0.00000,0.00000,0.00000,0.00000,0.00000,0.00000,0.00000,0.00000,0.00000,0.00000,1.57080,-1.00000,-1.00000,-1.00000,0.00000,0.00000,0.00000,"[0.000, 0.000, 0.000, 0.000, 0.000, 0.000]",0.000,0.000,0.000,0.000,0.000,0.000,0.000,0.000,0.000,0.000,0.000,0.000
0.0500,1.00000,1.00000,1.00000,-0.00005,0.00005,1.57107,-0.00025,-0.00025,-0.00025,-0.01932,0.01932,0.10942,0.00000,0.00000,0.00000,0.00000,0.00000,0.00000,-1.00000,-1.00000,-1.00000,0.00005,-0.00005,-1.57107,"[1.000, 0.000, 0.000, 1.000, 1.000, 0.000]",1.000,1.000,0.000,0.000,0.000,0.000,1.000,1.000,1.000,1.000,0.000,0.000
0.0550,1.00000,1.00000,1.00000,-0.00019,0.00019,1.57189,-0.00050,-0.00050,-0.00050,-0.03863,0.03863,0.21883,0.00000,0.00000,0.00000,0.00000,0.00000,0.00000,-1.00000,-1.00000,-1.00000,0.00019,-0.00019,-1.57189,"[1.000, 0.000, 0.000, 1.000, 1.000, 0.000]",1.000,1.000,0.000,0.000,0.000,0.000,1.000,1.000,1.000,1.000,0.000,0.000
0.0600,0.99999,0.99999,0.99999,-0.00043,0.00044,1.57326,-0.00075,-0.00075,-0.00075,-0.05795,0.05795,0.32825,0.00000,0.00000,0.00000,0.00000,0.00000,0.00000,-0.99999,-0.99999,-0.99999,0.00043,-0.00044,-1.57326,"[1.000, 0.000, 0.000, 1.000, 1.000, 0.000]",1.000,1.000,0.000,0.000,0.000,0.000,1.000,1.000,1.000,1.000,0.000,0.000
0.0650,0.99999,0.99999,0.99999,-0.00077,0.00077,1.57517,-0.00100,-0.00100,-0.00100,-0.07727,0.07727,0.43767,0.00000,0.00000,0.00000,0.00000,0.00000,0.00000,-0.99999,-0.99999,-0.99999,0.00077,-0.00077,-1.57517,"[1.000, 0.000, 0.000, 1.000, 1.000, 0.000]",1.000,1.000,0.000,0.000,0.000,0.000,1.000,1.000,1.000,1.000,0.000,0.000
0.0700,0.99998,0.99998,0.99998,-0.00120,0.00121,1.57763,-0.00125,-0.00125,-0.00125,-0.09659,0.09659,0.54708,0.00000,0.00000,0.00000,0.00000,0.00000,0.00000,-0.99998,-0.99998,-0.99998,0.00120,-0.00121,-1.57763,"[1.000, 0.000, 0.000, 1.000, 1.000, 0.000]",1.000,1.000,0.000,0.000,0.000,0.000,1.000,1.000,1.000,1.000,0.000,0.000
0.0750,0.99998,0.99998,0.99998,-0.00173,0.00175,1.58064,-0.00150,-0.00150,-0.00150,-0.11590,0.11590,0.65650,0.00000,0.00000,0.00000,0.00000,0.00000,0.00000,-0.99998,-0.99998,-0.99998,0.00173,-0.00175,-1.58064,"[1.000, 0.000, 0.000, 1.000, 1.000, 0.000]",1.000,1.000,0.000,0.000,0.000,0.000,1.000,1.000,1.000,1.000,0.000,0.000
0.0800,0.99997,0.99997,0.99997,-0.00235,0.00238,1.58420,-0.00174,-0.00176,-0.00175,-0.13522,0.13522,0.76592,0.00000,0.00000,0.00000,0.00000,0.00000,0.00000,-0.99997,-0.99997,-0.99997,0.00235,-0.00238,-1.58420,"[1.000, 0.000, 0.000, 1.000, 1.000, 0.000]",1.000,1.000,0.000,0.000,0.000,0.000,1.000,1.000,1.000,1.000,0.000,0.000
0.0850,0.99996,0.99996,0.99996,-0.00306,0.00312,1.58830,-0.00199,-0.00201,-0.00200,-0.15454,0.15454,0.87533,0.00000,0.00000,0.00000,0.00000,0.00000,0.00000,-0.99996,-0.99996,-0.99996,0.00306,-0.00312,-1.58830,"[1.000, 0.000, 0.000, 1.000, 1.000, 0.000]",1.000,1.000,0.000,0.000,0.000,0.000,1.000,1.000,1.000,1.000,0.000,0.000
0.0900,0.99995,0.99995,0.99995,-0.00387,0.00395,1.59295,-0.00223,-0.00227,-0.00225,-0.17386,0.17386,0.98475,0.00000,0.00000,0.00000,0.00000,0.00000,0.00000,-0.99995,-0.99995,-0.99995,0.00387,-0.00395,-1.59295,"[1.000, 0.000, 0.000, 1.000, 1.000, 0.000]",1.000,1.000,0.000,0.000,0.000,0.000,1.000,1.000,1.000,1.000,0.000,0.000
0.0950,0.99994,0.99994,0.99994,-0.00476,0.00489,1.59814,-0.00248,-0.00252,-0.00250,-0.19317,0.19317,1.09417,0.00000,0.00000,0.00000,0.00000,0.00000,0.00000,-0.99994,-0.99994,-0.99994,0.00476,-0.00489,-1.59814,"[1.000, 0.000, 0.000, 1.000, 1.000, 0.000]",1.000,1.000,0.000,0.000,0.000,0.000,1.000,1.000,1.000,1.000,0.000,0.000
0.1000,0.99993,0.99992,0.99993,-0.00570,0.00589,1.60360,-0.00248,-0.00252,-0.00250,-0.19317,0.19317,1.09417,0.00000,0.00000,0.00000,0.00000,0.00000,0.00000,-0.99993,-0.99992,-0.99993,0.00570,-0.00589,-1.60360,"[0.000, 0.000, 0.000, 0.000, 0.000, 0.000]",0.000,0.000,0.000,0.000,0.000,0.000,0.000,0.000,0.000,0.000,0.000,0.000
0.1050,0.99991,0.99991,0.99991,-0.00663,0.00689,1.60907,-0.00248,-0.00252,-0.00250,-0.19317,0.19317,1.09417,0.00000,0.00000,0.00000,0.00000,0.00000,0.00000,-0.99991,-0.99991,-0.99991,0.00663,-0.00689,-1.60907,"[0.000, 0.000, 0.000, 0.000, 0.000, 0.000]",0.000,0.000,0.000,0.000,0.000,0.000,0.000,0.000,0.000,0.000,0.000,0.000
0.1100,0.99990,0.99990,0.99990,-0.00756,0.00789,1.61453,-0.00248,-0.00252,-0.00250,-0.19317,0.19317,1.09417,0.00000,0.00000,0.00000,0.00000,0.00000,0.00000,-0.99990,-0.99990,-0.99990,0.00756,-0.00789,-1.61453,"[0.000, 0.000, 0.000, 0.000, 0.000, 0.000]",0.000,0.000,0.000,0.000,0.000,0.000,0.000,0.000,0.000,0.000,0.000,0.000
0.1150,0.99989,0.99989,0.99989,-0.00848,0.00890,1.62000,-0.00248,-0.00252,-0.00250,-0.19317,0.19317,1.09417,0.00000,0.00000,0.00000,0.00000,0.00000,0.00000,-0.99989,-0.99989,-0.99989,0.00848,-0.00890,-1.62000,"[0.000, 0.000, 0.000, 0.000, 0.000, 0.000]",0.000,0.000,0.000,0.000,0.000,0.000,0.000,0.000,0.000,0.000,0.000,0.000
0.1200,0.99988,0.99987,0.99988,-0.00939,0.00992,1.62546,-0.00248,-0.00252,-0.00250,-0.19317,0.19317,1.09417,0.00000,0.00000,0.00000,0.00000,0.00000,0.00000,-0.99988,-0.99987,-0.99988,0.00939,-0.00992,-1.62546,"[0.000, 0.000, 0.000, 0.000, 0.000, 0.000]",0.000,0.000,0.000,0.000,0.000,0.000,0.000,0.000,0.000,0.000,0.000,0.000
0.1250,0.99986,0.99986,0.99986,-0.01030,0.01094,1.63092,-0.00248,-0.00252,-0.00250,-0.19317,0.19317,1.09417,0.00000,0.00000,0.00000,0.00000,0.00000,0.00000,-0.99986,-0.99986,-0.99986,0.01030,-0.01094,-1.63092,"[0.000, 0.000, 0.000, 0.000, 0.000, 0.000]",0.000,0.000,0.000,0.000,0.000,0.000,0.000,0.000,0.000,0.000,0.000,0.000
0.1300,0.99985,0.99985,0.99985,-0.01120,0.01196,1.63638,-0.00248,-0.00252,-0.00250,-0.19317,0.19317,1.09417,0.00000,0.00000,0.00000,0.00000,0.00000,0.00000,-0.99985,-0.99985,-0.99985,0.01120,-0.01196,-1.63638,"[0.000, 0.000, 0.000, 0.000, 0.000, 0.000]",0.000,0.000,0.000,0.000,0.000,0.000,0.000,0.000,0.000,0.000,0.000,0.000
0.1350,0.99984,0.99984,0.99984,-0.01210,0.01299,1.64184,-0.00248,-0.00252,-0.00250,-0.19317,0.19317,1.09417,0.00000,0.00000,0.00000,0.00000,0.00000,0.00000,-0.99984,-0.99984,-0.99984,0.01210,-0.01299,-1.64184,"[0.000, 0.000, 0.000, 0.000, 0.000, 0.000]",0.000,0.000,0.000,0.000,0.000,0.000,0.000,0.000,0.000,0.000,0.000,0.000
0.1400,0.99983,0.99982,0.99983,-0.01299,0.01403,1.64730,-0.00248,-0.00252,-0.00250,-0.19317,0.19317,1.09417,0.00000,0.00000,0.00000,0.00000,0.00000,0.00000,-0.99983,-0.99982,-0.99983,0.01299,-0.01403,-1.64730,"[0.000, 0.000, 0.000, 0.000, 0.000, 0.000]",0.000,0.000,0.000,0.000,0.000,0.000,0.000,0.000,0.000,0.000,0.000,0.000
0.1450,0.99981,0.99981,0.99981,-0.01388,0.01507,1.65276,-0.00248,-0.00252,-0.00250,-0.19317,0.19317,1.09417,0.00000,0.00000,0.00000,0.00000,0.00000,0.00000,-0.99981,-0.99981,-0.99981,0.01388,-0.01507,-1.65276,"[0.000, 0.000, 0.000, 0.000, 0.000, 0.000]",0.000,0.000,0.000,0.000,0.000,0.000,0.000,0.000,0.000,0.000,0.000,0.000
0.1500,0.99980,0.99980,0.99980,-0.01489,0.01625,1.65851,-0.00270,-0.00280,-0.00275,-0.24924,0.24781,1.21307,0.00000,0.00000,0.00000,0.00000,0.00000,0.00000,-0.99980,-0.99980,-0.99980,0.01489,-0.01625,-1.65851,"[1.000, 0.000, 0.000, 1.000, 1.000, 0.000]",1.000,1.000,0.000,0.000,0.000,0.000,1.000,1.000,1.000,1.000,0.000,0.000
0.1550,0.99979,0.99978,0.99979,-0.01617,0.01772,1.66485,-0.00292,-0.00307,-0.00300,-0.30530,0.30244,1.33198,0.00000,0.00000,0.00000,0.00000,0.00000,0.00000,-0.99979,-0.99978,-0.99979,0.01617,-0.01772,-1.66485,"[1.000, 0.000, 0.000, 1.000, 1.000, 0.000]",1.000,1.000,0.000,0.000,0.000,0.000,1.000,1.000,1.000,1.000,0.000,0.000
0.1600,0.99977,0.99977,0.99977,-0.01771,0.01949,1.67178,-0.00315,-0.00335,-0.00325,-0.36136,0.35707,1.45088,0.00000,0.00000,0.00000,0.00000,0.00000,0.00000,-0.99977,-0.99977,-0.99977,0.01771,-0.01949,-1.67178,"[1.000, 0.000, 0.000, 1.000, 1.000, 0.000]",1.000,1.000,0.000,0.000,0.000,0.000,1.000,1.000,1.000,1.000,0.000,0.000
0.1650,0.99976,0.99975,0.99975,-0.01950,0.02155,1.67930,-0.00336,-0.00363,-0.00350,-0.41742,0.41170,1.56979,0.00000,0.00000,0.00000,0.00000,0.00000,0.00000,-0.99976,-0.99975,-0.99975,0.01950,-0.02155,-1.67930,"[1.000, 0.000, 0.000, 1.000, 1.000, 0.000]",1.000,1.000,0.000,0.000,0.000,0.000,1.000,1.000,1.000,1.000,0.000,0.000
0.1700,0.99974,0.99973,0.99973,-0.02155,0.02392,1.68740,-0.00358,-0.00391,-0.00375,-0.47349,0.46633,1.68869,0.00000,0.00000,0.00000,0.00000,0.00000,0.00000,-0.99974,-0.99973,-0.99973,0.02155,-0.02392,-1.68740,"[1.000, 0.000, 0.000, 1.000, 1.000, 0.000]",1.000,1.000,0.000,0.000,0.000,0.000,1.000,1.000,1.000,1.000,0.000,0.000
0.1750,0.99972,0.99971,0.99972,-0.02384,0.02658,1.69608,-0.00379,-0.00419,-0.00400,-0.52955,0.52096,1.80760,0.00000,0.00000,0.00000,0.00000,0.00000,0.00000,-0.99972,-0.99971,-0.99972,0.02384,-0.02658,-1.69608,"[1.000, 0.000, 0.000, 1.000, 1.000, 0.000]",1.000,1.000,0.000,0.000,0.000,0.000,1.000,1.000,1.000,1.000,0.000,0.000
0.1800,0.99970,0.99969,0.99969,-0.02636,0.02956,1.70535,-0.00400,-0.00447,-0.00425,-0.58561,0.57559,1.92650,0.00000,0.00000,0.00000,0.00000,0.00000,0.00000,-0.99970,-0.99969,-0.99969,0.02636,-0.02956,-1.70535,"[1.000, 0.000, 0.000, 1.000, 1.000, 0.000]",1.000,1.000,0.000,0.000,0.000,0.000,1.000,1.000,1.000,1.000,0.000,0.000
0.1850,0.99968,0.99967,0.99967,-0.02912,0.03284,1.71520,-0.00421,-0.00476,-0.00450,-0.64167,0.63022,2.04541,0.00000,0.00000,0.00000,0.00000,0.00000,0.00000,-0.99968,-0.99967,-0.99967,0.02912,-0.03284,-1.71520,"[1.000, 0.000, 0.000, 1.000, 1.000, 0.000]",1.000,1.000,0.000,0.000,0.000,0.000,1.000,1.000,1.000,1.000,0.000,0.000
0.1900,0.99966,0.99964,0.99965,-0.03211,0.03645,1.72562,-0.00441,-0.00505,-0.00474,-0.69774,0.68485,2.16432,0.00000,0.00000,0.00000,0.00000,0.00000,0.00000,-0.99966,-0.99964,-0.99965,0.03211,-0.03645,-1.72562,"[1.000, 0.000, 0.000, 1.000, 1.000, 0.000]",1.000,1.000,0.000,0.000,0.000,0.000,1.000,1.000,1.000,1.000,0.000,0.000
0.1950,0.99964,0.99962,0.99963,-0.03532,0.04039,1.73662,-0.00461,-0.00535,-0.00499,-0.75380,0.73948,2.28322,0.00000,0.00000,0.00000,0.00000,0.00000,0.00000,-0.99964,-0.99962,-0.99963,0.03532,-0.04039,-1.73662,"[1.000, 0.000, 0.000, 1.000, 1.000, 0.000]",1.000,1.000,0.000,0.000,0.000,0.000,1.000,1.000,1.000,1.000,0.000,0.000
0.2000,0.99961,0.99959,0.99960,-0.03889,0.04481,1.74819,-0.00481,-0.00564,-0.00524,-0.87224,0.85884,2.40213,0.00000,0.00000,0.00000,0.00000,0.00000,0.00000,-0.99961,-0.99959,-0.99960,0.03889,-0.04481,-1.74819,"[1.000, 0.000, 0.000, 1.000, 1.000, 0.000]",1.000,1.000,0.000,0.000,0.000,0.000,1.000,1.000,1.000,1.000,0.000,0.000
0.2050,0.99959,0.99956,0.99957,-0.04298,0.04991,1.76031,-0.00500,-0.00594,-0.00549,-0.99068,0.97820,2.52104,0.00000,0.00000,0.00000,0.00000,0.00000,0.00000,-0.99959,-0.99956,-0.99957,0.04298,-0.04991,-1.76031,"[1.000, 0.000, 0.000, 1.000, 1.000, 0.000]",1.000,1.000,0.000,0.000,0.000,0.000,1.000,1.000,1.000,1.000,0.000,0.000
0.2100,0.99956,0.99953,0.99954,-0.04756,0.05567,1.77299,-0.00518,-0.00624,-0.00574,-1.10912,1.09756,2.63995,0.00000,0.00000,0.00000,0.00000,0.00000,0.00000,-0.99956,-0.99953,-0.99954,0.04756,-0.05567,-1.77299,"[1.000, 0.000, 0.000, 1.000, 1.000, 0.000]",1.000,1.000,0.000,0.000,0.000,0.000,1.000,1.000,1.000,1.000,0.000,0.000
0.2150,0.99954,0.99950,0.99952,-0.05262,0.06213,1.78620,-0.00536,-0.00655,-0.00598,-1.22756,1.21692,2.75887,0.00000,0.00000,0.00000,0.00000,0.00000,0.00000,-0.99954,-0.99950,-0.99952,0.05262,-0.06213,-1.78620,"[1.000, 0.000, 0.000, 1.000, 1.000, 0.000]",1.000,1.000,0.000,0.000,0.000,0.000,1.000,1.000,1.000,1.000,0.000,0.000
0.2200,0.99951,0.99946,0.99948,-0.05815,0.06928,1.79995,-0.00554,-0.00686,-0.00623,-1.34600,1.33628,2.87778,0.00000,0.00000,0.00000,0.00000,0.00000,0.00000,-0.99951,-0.99946,-0.99948,0.05815,-0.06928,-1.79995,"[1.000, 0.000, 0.000, 1.000, 1.000, 0.000]",1.000,1.000,0.000,0.000,0.000,0.000,1.000,1.000,1.000,1.000,0.000,0.000
0.2250,0.99948,0.99943,0.99945,-0.06414,0.07714,1.81422,-0.00570,-0.00718,-0.00648,-1.46444,1.45564,2.99669,0.00000,0.00000,0.00000,0.00000,0.00000,0.00000,-0.99948,-0.99943,-0.99945,0.06414,-0.07714,-1.81422,"[1.000, 0.000, 0.000, 1.000, 1.000, 0.000]",1.000,1.000,0.000,0.000,0.000,0.000,1.000,1.000,1.000,1.000,0.000,0.000
0.2300,0.99945,0.99939,0.99942,-0.07055,0.08573,1.82900,-0.00587,-0.00749,-0.00672,-1.58289,1.57500,3.11560,0.00000,0.00000,0.00000,0.00000,0.00000,0.00000,-0.99945,-0.99939,-0.99942,0.07055,-0.08573,-1.82900,"[1.000, 0.000, 0.000, 1.000, 1.000, 0.000]",1.000,1.000,0.000,0.000,0.000,0.000,1.000,1.000,1.000,1.000,0.000,0.000
0.2350,0.99942,0.99935,0.99939,-0.07738,0.09506,1.84429,-0.00602,-0.00782,-0.00697,-1.70133,1.69436,3.23451,0.00000,0.00000,0.00000,0.00000,0.00000,0.00000,-0.99942,-0.99935,-0.99939,0.07738,-0.09506,-1.84429,"[1.000, 0.000, 0.000, 1.000, 1.000, 0.000]",1.000,1.000,0.000,0.000,0.000,0.000,1.000,1.000,1.000,1.000,0.000,0.000
0.2400,0.99939,0.99931,0.99935,-0.08461,0.10513,1.86008,-0.00617,-0.00814,-0.00721,-1.81977,1.81372,3.35342,0.00000,0.00000,0.00000,0.00000,0.00000,0.00000,-0.99939,-0.99931,-0.99935,0.08461,-0.10513,-1.86008,"[1.000, 0.000, 0.000, 1.000, 1.000, 0.000]",1.000,1.000,0.000,0.000,0.000,0.000,1.000,1.000,1.000,1.000,0.000,0.000
0.2450,0.99936,0.99927,0.99931,-0.09221,0.11597,1.87635,-0.00631,-0.00847,-0.00745,-1.93821,1.93308,3.47233,0.00000,0.00000,0.00000,0.00000,0.00000,0.00000,-0.99936,-0.99927,-0.99931,0.09221,-0.11597,-1.87635,"[1.000, 0.000, 0.000, 1.000, 1.000, 0.000]",1.000,1.000,0.000,0.000,0.000,0.000,1.000,1.000,1.000,1.000,0.000,0.000
0.2500,0.99933,0.99923,0.99928,-0.10016,0.12758,1.89309,-0.00644,-0.00881,-0.00769,-2.05662,2.05238,3.59124,0.00000,0.00000,0.00000,0.00000,0.00000,0.00000,-0.99933,-0.99923,-0.99928,0.10016,-0.12758,-1.89309,"[1.000, 0.000, 0.000, 1.000, 1.000, 0.000]",1.000,1.000,0.000,0.000,0.000,0.000,1.000,1.000,1.000,1.000,0.000,0.000
0.2550,0.99930,0.99918,0.99924,-0.10845,0.13998,1.91030,-0.00656,-0.00915,-0.00793,-2.17503,2.17169,3.71015,0.00000,0.00000,0.00000,0.00000,0.00000,0.00000,-0.99930,-0.99918,-0.99924,0.10845,-0.13998,-1.91030,"[1.000, 0.000, 0.000, 1.000, 1.000, 0.000]",1.000,1.000,0.000,0.000,0.000,0.000,1.000,1.000,1.000,1.000,0.000,0.000
0.2600,0.99926,0.99914,0.99920,-0.11704,0.15319,1.92796,-0.00667,-0.00949,-0.00817,-2.29343,2.29100,3.82906,0.00000,0.00000,0.00000,0.00000,0.00000,0.00000,-0.99926,-0.99914,-0.99920,0.11704,-0.15319,-1.92796,"[1.000, 0.000, 0.000, 1.000, 1.000, 0.000]",1.000,1.000,0.000,0.000,0.000,0.000,1.000,1.000,1.000,1.000,0.000,0.000
0.2650,0.99923,0.99909,0.99916,-0.12592,0.16721,1.94607,-0.00678,-0.00984,-0.00841,-2.41184,2.41031,3.94797,0.00000,0.00000,0.00000,0.00000,0.00000,0.00000,-0.99923,-0.99909,-0.99916,0.12592,-0.16721,-1.94607,"[1.000, 0.000, 0.000, 1.000, 1.000, 0.000]",1.000,1.000,0.000,0.000,0.000,0.000,1.000,1.000,1.000,1.000,0.000,0.000
0.2700,0.99919,0.99904,0.99911,-0.13505,0.18206,1.96461,-0.00687,-0.01019,-0.00864,-2.53025,2.52962,4.06688,0.00000,0.00000,0.00000,0.00000,0.00000,0.00000,-0.99919,-0.99904,-0.99911,0.13505,-0.18206,-1.96461,"[1.000, 0.000, 0.000, 1.000, 1.000, 0.000]",1.000,1.000,0.000,0.000,0.000,0.000,1.000,1.000,1.000,1.000,0.000,0.000
0.2750,0.99916,0.99899,0.99907,-0.14442,0.19776,1.98358,-0.00696,-0.01055,-0.00887,-2.64866,2.64893,4.18579,0.00000,0.00000,0.00000,0.00000,0.00000,0.00000,-0.99916,-0.99899,-0.99907,0.14442,-0.19776,-1.98358,"[1.000, 0.000, 0.000, 1.000, 1.000, 0.000]",1.000,1.000,0.000,0.000,0.000,0.000,1.000,1.000,1.000,1.000,0.000,0.000
0.2800,0.99913,0.99893,0.99902,-0.15399,0.21431,2.00297,-0.00703,-0.01091,-0.00910,-2.76707,2.76824,4.30470,0.00000,0.00000,0.00000,0.00000,0.00000,0.00000,-0.99913,-0.99893,-0.99902,0.15399,-0.21431,-2.00297,"[1.000, 0.000, 0.000, 1.000, 1.000, 0.000]",1.000,1.000,0.000,0.000,0.000,0.000,1.000,1.000,1.000,1.000,0.000,0.000
0.2850,0.99909,0.99888,0.99898,-0.16374,0.23172,2.02276,-0.00709,-0.01127,-0.00933,-2.88548,2.88755,4.42361,0.00000,0.00000,0.00000,0.00000,0.00000,0.00000,-0.99909,-0.99888,-0.99898,0.16374,-0.23172,-2.02276,"[1.000, 0.000, 0.000, 1.000, 1.000, 0.000]",1.000,1.000,0.000,0.000,0.000,0.000,1.000,1.000,1.000,1.000,0.000,0.000
0.2900,0.99905,0.99882,0.99893,-0.17365,0.25001,2.04297,-0.00714,-0.01164,-0.00955,-3.00389,3.00686,4.54252,0.00000,0.00000,0.00000,0.00000,0.00000,0.00000,-0.99905,-0.99882,-0.99893,0.17365,-0.25001,-2.04297,"[1.000, 0.000, 0.000, 1.000, 1.000, 0.000]",1.000,1.000,0.000,0.000,0.000,0.000,1.000,1.000,1.000,1.000,0.000,0.000
0.2950,0.99902,0.99876,0.99888,-0.18367,0.26919,2.06358,-0.00718,-0.01201,-0.00977,-3.12230,3.12616,4.66143,0.00000,0.00000,0.00000,0.00000,0.00000,0.00000,-0.99902,-0.99876,-0.99888,0.18367,-0.26919,-2.06358,"[1.000, 0.000, 0.000, 1.000, 1.000, 0.000]",1.000,1.000,0.000,0.000,0.000,0.000,1.000,1.000,1.000,1.000,0.000,0.000
0.3000,0.99898,0.99870,0.99883,-0.19379,0.28926,2.08459,-0.00721,-0.01239,-0.00998,-3.24060,3.24550,4.78016,0.00000,0.00000,0.00000,0.00000,0.00000,0.00000,-0.99898,-0.99870,-0.99883,0.19379,-0.28926,-2.08459,"[1.000, 0.000, 0.000, 1.000, 1.000, 0.000]",1.000,1.000,0.000,0.000,0.000,0.000,1.000,1.000,1.000,1.000,0.000,0.000
0.3050,0.99895,0.99864,0.99878,-0.20397,0.31024,2.10600,-0.00722,-0.01276,-0.01019,-3.35890,3.36484,4.89888,0.00000,0.00000,0.00000,0.00000,0.00000,0.00000,-0.99895,-0.99864,-0.99878,0.20397,-0.31024,-2.10600,"[1.000, 0.000, 0.000, 1.000, 1.000, 0.000]",1.000,1.000,0.000,0.000,0.000,0.000,1.000,1.000,1.000,1.000,0.000,0.000
0.3100,0.99891,0.99857,0.99873,-0.21418,0.33214,2.12781,-0.00722,-0.01315,-0.01040,-3.47720,3.48418,5.01761,0.00000,0.00000,0.00000,0.00000,0.00000,0.00000,-0.99891,-0.99857,-0.99873,0.21418,-0.33214,-2.12781,"[1.000, 0.000, 0.000, 1.000, 1.000, 0.000]",1.000,1.000,0.000,0.000,0.000,0.000,1.000,1.000,1.000,1.000,0.000,0.000
0.3150,0.99887,0.99851,0.99868,-0.22437,0.35496,2.15003,-0.00720,-0.01353,-0.01060,-3.59551,3.60352,5.13634,0.00000,0.00000,0.00000,0.00000,0.00000,0.00000,-0.99887,-0.99851,-0.99868,0.22437,-0.35496,-2.15003,"[1.000, 0.000, 0.000, 1.000, 1.000, 0.000]",1.000,1.000,0.000,0.000,0.000,0.000,1.000,1.000,1.000,1.000,0.000,0.000
0.3200,0.99884,0.99844,0.99862,-0.23453,0.37870,2.17267,-0.00718,-0.01392,-0.01079,-3.71381,3.72286,5.25506,0.00000,0.00000,0.00000,0.00000,0.00000,0.00000,-0.99884,-0.99844,-0.99862,0.23453,-0.37870,-2.17267,"[1.000, 0.000, 0.000, 1.000, 1.000, 0.000]",1.000,1.000,0.000,0.000,0.000,0.000,1.000,1.000,1.000,1.000,0.000,0.000
0.3250,0.99880,0.99837,0.99857,-0.24460,0.40338,2.19573,-0.00713,-0.01430,-0.01098,-3.83211,3.84219,5.37379,0.00000,0.00000,0.00000,0.00000,0.00000,0.00000,-0.99880,-0.99837,-0.99857,0.24460,-0.40338,-2.19573,"[1.000, 0.000, 0.000, 1.000, 1.000, 0.000]",1.000,1.000,0.000,0.000,0.000,0.000,1.000,1.000,1.000,1.000,0.000,0.000
0.3300,0.99877,0.99829,0.99852,-0.25456,0.42899,2.21925,-0.00708,-0.01469,-0.01116,-3.95041,3.96153,5.49251,0.00000,0.00000,0.00000,0.00000,0.00000,0.00000,-0.99877,-0.99829,-0.99852,0.25456,-0.42899,-2.21925,"[1.000, 0.000, 0.000, 1.000, 1.000, 0.000]",1.000,1.000,0.000,0.000,0.000,0.000,1.000,1.000,1.000,1.000,0.000,0.000
0.3350,0.99873,0.99822,0.99846,-0.26434,0.45555,2.24322,-0.00701,-0.01508,-0.01133,-4.06872,4.08087,5.61124,0.00000,0.00000,0.00000,0.00000,0.00000,0.00000,-0.99873,-0.99822,-0.99846,0.26434,-0.45555,-2.24322,"[1.000, 0.000, 0.000, 1.000, 1.000, 0.000]",1.000,1.000,0.000,0.000,0.000,0.000,1.000,1.000,1.000,1.000,0.000,0.000
0.3400,0.99870,0.99814,0.99840,-0.27391,0.48305,2.26770,-0.00692,-0.01547,-0.01150,-4.18702,4.20021,5.72996,0.00000,0.00000,0.00000,0.00000,0.00000,0.00000,-0.99870,-0.99814,-0.99840,0.27391,-0.48305,-2.26770,"[1.000, 0.000, 0.000, 1.000, 1.000, 0.000]",1.000,1.000,0.000,0.000,0.000,0.000,1.000,1.000,1.000,1.000,0.000,0.000
0.3450,0.99866,0.99806,0.99834,-0.28322,0.51149,2.29270,-0.00682,-0.01587,-0.01166,-4.30532,4.31955,5.84869,0.00000,0.00000,0.00000,0.00000,0.00000,0.00000,-0.99866,-0.99806,-0.99834,0.28322,-0.51149,-2.29270,"[1.000, 0.000, 0.000, 1.000, 1.000, 0.000]",1.000,1.000,0.000,0.000,0.000,0.000,1.000,1.000,1.000,1.000,0.000,0.000
0.3500,0.99863,0.99799,0.99828,-0.29220,0.54086,2.31827,-0.00699,-0.01593,-0.01205,-4.42336,4.43850,5.96760,0.00000,0.00000,0.00000,0.00000,0.00000,0.00000,-0.99863,-0.99799,-0.99828,0.29220,-0.54086,-2.31827,"[0.000, 1.000, 0.000, 1.000, 1.000, 0.000]",0.000,0.000,1.000,1.000,0.000,0.000,1.000,1.000,1.000,1.000,0.000,0.000
0.3550,0.99859,0.99791,0.99822,-0.30079,0.57118,2.34446,-0.00715,-0.01600,-0.01244,-4.54140,4.55745,6.08650,0.00000,0.00000,0.00000,0.00000,0.00000,0.00000,-0.99859,-0.99791,-0.99822,0.30079,-0.57118,-2.34446,"[0.000, 1.000, 0.000, 1.000, 1.000, 0.000]",0.000,0.000,1.000,1.000,0.000,0.000,1.000,1.000,1.000,1.000,0.000,0.000
0.3600,0.99856,0.99783,0.99816,-0.30891,0.60242,2.37134,-0.00730,-0.01609,-0.01284,-4.65944,4.67640,6.20541,0.00000,0.00000,0.00000,0.00000,0.00000,0.00000,-0.99856,-0.99783,-0.99816,0.30891,-0.60242,-2.37134,"[0.000, 1.000, 0.000, 1.000, 1.000, 0.000]",0.000,0.000,1.000,1.000,0.000,0.000,1.000,1.000,1.000,1.000,0.000,0.000
0.3650,0.99852,0.99774,0.99810,-0.31647,0.63459,2.39898,-0.00743,-0.01618,-0.01324,-4.77748,4.79535,6.32432,0.00000,0.00000,0.00000,0.00000,0.00000,0.00000,-0.99852,-0.99774,-0.99810,0.31647,-0.63459,-2.39898,"[0.000, 1.000, 0.000, 1.000, 1.000, 0.000]",0.000,0.000,1.000,1.000,0.000,0.000,1.000,1.000,1.000,1.000,0.000,0.000
0.3700,0.99848,0.99766,0.99803,-0.32339,0.66767,2.42748,-0.00755,-0.01629,-0.01364,-4.89552,4.91430,6.44323,0.00000,0.00000,0.00000,0.00000,0.00000,0.00000,-0.99848,-0.99766,-0.99803,0.32339,-0.66767,-2.42748,"[0.000, 1.000, 0.000, 1.000, 1.000, 0.000]",0.000,0.000,1.000,1.000,0.000,0.000,1.000,1.000,1.000,1.000,0.000,0.000
0.3750,0.99844,0.99758,0.99796,-0.32953,0.70166,2.45694,-0.00765,-0.01641,-0.01405,-5.01356,5.03325,6.56214,0.00000,0.00000,0.00000,0.00000,0.00000,0.00000,-0.99844,-0.99758,-0.99796,0.32953,-0.70166,-2.45694,"[0.000, 1.000, 0.000, 1.000, 1.000, 0.000]",0.000,0.000,1.000,1.000,0.000,0.000,1.000,1.000,1.000,1.000,0.000,0.000
0.3800,0.99841,0.99750,0.99789,-0.33476,0.73653,2.48750,-0.00774,-0.01654,-0.01445,-5.13160,5.15221,6.68104,0.00000,0.00000,0.00000,0.00000,0.00000,0.00000,-0.99841,-0.99750,-0.99789,0.33476,-0.73653,-2.48750,"[0.000, 1.000, 0.000, 1.000, 1.000, 0.000]",0.000,0.000,1.000,1.000,0.000,0.000,1.000,1.000,1.000,1.000,0.000,0.000
0.3850,0.99837,0.99742,0.99781,-0.33892,0.77226,2.51933,-0.00781,-0.01668,-0.01486,-5.24964,5.27116,6.79995,0.00000,0.00000,0.00000,0.00000,0.00000,0.00000,-0.99837,-0.99742,-0.99781,0.33892,-0.77226,-2.51933,"[0.000, 1.000, 0.000, 1.000, 1.000, 0.000]",0.000,0.000,1.000,1.000,0.000,0.000,1.000,1.000,1.000,1.000,0.000,0.000
0.3900,0.99833,0.99733,0.99774,-0.34178,0.80884,2.55264,-0.00786,-0.01683,-0.01526,-5.36768,5.39011,6.91886,0.00000,0.00000,0.00000,0.00000,0.00000,0.00000,-0.99833,-0.99733,-0.99774,0.34178,-0.80884,-2.55264,"[0.000, 1.000, 0.000, 1.000, 1.000, 0.000]",0.000,0.000,1.000,1.000,0.000,0.000,1.000,1.000,1.000,1.000,0.000,0.000
0.3950,0.99829,0.99725,0.99766,-0.34312,0.84622,2.58768,-0.00790,-0.01699,-0.01566,-5.48572,5.50906,7.03777,0.00000,0.00000,0.00000,0.00000,0.00000,0.00000,-0.99829,-0.99725,-0.99766,0.34312,-0.84622,-2.58768,"[0.000, 1.000, 0.000, 1.000, 1.000, 0.000]",0.000,0.000,1.000,1.000,0.000,0.000,1.000,1.000,1.000,1.000,0.000,0.000
0.4000,0.99825,0.99716,0.99758,-0.34259,0.88438,2.62479,-0.00830,-0.01711,-0.01575,-5.60337,5.62772,7.15668,0.00000,0.00000,0.00000,0.00000,0.00000,0.00000,-0.99825,-0.99716,-0.99758,0.34259,-0.88438,-2.62479,"[0.000, 1.000, 0.000, 1.000, 0.000, 1.000]",0.000,0.000,1.000,1.000,0.000,0.000,1.000,1.000,0.000,0.000,1.000,1.000
0.4050,0.99821,0.99708,0.99750,-0.33980,0.92325,2.66437,-0.00870,-0.01726,-0.01584,-5.72101,5.74638,7.27559,0.00000,0.00000,0.00000,0.00000,0.00000,0.00000,-0.99821,-0.99708,-0.99750,0.33980,-0.92325,-2.66437,"[0.000, 1.000, 0.000, 1.000, 0.000, 1.000]",0.000,0.000,1.000,1.000,0.000,0.000,1.000,1.000,0.000,0.000,1.000,1.000
0.4100,0.99816,0.99699,0.99742,-0.33423,0.96278,2.70695,-0.00909,-0.01741,-0.01595,-5.83866,5.86504,7.39449,0.00000,0.00000,0.00000,0.00000,0.00000,0.00000,-0.99816,-0.99699,-0.99742,0.33423,-0.96278,-2.70695,"[0.000, 1.000, 0.000, 1.000, 0.000, 1.000]",0.000,0.000,1.000,1.000,0.000,0.000,1.000,1.000,0.000,0.000,1.000,1.000
0.4150,0.99811,0.99690,0.99734,-0.32521,1.00288,2.75323,-0.00947,-0.01759,-0.01607,-5.95630,5.98370,7.51340,0.00000,0.00000,0.00000,0.00000,0.00000,0.00000,-0.99811,-0.99690,-0.99734,0.32521,-1.00288,-2.75323,"[0.000, 1.000, 0.000, 1.000, 0.000, 1.000]",0.000,0.000,1.000,1.000,0.000,0.000,1.000,1.000,0.000,0.000,1.000,1.000
0.4200,0.99807,0.99681,0.99726,-0.31183,1.04345,2.80412,-0.00984,-0.01778,-0.01619,-6.07395,6.10236,7.63231,0.00000,0.00000,0.00000,0.00000,0.00000,0.00000,-0.99807,-0.99681,-0.99726,0.31183,-1.04345,-2.80412,"[0.000, 1.000, 0.000, 1.000, 0.000, 1.000]",0.000,0.000,1.000,1.000,0.000,0.000,1.000,1.000,0.000,0.000,1.000,1.000
0.4250,0.99802,0.99672,0.99718,-0.29289,1.08432,2.86085,-0.01019,-0.01799,-0.01633,-6.19159,6.22102,7.75122,0.00000,0.00000,0.00000,0.00000,0.00000,0.00000,-0.99802,-0.99672,-0.99718,0.29289,-1.08432,-2.86085,"[0.000, 1.000, 0.000, 1.000, 0.000, 1.000]",0.000,0.000,1.000,1.000,0.000,0.000,1.000,1.000,0.000,0.000,1.000,1.000
0.4300,0.99796,0.99663,0.99710,-0.26674,1.12531,2.92509,-0.01053,-0.01822,-0.01647,-6.30924,6.33968,7.87013,0.00000,0.00000,0.00000,0.00000,0.00000,0.00000,-0.99796,-0.99663,-0.99710,0.26674,-1.12531,-2.92509,"[0.000, 1.000, 0.000, 1.000, 0.000, 1.000]",0.000,0.000,1.000,1.000,0.000,0.000,1.000,1.000,0.000,0.000,1.000,1.000
0.4350,0.99791,0.99654,0.99702,-0.23109,1.16611,2.99916,-0.01086,-0.01846,-0.01662,-6.42689,6.45834,7.98904,0.00000,0.00000,0.00000,0.00000,0.00000,0.00000,-0.99791,-0.99654,-0.99702,0.23109,-1.16611,-2.99916,"[0.000, 1.000, 0.000, 1.000, 0.000, 1.000]",0.000,0.000,1.000,1.000,0.000,0.000,1.000,1.000,0.000,0.000,1.000,1.000
0.4400,0.99786,0.99645,0.99693,-0.18273,1.20630,3.08630,-0.01117,-0.01872,-0.01678,-6.54453,6.57700,8.10795,0.00000,0.00000,0.00000,0.00000,0.00000,0.00000,-0.99786,-0.99645,-0.99693,0.18273,-1.20630,-3.08630,"[0.000, 1.000, 0.000, 1.000, 0.000, 1.000]",0.000,0.000,1.000,1.000,0.000,0.000,1.000,1.000,0.000,0.000,1.000,1.000
0.4450,0.99780,0.99636,0.99685,-0.11713,1.24526,-3.09212,-0.01146,-0.01899,-0.01694,-6.66218,6.69566,8.22685,0.00000,0.00000,0.00000,0.00000,0.00000,0.00000,-0.99780,-0.99636,-0.99685,0.11713,-1.24526,3.09212,"[0.000, 1.000, 0.000, 1.000, 0.000, 1.000]",0.000,0.000,1.000,1.000,0.000,0.000,1.000,1.000,0.000,0.000,1.000,1.000
0.4500,0.99774,0.99626,0.99677,-0.02877,1.28172,-2.96450,-0.01146,-0.01899,-0.01694,-6.66218,6.69566,8.22685,0.00000,0.00000,0.00000,0.00000,0.00000,0.00000,-0.99774,-0.99626,-0.99677,0.02877,-1.28172,2.96450,"[0.000, 0.000, 0.000, 0.000, 0.000, 0.000]",0.000,0.000,0.000,0.000,0.000,0.000,0.000,0.000,0.000,0.000,0.000,0.000
0.4550,0.99768,0.99617,0.99668,0.08855,1.31405,-2.80811,-0.01146,-0.01899,-0.01694,-6.66218,6.69566,8.22685,0.00000,0.00000,0.00000,0.00000,0.00000,0.00000,-0.99768,-0.99617,-0.99668,-0.08855,-1.31405,2.80811,"[0.000, 0.000, 0.000, 0.000, 0.000, 0.000]",0.000,0.000,0.000,0.000,0.000,0.000,0.000,0.000,0.000,0.000,0.000,0.000
0.4600,0.99763,0.99607,0.99660,0.24093,1.34044,-2.61682,-0.01146,-0.01899,-0.01694,-6.66218,6.69566,8.22685,0.00000,0.00000,0.00000,0.00000,0.00000,0.00000,-0.99763,-0.99607,-0.99660,-0.24093,-1.34044,2.61682,"[0.000, 0.000, 0.000, 0.000, 0.000, 0.000]",0.000,0.000,0.000,0.000,0.000,0.000,0.000,0.000,0.000,0.000,0.000,0.000
0.4650,0.99757,0.99598,0.99651,0.42977,1.35863,-2.38916,-0.01146,-0.01899,-0.01694,-6.66218,6.69566,8.22685,0.00000,0.00000,0.00000,0.00000,0.00000,0.00000,-0.99757,-0.99598,-0.99651,-0.42977,-1.35863,2.38916,"[0.000, 0.000, 0.000, 0.000, 0.000, 0.000]",0.000,0.000,0.000,0.000,0.000,0.000,0.000,0.000,0.000,0.000,0.000,0.000
0.4700,0.99751,0.99588,0.99643,0.64542,1.36639,-2.13475,-0.01146,-0.01899,-0.01694,-6.66218,6.69566,8.22685,0.00000,0.00000,0.00000,0.00000,0.00000,0.00000,-0.99751,-0.99588,-0.99643,-0.64542,-1.36639,2.13475,"[0.000, 0.000, 0.000, 0.000, 0.000, 0.000]",0.000,0.000,0.000,0.000,0.000,0.000,0.000,0.000,0.000,0.000,0.000,0.000
0.4750,0.99746,0.99579,0.99634,0.86554,1.36252,-1.87588,-0.01146,-0.01899,-0.01694,-6.66218,6.69566,8.22685,0.00000,0.00000,0.00000,0.00000,0.00000,0.00000,-0.99746,-0.99579,-0.99634,-0.86554,-1.36252,1.87588,"[0.000, 0.000, 0.000, 0.000, 0.000, 0.000]",0.000,0.000,0.000,0.000,0.000,0.000,0.000,0.000,0.000,0.000,0.000,0.000
0.4800,0.99740,0.99569,0.99626,1.06526,1.34765,-1.63737,-0.01146,-0.01899,-0.01694,-6.66218,6.69566,8.22685,0.00000,0.00000,0.00000,0.00000,0.00000,0.00000,-0.99740,-0.99569,-0.99626,-1.06526,-1.34765,1.63737,"[0.000, 0.000, 0.000, 0.000, 0.000, 0.000]",0.000,0.000,0.000,0.000,0.000,0.000,0.000,0.000,0.000,0.000,0.000,0.000
0.4850,0.99734,0.99560,0.99617,1.23026,1.32376,-1.43350,-0.01146,-0.01899,-0.01694,-6.66218,6.69566,8.22685,0.00000,0.00000,0.00000,0.00000,0.00000,0.00000,-0.99734,-0.99560,-0.99617,-1.23026,-1.32376,1.43350,"[0.000, 0.000, 0.000, 0.000, 0.000, 0.000]",0.000,0.000,0.000,0.000,0.000,0.000,0.000,0.000,0.000,0.000,0.000,0.000
0.4900,0.99728,0.99550,0.99609,1.35889,1.29322,-1.26586,-0.01146,-0.01899,-0.01694,-6.66218,6.69566,8.22685,0.00000,0.00000,0.00000,0.00000,0.00000,0.00000,-0.99728,-0.99550,-0.99609,-1.35889,-1.29322,1.26586,"[0.000, 0.000, 0.000, 0.000, 0.000, 0.000]",0.000,0.000,0.000,0.000,0.000,0.000,0.000,0.000,0.000,0.000,0.000,0.000
0.4950,0.99723,0.99541,0.99600,1.45630,1.25799,-1.12925,-0.01146,-0.01899,-0.01694,-6.66218,6.69566,8.22685,0.00000,0.00000,0.00000,0.00000,0.00000,0.00000,-0.99723,-0.99541,-0.99600,-1.45630,-1.25799,1.12925,"[0.000, 0.000, 0.000, 0.000, 0.000, 0.000]",0.000,0.000,0.000,0.000,0.000,0.000,0.000,0.000,0.000,0.000,0.000,0.000
0.5000,0.99717,0.99531,0.99592,1.52971,1.21925,-1.01608,-0.01177,-0.01899,-0.01725,-6.78061,6.81495,8.34491,0.00000,0.00000,0.00000,0.00000,0.00000,0.00000,-0.99717,-0.99531,-0.99592,-1.52971,-1.21925,1.01608,"[0.000, 1.000, 0.985, 0.000, 0.000, 1.000]",0.000,0.000,1.000,1.000,0.985,0.985,0.000,0.000,0.000,0.000,1.000,1.000
0.5050,0.99711,0.99522,0.99583,1.58500,1.17765,-0.92003,-0.01206,-0.01901,-0.01756,-6.89904,6.93425,8.46298,0.00000,0.00000,0.00000,0.00000,0.00000,0.00000,-0.99711,-0.99522,-0.99583,-1.58500,-1.17765,0.92003,"[0.000, 1.000, 0.985, 0.000, 0.000, 1.000]",0.000,0.000,1.000,1.000,0.985,0.985,0.000,0.000,0.000,0.000,1.000,1.000
0.5100,0.99705,0.99512,0.99574,1.62617,1.13382,-0.83703,-0.01234,-0.01905,-0.01789,-7.01747,7.05354,8.58104,0.00000,0.00000,0.00000,0.00000,0.00000,0.00000,-0.99705,-0.99512,-0.99574,-1.62617,-1.13382,0.83703,"[0.000, 1.000, 0.985, 0.000, 0.000, 1.000]",0.000,0.000,1.000,1.000,0.985,0.985,0.000,0.000,0.000,0.000,1.000,1.000
0.5150,0.99699,0.99503,0.99565,1.65631,1.08820,-0.76393,-0.01260,-0.01911,-0.01823,-7.13590,7.17284,8.69910,0.00000,0.00000,0.00000,0.00000,0.00000,0.00000,-0.99699,-0.99503,-0.99565,-1.65631,-1.08820,0.76393,"[0.000, 1.000, 0.985, 0.000, 0.000, 1.000]",0.000,0.000,1.000,1.000,0.985,0.985,0.000,0.000,0.000,0.000,1.000,1.000
0.5200,0.99692,0.99493,0.99556,1.67769,1.04111,-0.69836,-0.01285,-0.01919,-0.01858,-7.25434,7.29213,8.81716,0.00000,0.00000,0.00000,0.00000,0.00000,0.00000,-0.99692,-0.99493,-0.99556,-1.67769,-1.04111,0.69836,"[0.000, 1.000, 0.985, 0.000, 0.000, 1.000]",0.000,0.000,1.000,1.000,0.985,0.985,0.000,0.000,0.000,0.000,1.000,1.000
0.5250,0.99686,0.99483,0.99547,1.69202,0.99282,-0.63853,-0.01308,-0.01929,-0.01893,-7.37277,7.41143,8.93522,0.00000,0.00000,0.00000,0.00000,0.00000,0.00000,-0.99686,-0.99483,-0.99547,-1.69202,-0.99282,0.63853,"[0.000, 1.000, 0.985, 0.000, 0.000, 1.000]",0.000,0.000,1.000,1.000,0.985,0.985,0.000,0.000,0.000,0.000,1.000,1.000
0.5300,0.99679,0.99474,0.99537,1.70055,0.94351,-0.58308,-0.01329,-0.01940,-0.01929,-7.49120,7.53072,9.05328,0.00000,0.00000,0.00000,0.00000,0.00000,0.00000,-0.99679,-0.99474,-0.99537,-1.70055,-0.94351,0.58308,"[0.000, 1.000, 0.985, 0.000, 0.000, 1.000]",0.000,0.000,1.000,1.000,0.985,0.985,0.000,0.000,0.000,0.000,1.000,1.000
0.5350,0.99672,0.99464,0.99527,1.70422,0.89336,-0.53096,-0.01347,-0.01954,-0.01966,-7.60963,7.65002,9.17134,0.00000,0.00000,0.00000,0.00000,0.00000,0.00000,-0.99672,-0.99464,-0.99527,-1.70422,-0.89336,0.53096,"[0.000, 1.000, 0.985, 0.000, 0.000, 1.000]",0.000,0.000,1.000,1.000,0.985,0.985,0.000,0.000,0.000,0.000,1.000,1.000
0.5400,0.99666,0.99454,0.99517,1.70374,0.84248,-0.48134,-0.01363,-0.01969,-0.02003,-7.72807,7.76931,9.28940,0.00000,0.00000,0.00000,0.00000,0.00000,0.00000,-0.99666,-0.99454,-0.99517,-1.70374,-0.84248,0.48134,"[0.000, 1.000, 0.985, 0.000, 0.000, 1.000]",0.000,0.000,1.000,1.000,0.985,0.985,0.000,0.000,0.000,0.000,1.000,1.000
0.5450,0.99659,0.99444,0.99507,1.69963,0.79102,-0.43357,-0.01377,-0.01986,-0.02040,-7.84650,7.88861,9.40746,0.00000,0.00000,0.00000,0.00000,0.00000,0.00000,-0.99659,-0.99444,-0.99507,-1.69963,-0.79102,0.43357,"[0.000, 1.000, 0.985, 0.000, 0.000, 1.000]",0.000,0.000,1.000,1.000,0.985,0.985,0.000,0.000,0.000,0.000,1.000,1.000
0.5500,0.99652,0.99434,0.99497,1.69234,0.73942,-0.38745,-0.01377,-0.01986,-0.02040,-7.84650,7.88861,9.40746,0.00000,0.00000,0.00000,0.00000,0.00000,0.00000,-0.99652,-0.99434,-0.99497,-1.69234,-0.73942,0.38745,"[0.000, 0.000, 0.000, 0.000, 0.000, 0.000]",0.000,0.000,0.000,0.000,0.000,0.000,0.000,0.000,0.000,0.000,0.000,0.000
0.5550,0.99645,0.99424,0.99487,1.68230,0.68811,-0.34287,-0.01377,-0.01986,-0.02040,-7.84650,7.88861,9.40746,0.00000,0.00000,0.00000,0.00000,0.00000,0.00000,-0.99645,-0.99424,-0.99487,-1.68230,-0.68811,0.34287,"[0.000, 0.000, 0.000, 0.000, 0.000, 0.000]",0.000,0.000,0.000,0.000,0.000,0.000,0.000,0.000,0.000,0.000,0.000,0.000
0.5600,0.99638,0.99414,0.99477,1.66981,0.63718,-0.29939,-0.01377,-0.01986,-0.02040,-7.84650,7.88861,9.40746,0.00000,0.00000,0.00000,0.00000,0.00000,0.00000,-0.99638,-0.99414,-0.99477,-1.66981,-0.63718,0.29939,"[0.000, 0.000, 0.000, 0.000, 0.000, 0.000]",0.000,0.000,0.000,0.000,0.000,0.000,0.000,0.000,0.000,0.000,0.000,0.000
0.5650,0.99631,0.99404,0.99466,1.65512,0.58673,-0.25667,-0.01377,-0.01986,-0.02040,-7.84650,7.88861,9.40746,0.00000,0.00000,0.00000,0.00000,0.00000,0.00000,-0.99631,-0.99404,-0.99466,-1.65512,-0.58673,0.25667,"[0.000, 0.000, 0.000, 0.000, 0.000, 0.000]",0.000,0.000,0.000,0.000,0.000,0.000,0.000,0.000,0.000,0.000,0.000,0.000
0.5700,0.99624,0.99395,0.99456,1.63839,0.53683,-0.21442,-0.01377,-0.01986,-0.02040,-7.84650,7.88861,9.40746,0.00000,0.00000,0.00000,0.00000,0.00000,0.00000,-0.99624,-0.99395,-0.99456,-1.63839,-0.53683,0.21442,"[0.000, 0.000, 0.000, 0.000, 0.000, 0.000]",0.000,0.000,0.000,0.000,0.000,0.000,0.000,0.000,0.000,0.000,0.000,0.000
0.5750,0.99617,0.99385,0.99446,1.61975,0.48757,-0.17240,-0.01377,-0.01986,-0.02040,-7.84650,7.88861,9.40746,0.00000,0.00000,0.00000,0.00000,0.00000,0.00000,-0.99617,-0.99385,-0.99446,-1.61975,-0.48757,0.17240,"[0.000, 0.000, 0.000, 0.000, 0.000, 0.000]",0.000,0.000,0.000,0.000,0.000,0.000,0.000,0.000,0.000,0.000,0.000,0.000
0.5800,0.99611,0.99375,0.99436,1.59929,0.43903,-0.13038,-0.01377,-0.01986,-0.02040,-7.84650,7.88861,9.40746,0.00000,0.00000,0.00000,0.00000,0.00000,0.00000,-0.99611,-0.99375,-0.99436,-1.59929,-0.43903,0.13038,"[0.000, 0.000, 0.000, 0.000, 0.000, 0.000]",0.000,0.000,0.000,0.000,0.000,0.000,0.000,0.000,0.000,0.000,0.000,0.000
0.5850,0.99604,0.99365,0.99426,1.57707,0.39131,-0.08818,-0.01377,-0.01986,-0.02040,-7.84650,7.88861,9.40746,0.00000,0.00000,0.00000,0.00000,0.00000,0.00000,-0.99604,-0.99365,-0.99426,-1.57707,-0.39131,0.08818,"[0.000, 0.000, 0.000, 0.000, 0.000, 0.000]",0.000,0.000,0.000,0.000,0.000,0.000,0.000,0.000,0.000,0.000,0.000,0.000
0.5900,0.99597,0.99355,0.99415,1.55314,0.34450,-0.04563,-0.01377,-0.01986,-0.02040,-7.84650,7.88861,9.40746,0.00000,0.00000,0.00000,0.00000,0.00000,0.00000,-0.99597,-0.99355,-0.99415,-1.55314,-0.34450,0.04563,"[0.000, 0.000, 0.000, 0.000, 0.000, 0.000]",0.000,0.000,0.000,0.000,0.000,0.000,0.000,0.000,0.000,0.000,0.000,0.000
0.5950,0.99590,0.99345,0.99405,1.52751,0.29868,-0.00257,-0.01377,-0.01986,-0.02040,-7.84650,7.88861,9.40746,0.00000,0.00000,0.00000,0.00000,0.00000,0.00000,-0.99590,-0.99345,-0.99405,-1.52751,-0.29868,0.00257,"[0.000, 0.000, 0.000, 0.000, 0.000, 0.000]",0.000,0.000,0.000,0.000,0.000,0.000,0.000,0.000,0.000,0.000,0.000,0.000
0.6000,0.99583,0.99335,0.99395,1.49998,0.25368,0.04147,-0.01408,-0.02012,-0.02056,-7.96490,8.00798,9.52577,0.00000,0.00000,0.00000,0.00000,0.00000,0.00000,-0.99583,-0.99335,-0.99395,-1.49998,-0.25368,-0.04147,"[1.000, 0.000, 1.000, 0.000, 0.000, 1.000]",1.000,1.000,0.000,0.000,1.000,1.000,0.000,0.000,0.000,0.000,1.000,1.000
0.6050,0.99576,0.99325,0.99385,1.47029,0.20938,0.08696,-0.01437,-0.02040,-0.02072,-8.08330,8.12736,9.64409,0.00000,0.00000,0.00000,0.00000,0.00000,0.00000,-0.99576,-0.99325,-0.99385,-1.47029,-0.20938,-0.08696,"[1.000, 0.000, 1.000, 0.000, 0.000, 1.000]",1.000,1.000,0.000,0.000,1.000,1.000,0.000,0.000,0.000,0.000,1.000,1.000
0.6100,0.99569,0.99314,0.99374,1.43836,0.16595,0.13408,-0.01464,-0.02070,-0.02089,-8.20170,8.24673,9.76241,0.00000,0.00000,0.00000,0.00000,0.00000,0.00000,-0.99569,-0.99314,-0.99374,-1.43836,-0.16595,-0.13408,"[1.000, 0.000, 1.000, 0.000, 0.000, 1.000]",1.000,1.000,0.000,0.000,1.000,1.000,0.000,0.000,0.000,0.000,1.000,1.000
0.6150,0.99561,0.99304,0.99364,1.40409,0.12357,0.18297,-0.01488,-0.02102,-0.02106,-8.32010,8.36610,9.88072,0.00000,0.00000,0.00000,0.00000,0.00000,0.00000,-0.99561,-0.99304,-0.99364,-1.40409,-0.12357,-0.18297,"[1.000, 0.000, 1.000, 0.000, 0.000, 1.000]",1.000,1.000,0.000,0.000,1.000,1.000,0.000,0.000,0.000,0.000,1.000,1.000
0.6200,0.99554,0.99293,0.99353,1.36741,0.08246,0.23379,-0.01509,-0.02135,-0.02123,-8.43851,8.48548,9.99904,0.00000,0.00000,0.00000,0.00000,0.00000,0.00000,-0.99554,-0.99293,-0.99353,-1.36741,-0.08246,-0.23379,"[1.000, 0.000, 1.000, 0.000, 0.000, 1.000]",1.000,1.000,0.000,0.000,1.000,1.000,0.000,0.000,0.000,0.000,1.000,1.000
0.6250,0.99546,0.99283,0.99343,1.32822,0.04286,0.28667,-0.01528,-0.02170,-0.02140,-8.55691,8.60485,10.11736,0.00000,0.00000,0.00000,0.00000,0.00000,0.00000,-0.99546,-0.99283,-0.99343,-1.32822,-0.04286,-0.28667,"[1.000, 0.000, 1.000, 0.000, 0.000, 1.000]",1.000,1.000,0.000,0.000,1.000,1.000,0.000,0.000,0.000,0.000,1.000,1.000
0.6300,0.99538,0.99272,0.99332,1.28644,0.00501,0.34176,-0.01545,-0.02206,-0.02158,-8.67531,8.72422,10.23567,0.00000,0.00000,0.00000,0.00000,0.00000,0.00000,-0.99538,-0.99272,-0.99332,-1.28644,-0.00501,-0.34176,"[1.000, 0.000, 1.000, 0.000, 0.000, 1.000]",1.000,1.000,0.000,0.000,1.000,1.000,0.000,0.000,0.000,0.000,1.000,1.000
0.6350,0.99531,0.99261,0.99321,1.24201,-0.03082,0.39916,-0.01558,-0.02244,-0.02174,-8.79371,8.84360,10.35399,0.00000,0.00000,0.00000,0.00000,0.00000,0.00000,-0.99531,-0.99261,-0.99321,-1.24201,0.03082,-0.39916,"[1.000, 0.000, 1.000, 0.000, 0.000, 1.000]",1.000,1.000,0.000,0.000,1.000,1.000,0.000,0.000,0.000,0.000,1.000,1.000
0.6400,0.99523,0.99249,0.99310,1.19488,-0.06433,0.45897,-0.01568,-0.02283,-0.02191,-8.91211,8.96297,10.47230,0.00000,0.00000,0.00000,0.00000,0.00000,0.00000,-0.99523,-0.99249,-0.99310,-1.19488,0.06433,-0.45897,"[1.000, 0.000, 1.000, 0.000, 0.000, 1.000]",1.000,1.000,0.000,0.000,1.000,1.000,0.000,0.000,0.000,0.000,1.000,1.000
0.6450,0.99515,0.99238,0.99299,1.14504,-0.09522,0.52125,-0.01575,-0.02322,-0.02206,-9.03051,9.08235,10.59062,0.00000,0.00000,0.00000,0.00000,0.00000,0.00000,-0.99515,-0.99238,-0.99299,-1.14504,0.09522,-0.52125,"[1.000, 0.000, 1.000, 0.000, 0.000, 1.000]",1.000,1.000,0.000,0.000,1.000,1.000,0.000,0.000,0.000,0.000,1.000,1.000
0.6500,0.99507,0.99226,0.99288,1.09286,-0.12304,0.58560,-0.01575,-0.02322,-0.02206,-9.03051,9.08235,10.59062,0.00000,0.00000,0.00000,0.00000,0.00000,0.00000,-0.99507,-0.99226,-0.99288,-1.09286,0.12304,-0.58560,"[0.000, 0.000, 0.000, 0.000, 0.000, 0.000]",0.000,0.000,0.000,0.000,0.000,0.000,0.000,0.000,0.000,0.000,0.000,0.000
0.6550,0.99499,0.99215,0.99277,1.03879,-0.14742,0.65155,-0.01575,-0.02322,-0.02206,-9.03051,9.08235,10.59062,0.00000,0.00000,0.00000,0.00000,0.00000,0.00000,-0.99499,-0.99215,-0.99277,-1.03879,0.14742,-0.65155,"[0.000, 0.000, 0.000, 0.000, 0.000, 0.000]",0.000,0.000,0.000,0.000,0.000,0.000,0.000,0.000,0.000,0.000,0.000,0.000
0.6600,0.99491,0.99203,0.99266,0.98302,-0.16817,0.71898,-0.01575,-0.02322,-0.02206,-9.03051,9.08235,10.59062,0.00000,0.00000,0.00000,0.00000,0.00000,0.00000,-0.99491,-0.99203,-0.99266,-0.98302,0.16817,-0.71898,"[0.000, 0.000, 0.000, 0.000, 0.000, 0.000]",0.000,0.000,0.000,0.000,0.000,0.000,0.000,0.000,0.000,0.000,0.000,0.000
0.6650,0.99484,0.99191,0.99255,0.92577,-0.18513,0.78771,-0.01575,-0.02322,-0.02206,-9.03051,9.08235,10.59062,0.00000,0.00000,0.00000,0.00000,0.00000,0.00000,-0.99484,-0.99191,-0.99255,-0.92577,0.18513,-0.78771,"[0.000, 0.000, 0.000, 0.000, 0.000, 0.000]",0.000,0.000,0.000,0.000,0.000,0.000,0.000,0.000,0.000,0.000,0.000,0.000
0.6700,0.99476,0.99180,0.99244,0.86729,-0.19815,0.85752,-0.01575,-0.02322,-0.02206,-9.03051,9.08235,10.59062,0.00000,0.00000,0.00000,0.00000,0.00000,0.00000,-0.99476,-0.99180,-0.99244,-0.86729,0.19815,-0.85752,"[0.000, 0.000, 0.000, 0.000, 0.000, 0.000]",0.000,0.000,0.000,0.000,0.000,0.000,0.000,0.000,0.000,0.000,0.000,0.000
0.6750,0.99468,0.99168,0.99233,0.80790,-0.20711,0.92814,-0.01575,-0.02322,-0.02206,-9.03051,9.08235,10.59062,0.00000,0.00000,0.00000,0.00000,0.00000,0.00000,-0.99468,-0.99168,-0.99233,-0.80790,0.20711,-0.92814,"[0.000, 0.000, 0.000, 0.000, 0.000, 0.000]",0.000,0.000,0.000,0.000,0.000,0.000,0.000,0.000,0.000,0.000,0.000,0.000
0.6800,0.99460,0.99157,0.99222,0.74793,-0.21192,0.99928,-0.01575,-0.02322,-0.02206,-9.03051,9.08235,10.59062,0.00000,0.00000,0.00000,0.00000,0.00000,0.00000,-0.99460,-0.99157,-0.99222,-0.74793,0.21192,-0.99928,"[0.000, 0.000, 0.000, 0.000, 0.000, 0.000]",0.000,0.000,0.000,0.000,0.000,0.000,0.000,0.000,0.000,0.000,0.000,0.000
0.6850,0.99452,0.99145,0.99211,0.68772,-0.21255,1.07064,-0.01575,-0.02322,-0.02206,-9.03051,9.08235,10.59062,0.00000,0.00000,0.00000,0.00000,0.00000,0.00000,-0.99452,-0.99145,-0.99211,-0.68772,0.21255,-1.07064,"[0.000, 0.000, 0.000, 0.000, 0.000, 0.000]",0.000,0.000,0.000,0.000,0.000,0.000,0.000,0.000,0.000,0.000,0.000,0.000
0.6900,0.99444,0.99133,0.99200,0.62764,-0.20898,1.14187,-0.01575,-0.02322,-0.02206,-9.03051,9.08235,10.59062,0.00000,0.00000,0.00000,0.00000,0.00000,0.00000,-0.99444,-0.99133,-0.99200,-0.62764,0.20898,-1.14187,"[0.000, 0.000, 0.000, 0.000, 0.000, 0.000]",0.000,0.000,0.000,0.000,0.000,0.000,0.000,0.000,0.000,0.000,0.000,0.000
0.6950,0.99436,0.99122,0.99189,0.56805,-0.20124,1.21268,-0.01575,-0.02322,-0.02206,-9.03051,9.08235,10.59062,0.00000,0.00000,0.00000,0.00000,0.00000,0.00000,-0.99436,-0.99122,-0.99189,-0.56805,0.20124,-1.21268,"[0.000, 0.000, 0.000, 0.000, 0.000, 0.000]",0.000,0.000,0.000,0.000,0.000,0.000,0.000,0.000,0.000,0.000,0.000,0.000
0.7000,0.99428,0.99110,0.99178,0.50890,-0.18931,1.28317,-0.01616,-0.02332,-0.02219,-9.14865,9.20171,10.70905,0.00000,0.00000,0.00000,0.00000,0.00000,0.00000,-0.99428,-0.99110,-0.99178,-0.50890,0.18931,-1.28317,"[1.000, 0.000, 0.000, 1.000, 1.000, 0.000]",1.000,1.000,0.000,0.000,0.000,0.000,1.000,1.000,1.000,1.000,0.000,0.000
0.7050,0.99420,0.99098,0.99167,0.45017,-0.17306,1.35345,-0.01655,-0.02344,-0.02233,-9.26680,9.32108,10.82748,0.00000,0.00000,0.00000,0.00000,0.00000,0.00000,-0.99420,-0.99098,-0.99167,-0.45017,0.17306,-1.35345,"[1.000, 0.000, 0.000, 1.000, 1.000, 0.000]",1.000,1.000,0.000,0.000,0.000,0.000,1.000,1.000,1.000,1.000,0.000,0.000
0.7100,0.99412,0.99087,0.99155,0.39221,-0.15250,1.42322,-0.01692,-0.02359,-0.02249,-9.38494,9.44044,10.94591,0.00000,0.00000,0.00000,0.00000,0.00000,0.00000,-0.99412,-0.99087,-0.99155,-0.39221,0.15250,-1.42322,"[1.000, 0.000, 0.000, 1.000, 1.000, 0.000]",1.000,1.000,0.000,0.000,0.000,0.000,1.000,1.000,1.000,1.000,0.000,0.000
0.7150,0.99403,0.99075,0.99144,0.33533,-0.12768,1.49221,-0.01728,-0.02376,-0.02266,-9.50308,9.55980,11.06434,0.00000,0.00000,0.00000,0.00000,0.00000,0.00000,-0.99403,-0.99075,-0.99144,-0.33533,0.12768,-1.49221,"[1.000, 0.000, 0.000, 1.000, 1.000, 0.000]",1.000,1.000,0.000,0.000,0.000,0.000,1.000,1.000,1.000,1.000,0.000,0.000
0.7200,0.99394,0.99063,0.99133,0.27981,-0.09867,1.56020,-0.01761,-0.02397,-0.02285,-9.62122,9.67917,11.18276,0.00000,0.00000,0.00000,0.00000,0.00000,0.00000,-0.99394,-0.99063,-0.99133,-0.27981,0.09867,-1.56020,"[1.000, 0.000, 0.000, 1.000, 1.000, 0.000]",1.000,1.000,0.000,0.000,0.000,0.000,1.000,1.000,1.000,1.000,0.000,0.000
0.7250,0.99386,0.99051,0.99121,0.22590,-0.06558,1.62702,-0.01792,-0.02420,-0.02304,-9.73936,9.79853,11.30119,0.00000,0.00000,0.00000,0.00000,0.00000,0.00000,-0.99386,-0.99051,-0.99121,-0.22590,0.06558,-1.62702,"[1.000, 0.000, 0.000, 1.000, 1.000, 0.000]",1.000,1.000,0.000,0.000,0.000,0.000,1.000,1.000,1.000,1.000,0.000,0.000
0.7300,0.99377,0.99039,0.99110,0.17380,-0.02853,1.69254,-0.01821,-0.02445,-0.02324,-9.85750,9.91790,11.41962,0.00000,0.00000,0.00000,0.00000,0.00000,0.00000,-0.99377,-0.99039,-0.99110,-0.17380,0.02853,-1.69254,"[1.000, 0.000, 0.000, 1.000, 1.000, 0.000]",1.000,1.000,0.000,0.000,0.000,0.000,1.000,1.000,1.000,1.000,0.000,0.000
0.7350,0.99367,0.99026,0.99098,0.12368,0.01231,1.75669,-0.01847,-0.02473,-0.02345,-9.97564,10.03726,11.53805,0.00000,0.00000,0.00000,0.00000,0.00000,0.00000,-0.99367,-0.99026,-0.99098,-0.12368,-0.01231,-1.75669,"[1.000, 0.000, 0.000, 1.000, 1.000, 0.000]",1.000,1.000,0.000,0.000,0.000,0.000,1.000,1.000,1.000,1.000,0.000,0.000
0.7400,0.99358,0.99014,0.99086,0.07565,0.05678,1.81943,-0.01870,-0.02503,-0.02367,-10.09378,10.15663,11.65648,0.00000,0.00000,0.00000,0.00000,0.00000,0.00000,-0.99358,-0.99014,-0.99086,-0.07565,-0.05678,-1.81943,"[1.000, 0.000, 0.000, 1.000, 1.000, 0.000]",1.000,1.000,0.000,0.000,0.000,0.000,1.000,1.000,1.000,1.000,0.000,0.000
0.7450,0.99349,0.99001,0.99074,0.02981,0.10471,1.88081,-0.01889,-0.02535,-0.02388,-10.21192,10.27599,11.77491,0.00000,0.00000,0.00000,0.00000,0.00000,0.00000,-0.99349,-0.99001,-0.99074,-0.02981,-0.10471,-1.88081,"[1.000, 0.000, 0.000, 1.000, 1.000, 0.000]",1.000,1.000,0.000,0.000,0.000,0.000,1.000,1.000,1.000,1.000,0.000,0.000
0.7500,0.99339,0.98989,0.99062,-0.01351,0.15562,1.94060,-0.01889,-0.02535,-0.02388,-10.21192,10.27599,11.77491,0.00000,0.00000,0.00000,0.00000,0.00000,0.00000,-0.99339,-0.98989,-0.99062,0.01351,-0.15562,-1.94060,"[0.000, 0.000, 0.000, 0.000, 0.000, 0.000]",0.000,0.000,0.000,0.000,0.000,0.000,0.000,0.000,0.000,0.000,0.000,0.000
0.7550,0.99330,0.98976,0.99050,-0.05407,0.20897,1.99865,-0.01889,-0.02535,-0.02388,-10.21192,10.27599,11.77491,0.00000,0.00000,0.00000,0.00000,0.00000,0.00000,-0.99330,-0.98976,-0.99050,0.05407,-0.20897,-1.99865,"[0.000, 0.000, 0.000, 0.000, 0.000, 0.000]",0.000,0.000,0.000,0.000,0.000,0.000,0.000,0.000,0.000,0.000,0.000,0.000
0.7600,0.99320,0.98963,0.99038,-0.09188,0.26452,2.05519,-0.01889,-0.02535,-0.02388,-10.21192,10.27599,11.77491,0.00000,0.00000,0.00000,0.00000,0.00000,0.00000,-0.99320,-0.98963,-0.99038,0.09188,-0.26452,-2.05519,"[0.000, 0.000, 0.000, 0.000, 0.000, 0.000]",0.000,0.000,0.000,0.000,0.000,0.000,0.000,0.000,0.000,0.000,0.000,0.000
0.7650,0.99311,0.98951,0.99027,-0.12698,0.32203,2.11044,-0.01889,-0.02535,-0.02388,-10.21192,10.27599,11.77491,0.00000,0.00000,0.00000,0.00000,0.00000,0.00000,-0.99311,-0.98951,-0.99027,0.12698,-0.32203,-2.11044,"[0.000, 0.000, 0.000, 0.000, 0.000, 0.000]",0.000,0.000,0.000,0.000,0.000,0.000,0.000,0.000,0.000,0.000,0.000,0.000
0.7700,0.99301,0.98938,0.99015,-0.15937,0.38129,2.16469,-0.01889,-0.02535,-0.02388,-10.21192,10.27599,11.77491,0.00000,0.00000,0.00000,0.00000,0.00000,0.00000,-0.99301,-0.98938,-0.99015,0.15937,-0.38129,-2.16469,"[0.000, 0.000, 0.000, 0.000, 0.000, 0.000]",0.000,0.000,0.000,0.000,0.000,0.000,0.000,0.000,0.000,0.000,0.000,0.000
0.7750,0.99292,0.98925,0.99003,-0.18902,0.44211,2.21823,-0.01889,-0.02535,-0.02388,-10.21192,10.27599,11.77491,0.00000,0.00000,0.00000,0.00000,0.00000,0.00000,-0.99292,-0.98925,-0.99003,0.18902,-0.44211,-2.21823,"[0.000, 0.000, 0.000, 0.000, 0.000, 0.000]",0.000,0.000,0.000,0.000,0.000,0.000,0.000,0.000,0.000,0.000,0.000,0.000
0.7800,0.99283,0.98913,0.98991,-0.21585,0.50428,2.27141,-0.01889,-0.02535,-0.02388,-10.21192,10.27599,11.77491,0.00000,0.00000,0.00000,0.00000,0.00000,0.00000,-0.99283,-0.98913,-0.98991,0.21585,-0.50428,-2.27141,"[0.000, 0.000, 0.000, 0.000, 0.000, 0.000]",0.000,0.000,0.000,0.000,0.000,0.000,0.000,0.000,0.000,0.000,0.000,0.000
0.7850,0.99273,0.98900,0.98979,-0.23975,0.56764,2.32460,-0.01889,-0.02535,-0.02388,-10.21192,10.27599,11.77491,0.00000,0.00000,0.00000,0.00000,0.00000,0.00000,-0.99273,-0.98900,-0.98979,0.23975,-0.56764,-2.32460,"[0.000, 0.000, 0.000, 0.000, 0.000, 0.000]",0.000,0.000,0.000,0.000,0.000,0.000,0.000,0.000,0.000,0.000,0.000,0.000
0.7900,0.99264,0.98887,0.98967,-0.26051,0.63201,2.37829,-0.01889,-0.02535,-0.02388,-10.21192,10.27599,11.77491,0.00000,0.00000,0.00000,0.00000,0.00000,0.00000,-0.99264,-0.98887,-0.98967,0.26051,-0.63201,-2.37829,"[0.000, 0.000, 0.000, 0.000, 0.000, 0.000]",0.000,0.000,0.000,0.000,0.000,0.000,0.000,0.000,0.000,0.000,0.000,0.000
0.7950,0.99254,0.98875,0.98955,-0.27782,0.69721,2.43302,-0.01889,-0.02535,-0.02388,-10.21192,10.27599,11.77491,0.00000,0.00000,0.00000,0.00000,0.00000,0.00000,-0.99254,-0.98875,-0.98955,0.27782,-0.69721,-2.43302,"[0.000, 0.000, 0.000, 0.000, 0.000, 0.000]",0.000,0.000,0.000,0.000,0.000,0.000,0.000,0.000,0.000,0.000,0.000,0.000
0.8000,0.99245,0.98862,0.98943,-0.29132,0.76343,2.48977,-0.01900,-0.02548,-0.02428,-10.32893,10.39531,11.89384,0.00000,0.00000,0.00000,0.00000,0.00000,0.00000,-0.99245,-0.98862,-0.98943,0.29132,-0.76343,-2.48977,"[0.000, 1.000, 0.000, 1.000, 1.000, 0.000]",0.000,0.000,1.000,1.000,0.000,0.000,1.000,1.000,1.000,1.000,0.000,0.000
0.8050,0.99235,0.98849,0.98931,-0.30033,0.83088,2.54976,-0.01907,-0.02564,-0.02468,-10.44594,10.51463,12.01278,0.00000,0.00000,0.00000,0.00000,0.00000,0.00000,-0.99235,-0.98849,-0.98931,0.30033,-0.83088,-2.54976,"[0.000, 1.000, 0.000, 1.000, 1.000, 0.000]",0.000,0.000,1.000,1.000,0.000,0.000,1.000,1.000,1.000,1.000,0.000,0.000
0.8100,0.99226,0.98836,0.98918,-0.30368,0.89933,2.61436,-0.01911,-0.02581,-0.02507,-10.56295,10.63395,12.13172,0.00000,0.00000,0.00000,0.00000,0.00000,0.00000,-0.99226,-0.98836,-0.98918,0.30368,-0.89933,-2.61436,"[0.000, 1.000, 0.000, 1.000, 1.000, 0.000]",0.000,0.000,1.000,1.000,0.000,0.000,1.000,1.000,1.000,1.000,0.000,0.000
0.8150,0.99216,0.98823,0.98906,-0.29957,0.96853,2.68551,-0.01912,-0.02599,-0.02547,-10.67996,10.75327,12.25066,0.00000,0.00000,0.00000,0.00000,0.00000,0.00000,-0.99216,-0.98823,-0.98906,0.29957,-0.96853,-2.68551,"[0.000, 1.000, 0.000, 1.000, 1.000, 0.000]",0.000,0.000,1.000,1.000,0.000,0.000,1.000,1.000,1.000,1.000,0.000,0.000
0.8200,0.99207,0.98810,0.98893,-0.28524,1.03808,2.76615,-0.01909,-0.02619,-0.02585,-10.79698,10.87259,12.36960,0.00000,0.00000,0.00000,0.00000,0.00000,0.00000,-0.99207,-0.98810,-0.98893,0.28524,-1.03808,-2.76615,"[0.000, 1.000, 0.000, 1.000, 1.000, 0.000]",0.000,0.000,1.000,1.000,0.000,0.000,1.000,1.000,1.000,1.000,0.000,0.000
0.8250,0.99197,0.98797,0.98880,-0.25624,1.10743,2.86090,-0.01902,-0.02640,-0.02622,-10.91399,10.99191,12.48854,0.00000,0.00000,0.00000,0.00000,0.00000,0.00000,-0.99197,-0.98797,-0.98880,0.25624,-1.10743,-2.86090,"[0.000, 1.000, 0.000, 1.000, 1.000, 0.000]",0.000,0.000,1.000,1.000,0.000,0.000,1.000,1.000,1.000,1.000,0.000,0.000
0.8300,0.99188,0.98784,0.98866,-0.20521,1.17568,2.97731,-0.01891,-0.02662,-0.02658,-11.03100,11.11123,12.60748,0.00000,0.00000,0.00000,0.00000,0.00000,0.00000,-0.99188,-0.98784,-0.98866,0.20521,-1.17568,-2.97731,"[0.000, 1.000, 0.000, 1.000, 1.000, 0.000]",0.000,0.000,1.000,1.000,0.000,0.000,1.000,1.000,1.000,1.000,0.000,0.000
0.8350,0.99178,0.98770,0.98853,-0.11944,1.24120,3.12825,-0.01877,-0.02684,-0.02693,-11.14801,11.23055,12.72641,0.00000,0.00000,0.00000,0.00000,0.00000,0.00000,-0.99178,-0.98770,-0.98853,0.11944,-1.24120,-3.12825,"[0.000, 1.000, 0.000, 1.000, 1.000, 0.000]",0.000,0.000,1.000,1.000,0.000,0.000,1.000,1.000,1.000,1.000,0.000,0.000
0.8400,0.99169,0.98757,0.98840,0.02272,1.30098,-2.94762,-0.01859,-0.02706,-0.02725,-11.26502,11.34987,12.84535,0.00000,0.00000,0.00000,0.00000,0.00000,0.00000,-0.99169,-0.98757,-0.98840,-0.02272,-1.30098,2.94762,"[0.000, 1.000, 0.000, 1.000, 1.000, 0.000]",0.000,0.000,1.000,1.000,0.000,0.000,1.000,1.000,1.000,1.000,0.000,0.000
0.8450,0.99160,0.98743,0.98826,0.25329,1.34912,-2.65171,-0.01837,-0.02728,-0.02756,-11.38203,11.46919,12.96429,0.00000,0.00000,0.00000,0.00000,0.00000,0.00000,-0.99160,-0.98743,-0.98826,-0.25329,-1.34912,2.65171,"[0.000, 1.000, 0.000, 1.000, 1.000, 0.000]",0.000,0.000,1.000,1.000,0.000,0.000,1.000,1.000,1.000,1.000,0.000,0.000
0.8500,0.99150,0.98730,0.98812,0.58948,1.37545,-2.25013,-0.01837,-0.02728,-0.02756,-11.38203,11.46919,12.96429,0.00000,0.00000,0.00000,0.00000,0.00000,0.00000,-0.99150,-0.98730,-0.98812,-0.58948,-1.37545,2.25013,"[0.000, 0.000, 0.000, 0.000, 0.000, 0.000]",0.000,0.000,0.000,0.000,0.000,0.000,0.000,0.000,0.000,0.000,0.000,0.000
0.8550,0.99141,0.98716,0.98798,0.96748,1.37065,-1.80682,-0.01837,-0.02728,-0.02756,-11.38203,11.46919,12.96429,0.00000,0.00000,0.00000,0.00000,0.00000,0.00000,-0.99141,-0.98716,-0.98798,-0.96748,-1.37065,1.80682,"[0.000, 0.000, 0.000, 0.000, 0.000, 0.000]",0.000,0.000,0.000,0.000,0.000,0.000,0.000,0.000,0.000,0.000,0.000,0.000
0.8600,0.99132,0.98703,0.98784,1.27452,1.33663,-1.43433,-0.01837,-0.02728,-0.02756,-11.38203,11.46919,12.96429,0.00000,0.00000,0.00000,0.00000,0.00000,0.00000,-0.99132,-0.98703,-0.98784,-1.27452,-1.33663,1.43433,"[0.000, 0.000, 0.000, 0.000, 0.000, 0.000]",0.000,0.000,0.000,0.000,0.000,0.000,0.000,0.000,0.000,0.000,0.000,0.000
0.8650,0.99123,0.98689,0.98771,1.47653,1.28372,-1.16653,-0.01837,-0.02728,-0.02756,-11.38203,11.46919,12.96429,0.00000,0.00000,0.00000,0.00000,0.00000,0.00000,-0.99123,-0.98689,-0.98771,-1.47653,-1.28372,1.16653,"[0.000, 0.000, 0.000, 0.000, 0.000, 0.000]",0.000,0.000,0.000,0.000,0.000,0.000,0.000,0.000,0.000,0.000,0.000,0.000
0.8700,0.99114,0.98675,0.98757,1.60003,1.22053,-0.97666,-0.01837,-0.02728,-0.02756,-11.38203,11.46919,12.96429,0.00000,0.00000,0.00000,0.00000,0.00000,0.00000,-0.99114,-0.98675,-0.98757,-1.60003,-1.22053,0.97666,"[0.000, 0.000, 0.000, 0.000, 0.000, 0.000]",0.000,0.000,0.000,0.000,0.000,0.000,0.000,0.000,0.000,0.000,0.000,0.000
0.8750,0.99104,0.98662,0.98743,1.67402,1.15190,-0.83553,-0.01837,-0.02728,-0.02756,-11.38203,11.46919,12.96429,0.00000,0.00000,0.00000,0.00000,0.00000,0.00000,-0.99104,-0.98662,-0.98743,-1.67402,-1.15190,0.83553,"[0.000, 0.000, 0.000, 0.000, 0.000, 0.000]",0.000,0.000,0.000,0.000,0.000,0.000,0.000,0.000,0.000,0.000,0.000,0.000
0.8800,0.99095,0.98648,0.98729,1.71706,1.08035,-0.72432,-0.01837,-0.02728,-0.02756,-11.38203,11.46919,12.96429,0.00000,0.00000,0.00000,0.00000,0.00000,0.00000,-0.99095,-0.98648,-0.98729,-1.71706,-1.08035,0.72432,"[0.000, 0.000, 0.000, 0.000, 0.000, 0.000]",0.000,0.000,0.000,0.000,0.000,0.000,0.000,0.000,0.000,0.000,0.000,0.000
0.8850,0.99086,0.98634,0.98716,1.74001,1.00726,-0.63197,-0.01837,-0.02728,-0.02756,-11.38203,11.46919,12.96429,0.00000,0.00000,0.00000,0.00000,0.00000,0.00000,-0.99086,-0.98634,-0.98716,-1.74001,-1.00726,0.63197,"[0.000, 0.000, 0.000, 0.000, 0.000, 0.000]",0.000,0.000,0.000,0.000,0.000,0.000,0.000,0.000,0.000,0.000,0.000,0.000
0.8900,0.99077,0.98621,0.98702,1.74922,0.93346,-0.55186,-0.01837,-0.02728,-0.02756,-11.38203,11.46919,12.96429,0.00000,0.00000,0.00000,0.00000,0.00000,0.00000,-0.99077,-0.98621,-0.98702,-1.74922,-0.93346,0.55186,"[0.000, 0.000, 0.000, 0.000, 0.000, 0.000]",0.000,0.000,0.000,0.000,0.000,0.000,0.000,0.000,0.000,0.000,0.000,0.000
0.8950,0.99068,0.98607,0.98688,1.74855,0.85947,-0.47987,-0.01837,-0.02728,-0.02756,-11.38203,11.46919,12.96429,0.00000,0.00000,0.00000,0.00000,0.00000,0.00000,-0.99068,-0.98607,-0.98688,-1.74855,-0.85947,0.47987,"[0.000, 0.000, 0.000, 0.000, 0.000, 0.000]",0.000,0.000,0.000,0.000,0.000,0.000,0.000,0.000,0.000,0.000,0.000,0.000
0.9000,0.99059,0.98593,0.98674,1.74041,0.78569,-0.41333,-0.01837,-0.02728,-0.02756,-11.38203,11.46919,12.96429,0.00000,0.00000,0.00000,0.00000,0.00000,0.00000,-0.99059,-0.98593,-0.98674,-1.74041,-0.78569,0.41333,"[0.000, 0.000, 0.000, 0.000, 0.000, 0.000]",0.000,0.000,0.000,0.000,0.000,0.000,0.000,0.000,0.000,0.000,0.000,0.000
0.9050,0.99049,0.98580,0.98660,1.72635,0.71242,-0.35040,-0.01837,-0.02728,-0.02756,-11.38203,11.46919,12.96429,0.00000,0.00000,0.00000,0.00000,0.00000,0.00000,-0.99049,-0.98580,-0.98660,-1.72635,-0.71242,0.35040,"[0.000, 0.000, 0.000, 0.000, 0.000, 0.000]",0.000,0.000,0.000,0.000,0.000,0.000,0.000,0.000,0.000,0.000,0.000,0.000
