Time,Current_X,Current_Y,Current_Z,Current_Roll,Current_Pitch,Current_Yaw,Current_VX,Current_VY,Current_VZ,Current_WX,Current_WY,Current_WZ,Target_X,Target_Y,Target_Z,Target_Roll,Target_Pitch,Target_Yaw,Error_X,Error_Y,Error_Z,Error_Roll,Error_Pitch,Error_Yaw,Command_Vector,Thruster_1_Cmd,Thruster_1_Val,Thruster_2_Cmd,Thruster_2_Val,Thruster_3_Cmd,Thruster_3_Val,Thruster_4_Cmd,Thruster_4_Val,Thruster_5_Cmd,Thruster_5_Val,Thruster_6_Cmd,Thruster_6_Val
0.0050,1.00000,1.00000,1.00000,0.00000,0.00000,1.57080,0.00000,0.00000,0.00000,0.00000,0.00000,0.00000,0.00000,0.00000,0.00000,0.00000,0.00000,1.57080,-1.00000,-1.00000,-1.00000,0.00000,0.00000,0.00000,"[0.000, 0.000, 0.000, 0.000, 0.000, 0.000]",0.000,0.000,0.000,0.000,0.000,0.000,0.000,0.000,0.000,0.000,0.000,0.000
0.0100,1.00000,1.00000,1.00000,0.00000,0.00000,1.57080,0.00000,0.00000,0.00000,0.00000,0.00000,0.00000,0.00000,0.00000,0.00000,0.00000,0.00000,1.57080,-1.00000,-1.00000,-1.00000,0.00000,0.00000,0.00000,"[0.000, 0.000, 0.000, 0.000, 0.000, 0.000]",0.000,0.000,0.000,0.000,0.000,0.000,0.000,0.000,0.000,0.000,0.000,0.000
0.0150,1.00000,1.00000,1.00000,0.00000,0.00000,1.57080,0.00000,0.00000,0.00000,0.00000,0.00000,0.00000,0.00000,0.00000,0.00000,0.00000,0.00000,1.57080,-1.00000,-1.00000,-1.00000,0.00000,0.00000,0.00000,"[0.000, 0.000, 0.000, 0.000, 0.000, 0.000]",0.000,0.000,0.000,0.000,0.000,0.000,0.000,0.000,0.000,0.000,0.000,0.000
0.0200,1.00000,1.00000,1.00000,0.00000,0.00000,1.57080,0.00000,0.00000,0.00000,0.00000,0.00000,0.00000,0.00000,0.00000,0.00000,0.00000,0.00000,1.57080,-1.00000,-1.00000,-1.00000,0.00000,0.00000,0.00000,"[0.000, 0.000, 0.000, 0.000, 0.000, 0.000]",0.000,0.000,0.000,0.000,0.000,0.000,0.000,0.000,0.000,0.000,0.000,0.000
0.0250,1.00000,1.00000,1.00000,0.00000,0.00000,1.57080,0.00000,0.00000,0.00000,0.00000,0.00000,0.00000,0.00000,0.00000,0.00000,0.00000,0.00000,1.57080,-1.00000,-1.00000,-1.00000,0.00000,0.00000,0.00000,"[0.000, 0.000, 0.000, 0.000, 0.000, 0.000]",0.000,0.000,0.000,0.000,0.000,0.000,0.000,0.000,0.000,0.000,0.000,0.000
0.0300,1.00000,1.00000,1.00000,0.00000,0.00000,1.57080,0.00000,0.00000,0.00000,0.00000,0.00000,0.00000,0.00000,0.00000,0.00000,0.00000,0.00000,1.57080,-1.00000,-1.00000,-1.00000,0.00000,0.00000,0.00000,"[0.000, 0.000, 0.000, 0.000, 0.000, 0.000]",0.000,0.000,0.000,0.000,0.000,0.000,0.000,0.000,0.000,0.000,0.000,0.000
0.0350,1.00000,1.00000,1.00000,0.00000,0.00000,1.57080,0.00000,0.00000,0.00000,0.00000,0.00000,0.00000,0.00000,0.00000,0.00000,0.00000,0.00000,1.57080,-1.00000,-1.00000,-1.00000,0.00000,0.00000,0.00000,"[0.000, 0.000, 0.000, 0.000, 0.000, 0.000]",0.000,0.000,0.000,0.000,0.000,0.000,0.000,0.000,0.000,0.000,0.000,0.000
0.0400,1.00000,1.00000,1.00000,0.00000,0.00000,1.57080,0.00000,0.00000,0.00000,0.00000,0.00000,0.00000,0.00000,0.00000,0.00000,0.00000,0.00000,1.57080,-1.00000,-1.00000,-1.00000,0.00000,0.00000,0.00000,"[0.000, 0.000, 0.000, 0.000, 0.000, 0.000]",0.000,0.000,0.000,0.000,0.000,0.000,0.000,0.000,0.000,0.000,0.000,0.000
0.0450,1.00000,1.00000,1.00000,0.00000,0.00000,1.57080,0.00000,0.00000,0.00000,0.00000,0.00000,0.00000,0.00000,0.00000,0.00000,0.00000,0.00000,1.57080,-1.00000,-1.00000,-1.00000,0.00000,0.00000,0.00000,"[0.000, 0.000, 0.000, 0.000, 0.000, 0.000]",0.000,0.000,0.000,0.000,0.000,0.000,0.000,0.000,0.000,0.000,0.000,0.000
0.0500,1.00000,1.00000,1.00000,0.00001,-0.00001,1.57078,-0.00022,-0.00022,-0.00023,0.00595,-0.00595,-0.00595,0.00000,0.00000,0.00000,0.00000,0.00000,0.00000,-1.00000,-1.00000,-1.00000,-0.00001,0.00001,-1.57078,"[1.000, 0.000, 0.000, 1.000, 1.000, 0.000]",1.000,1.000,0.000,0.000,0.000,0.000,1.000,1.000,1.000,1.000,0.000,0.000
0.0550,1.00000,1.00000,1.00000,0.00006,-0.00006,1.57074,-0.00044,-0.00044,-0.00047,0.01189,-0.01189,-0.01189,0.00000,0.00000,0.00000,0.00000,0.00000,0.00000,-1.00000,-1.00000,-1.00000,-0.00006,0.00006,-1.57074,"[1.000, 0.000, 0.000, 1.000, 1.000, 0.000]",1.000,1.000,0.000,0.000,0.000,0.000,1.000,1.000,1.000,1.000,0.000,0.000
0.0600,1.00000,1.00000,0.99999,0.00013,-0.00013,1.57066,-0.00066,-0.00066,-0.00070,0.01784,-0.01784,-0.01784,0.00000,0.00000,0.00000,0.00000,0.00000,0.00000,-1.00000,-1.00000,-0.99999,-0.00013,0.00013,-1.57066,"[1.000, 0.000, 0.000, 1.000, 1.000, 0.000]",1.000,1.000,0.000,0.000,0.000,0.000,1.000,1.000,1.000,1.000,0.000,0.000
0.0650,0.99999,0.99999,0.99999,0.00024,-0.00024,1.57056,-0.00088,-0.00088,-0.00094,0.02378,-0.02378,-0.02378,0.00000,0.00000,0.00000,0.00000,0.00000,0.00000,-0.99999,-0.99999,-0.99999,-0.00024,0.00024,-1.57056,"[1.000, 0.000, 0.000, 1.000, 1.000, 0.000]",1.000,1.000,0.000,0.000,0.000,0.000,1.000,1.000,1.000,1.000,0.000,0.000
0.0700,0.99999,0.99999,0.99999,0.00037,-0.00037,1.57042,-0.00110,-0.00110,-0.00117,0.02973,-0.02973,-0.02973,0.00000,0.00000,0.00000,0.00000,0.00000,0.00000,-0.99999,-0.99999,-0.99999,-0.00037,0.00037,-1.57042,"[1.000, 0.000, 0.000, 1.000, 1.000, 0.000]",1.000,1.000,0.000,0.000,0.000,0.000,1.000,1.000,1.000,1.000,0.000,0.000
0.0750,0.99998,0.99998,0.99998,0.00054,-0.00053,1.57026,-0.00131,-0.00132,-0.00141,0.03567,-0.03567,-0.03567,0.00000,0.00000,0.00000,0.00000,0.00000,0.00000,-0.99998,-0.99998,-0.99998,-0.00054,0.00053,-1.57026,"[1.000, 0.000, 0.000, 1.000, 1.000, 0.000]",1.000,1.000,0.000,0.000,0.000,0.000,1.000,1.000,1.000,1.000,0.000,0.000
0.0800,0.99997,0.99997,0.99997,0.00073,-0.00073,1.57007,-0.00153,-0.00154,-0.00164,0.04162,-0.04162,-0.04162,0.00000,0.00000,0.00000,0.00000,0.00000,0.00000,-0.99997,-0.99997,-0.99997,-0.00073,0.00073,-1.57007,"[1.000, 0.000, 0.000, 1.000, 1.000, 0.000]",1.000,1.000,0.000,0.000,0.000,0.000,1.000,1.000,1.000,1.000,0.000,0.000
0.0850,0.99996,0.99996,0.99996,0.00095,-0.00095,1.56984,-0.00175,-0.00176,-0.00188,0.04756,-0.04756,-0.04756,0.00000,0.00000,0.00000,0.00000,0.00000,0.00000,-0.99996,-0.99996,-0.99996,-0.00095,0.00095,-1.56984,"[1.000, 0.000, 0.000, 1.000, 1.000, 0.000]",1.000,1.000,0.000,0.000,0.000,0.000,1.000,1.000,1.000,1.000,0.000,0.000
0.0900,0.99996,0.99996,0.99995,0.00120,-0.00120,1.56959,-0.00197,-0.00199,-0.00211,0.05351,-0.05351,-0.05351,0.00000,0.00000,0.00000,0.00000,0.00000,0.00000,-0.99996,-0.99996,-0.99995,-0.00120,0.00120,-1.56959,"[1.000, 0.000, 0.000, 1.000, 1.000, 0.000]",1.000,1.000,0.000,0.000,0.000,0.000,1.000,1.000,1.000,1.000,0.000,0.000
0.0950,0.99995,0.99994,0.99994,0.00149,-0.00149,1.56931,-0.00219,-0.00221,-0.00234,0.05945,-0.05945,-0.05945,0.00000,0.00000,0.00000,0.00000,0.00000,0.00000,-0.99995,-0.99994,-0.99994,-0.00149,0.00149,-1.56931,"[1.000, 0.000, 0.000, 1.000, 1.000, 0.000]",1.000,1.000,0.000,0.000,0.000,0.000,1.000,1.000,1.000,1.000,0.000,0.000
0.1000,0.99993,0.99993,0.99993,0.00180,-0.00180,1.56900,-0.00241,-0.00243,-0.00258,0.06540,-0.06540,-0.06539,0.00000,0.00000,0.00000,0.00000,0.00000,0.00000,-0.99993,-0.99993,-0.99993,-0.00180,0.00180,-1.56900,"[1.000, 0.000, 0.000, 1.000, 1.000, 0.000]",1.000,1.000,0.000,0.000,0.000,0.000,1.000,1.000,1.000,1.000,0.000,0.000
0.1050,0.99992,0.99992,0.99992,0.00214,-0.00214,1.56865,-0.00263,-0.00265,-0.00281,0.07134,-0.07134,-0.07132,0.00000,0.00000,0.00000,0.00000,0.00000,0.00000,-0.99992,-0.99992,-0.99992,-0.00214,0.00214,-1.56865,"[1.000, 0.000, 0.000, 1.000, 1.000, 0.000]",1.000,1.000,0.000,0.000,0.000,0.000,1.000,1.000,1.000,1.000,0.000,0.000
0.1100,0.99991,0.99991,0.99990,0.00252,-0.00251,1.56828,-0.00285,-0.00287,-0.00305,0.07729,-0.07729,-0.07726,0.00000,0.00000,0.00000,0.00000,0.00000,0.00000,-0.99991,-0.99991,-0.99990,-0.00252,0.00251,-1.56828,"[1.000, 0.000, 0.000, 1.000, 1.000, 0.000]",1.000,1.000,0.000,0.000,0.000,0.000,1.000,1.000,1.000,1.000,0.000,0.000
0.1150,0.99989,0.99989,0.99989,0.00292,-0.00291,1.56788,-0.00307,-0.00308,-0.00328,0.08323,-0.08323,-0.08319,0.00000,0.00000,0.00000,0.00000,0.00000,0.00000,-0.99989,-0.99989,-0.99989,-0.00292,0.00291,-1.56788,"[1.000, 0.000, 0.000, 1.000, 1.000, 0.000]",1.000,1.000,0.000,0.000,0.000,0.000,1.000,1.000,1.000,1.000,0.000,0.000
0.1200,0.99988,0.99988,0.99987,0.00335,-0.00334,1.56745,-0.00329,-0.00330,-0.00352,0.08918,-0.08918,-0.08913,0.00000,0.00000,0.00000,0.00000,0.00000,0.00000,-0.99988,-0.99988,-0.99987,-0.00335,0.00334,-1.56745,"[1.000, 0.000, 0.000, 1.000, 1.000, 0.000]",1.000,1.000,0.000,0.000,0.000,0.000,1.000,1.000,1.000,1.000,0.000,0.000
0.1250,0.99986,0.99986,0.99985,0.00381,-0.00380,1.56699,-0.00351,-0.00352,-0.00375,0.09512,-0.09512,-0.09506,0.00000,0.00000,0.00000,0.00000,0.00000,0.00000,-0.99986,-0.99986,-0.99985,-0.00381,0.00380,-1.56699,"[1.000, 0.000, 0.000, 1.000, 1.000, 0.000]",1.000,1.000,0.000,0.000,0.000,0.000,1.000,1.000,1.000,1.000,0.000,0.000
0.1300,0.99984,0.99984,0.99983,0.00430,-0.00429,1.56649,-0.00373,-0.00374,-0.00399,0.10107,-0.10107,-0.10100,0.00000,0.00000,0.00000,0.00000,0.00000,0.00000,-0.99984,-0.99984,-0.99983,-0.00430,0.00429,-1.56649,"[1.000, 0.000, 0.000, 1.000, 1.000, 0.000]",1.000,1.000,0.000,0.000,0.000,0.000,1.000,1.000,1.000,1.000,0.000,0.000
0.1350,0.99982,0.99982,0.99981,0.00483,-0.00480,1.56597,-0.00395,-0.00396,-0.00422,0.10702,-0.10702,-0.10693,0.00000,0.00000,0.00000,0.00000,0.00000,0.00000,-0.99982,-0.99982,-0.99981,-0.00483,0.00480,-1.56597,"[1.000, 0.000, 0.000, 1.000, 1.000, 0.000]",1.000,1.000,0.000,0.000,0.000,0.000,1.000,1.000,1.000,1.000,0.000,0.000
0.1400,0.99980,0.99980,0.99979,0.00538,-0.00535,1.56542,-0.00418,-0.00418,-0.00445,0.11296,-0.11296,-0.11287,0.00000,0.00000,0.00000,0.00000,0.00000,0.00000,-0.99980,-0.99980,-0.99979,-0.00538,0.00535,-1.56542,"[1.000, 0.000, 0.000, 1.000, 1.000, 0.000]",1.000,1.000,0.000,0.000,0.000,0.000,1.000,1.000,1.000,1.000,0.000,0.000
0.1450,0.99978,0.99978,0.99977,0.00596,-0.00593,1.56484,-0.00440,-0.00440,-0.00469,0.11891,-0.11891,-0.11880,0.00000,0.00000,0.00000,0.00000,0.00000,0.00000,-0.99978,-0.99978,-0.99977,-0.00596,0.00593,-1.56484,"[1.000, 0.000, 0.000, 1.000, 1.000, 0.000]",1.000,1.000,0.000,0.000,0.000,0.000,1.000,1.000,1.000,1.000,0.000,0.000
0.1500,0.99976,0.99976,0.99974,0.00655,-0.00651,1.56422,-0.00462,-0.00462,-0.00492,0.11607,-0.11669,-0.12474,0.00000,0.00000,0.00000,0.00000,0.00000,0.00000,-0.99976,-0.99976,-0.99974,-0.00655,0.00651,-1.56422,"[1.000, 0.000, 0.000, 1.000, 1.000, 0.000]",1.000,1.000,0.000,0.000,0.000,0.000,1.000,1.000,1.000,1.000,0.000,0.000
0.1550,0.99973,0.99973,0.99972,0.00713,-0.00709,1.56358,-0.00484,-0.00483,-0.00516,0.11323,-0.11447,-0.13068,0.00000,0.00000,0.00000,0.00000,0.00000,0.00000,-0.99973,-0.99973,-0.99972,-0.00713,0.00709,-1.56358,"[1.000, 0.000, 0.000, 1.000, 1.000, 0.000]",1.000,1.000,0.000,0.000,0.000,0.000,1.000,1.000,1.000,1.000,0.000,0.000
0.1600,0.99971,0.99971,0.99969,0.00770,-0.00765,1.56291,-0.00506,-0.00505,-0.00539,0.11039,-0.11225,-0.13662,0.00000,0.00000,0.00000,0.00000,0.00000,0.00000,-0.99971,-0.99971,-0.99969,-0.00770,0.00765,-1.56291,"[1.000, 0.000, 0.000, 1.000, 1.000, 0.000]",1.000,1.000,0.000,0.000,0.000,0.000,1.000,1.000,1.000,1.000,0.000,0.000
0.1650,0.99968,0.99968,0.99966,0.00825,-0.00820,1.56221,-0.00529,-0.00527,-0.00563,0.10755,-0.11003,-0.14256,0.00000,0.00000,0.00000,0.00000,0.00000,0.00000,-0.99968,-0.99968,-0.99966,-0.00825,0.00820,-1.56221,"[1.000, 0.000, 0.000, 1.000, 1.000, 0.000]",1.000,1.000,0.000,0.000,0.000,0.000,1.000,1.000,1.000,1.000,0.000,0.000
0.1700,0.99966,0.99966,0.99963,0.00878,-0.00874,1.56147,-0.00551,-0.00549,-0.00586,0.10472,-0.10781,-0.14850,0.00000,0.00000,0.00000,0.00000,0.00000,0.00000,-0.99966,-0.99966,-0.99963,-0.00878,0.00874,-1.56147,"[1.000, 0.000, 0.000, 1.000, 1.000, 0.000]",1.000,1.000,0.000,0.000,0.000,0.000,1.000,1.000,1.000,1.000,0.000,0.000
0.1750,0.99963,0.99963,0.99960,0.00931,-0.00926,1.56071,-0.00573,-0.00570,-0.00610,0.10188,-0.10559,-0.15444,0.00000,0.00000,0.00000,0.00000,0.00000,0.00000,-0.99963,-0.99963,-0.99960,-0.00931,0.00926,-1.56071,"[1.000, 0.000, 0.000, 1.000, 1.000, 0.000]",1.000,1.000,0.000,0.000,0.000,0.000,1.000,1.000,1.000,1.000,0.000,0.000
0.1800,0.99960,0.99960,0.99957,0.00982,-0.00978,1.55992,-0.00595,-0.00592,-0.00633,0.09904,-0.10337,-0.16038,0.00000,0.00000,0.00000,0.00000,0.00000,0.00000,-0.99960,-0.99960,-0.99957,-0.00982,0.00978,-1.55992,"[1.000, 0.000, 0.000, 1.000, 1.000, 0.000]",1.000,1.000,0.000,0.000,0.000,0.000,1.000,1.000,1.000,1.000,0.000,0.000
0.1850,0.99957,0.99957,0.99954,0.01031,-0.01028,1.55910,-0.00618,-0.00613,-0.00656,0.09620,-0.10115,-0.16632,0.00000,0.00000,0.00000,0.00000,0.00000,0.00000,-0.99957,-0.99957,-0.99954,-0.01031,0.01028,-1.55910,"[1.000, 0.000, 0.000, 1.000, 1.000, 0.000]",1.000,1.000,0.000,0.000,0.000,0.000,1.000,1.000,1.000,1.000,0.000,0.000
0.1900,0.99954,0.99954,0.99951,0.01080,-0.01077,1.55825,-0.00640,-0.00635,-0.00680,0.09337,-0.09893,-0.17226,0.00000,0.00000,0.00000,0.00000,0.00000,0.00000,-0.99954,-0.99954,-0.99951,-0.01080,0.01077,-1.55825,"[1.000, 0.000, 0.000, 1.000, 1.000, 0.000]",1.000,1.000,0.000,0.000,0.000,0.000,1.000,1.000,1.000,1.000,0.000,0.000
0.1950,0.99951,0.99951,0.99947,0.01127,-0.01125,1.55736,-0.00663,-0.00657,-0.00703,0.09053,-0.09671,-0.17820,0.00000,0.00000,0.00000,0.00000,0.00000,0.00000,-0.99951,-0.99951,-0.99947,-0.01127,0.01125,-1.55736,"[1.000, 0.000, 0.000, 1.000, 1.000, 0.000]",1.000,1.000,0.000,0.000,0.000,0.000,1.000,1.000,1.000,1.000,0.000,0.000
0.2000,0.99947,0.99947,0.99944,0.01173,-0.01173,1.55645,-0.00685,-0.00678,-0.00727,0.09193,-0.09823,-0.18414,0.00000,0.00000,0.00000,0.00000,0.00000,0.00000,-0.99947,-0.99947,-0.99944,-0.01173,0.01173,-1.55645,"[1.000, 0.000, 0.000, 1.000, 1.000, 0.000]",1.000,1.000,0.000,0.000,0.000,0.000,1.000,1.000,1.000,1.000,0.000,0.000
0.2050,0.99944,0.99944,0.99940,0.01221,-0.01221,1.55551,-0.00708,-0.00700,-0.00750,0.09333,-0.09974,-0.19008,0.00000,0.00000,0.00000,0.00000,0.00000,0.00000,-0.99944,-0.99944,-0.99940,-0.01221,0.01221,-1.55551,"[1.000, 0.000, 0.000, 1.000, 1.000, 0.000]",1.000,1.000,0.000,0.000,0.000,0.000,1.000,1.000,1.000,1.000,0.000,0.000
0.2100,0.99940,0.99940,0.99936,0.01269,-0.01270,1.55454,-0.00730,-0.00721,-0.00774,0.09473,-0.10126,-0.19602,0.00000,0.00000,0.00000,0.00000,0.00000,0.00000,-0.99940,-0.99940,-0.99936,-0.01269,0.01270,-1.55454,"[1.000, 0.000, 0.000, 1.000, 1.000, 0.000]",1.000,1.000,0.000,0.000,0.000,0.000,1.000,1.000,1.000,1.000,0.000,0.000
0.2150,0.99936,0.99937,0.99932,0.01318,-0.01320,1.55354,-0.00753,-0.00742,-0.00797,0.09613,-0.10277,-0.20196,0.00000,0.00000,0.00000,0.00000,0.00000,0.00000,-0.99936,-0.99937,-0.99932,-0.01318,0.01320,-1.55354,"[1.000, 0.000, 0.000, 1.000, 1.000, 0.000]",1.000,1.000,0.000,0.000,0.000,0.000,1.000,1.000,1.000,1.000,0.000,0.000
0.2200,0.99933,0.99933,0.99928,0.01368,-0.01370,1.55251,-0.00775,-0.00764,-0.00821,0.09753,-0.10428,-0.20790,0.00000,0.00000,0.00000,0.00000,0.00000,0.00000,-0.99933,-0.99933,-0.99928,-0.01368,0.01370,-1.55251,"[1.000, 0.000, 0.000, 1.000, 1.000, 0.000]",1.000,1.000,0.000,0.000,0.000,0.000,1.000,1.000,1.000,1.000,0.000,0.000
0.2250,0.99929,0.99929,0.99924,0.01418,-0.01421,1.55144,-0.00798,-0.00785,-0.00844,0.09893,-0.10580,-0.21384,0.00000,0.00000,0.00000,0.00000,0.00000,0.00000,-0.99929,-0.99929,-0.99924,-0.01418,0.01421,-1.55144,"[1.000, 0.000, 0.000, 1.000, 1.000, 0.000]",1.000,1.000,0.000,0.000,0.000,0.000,1.000,1.000,1.000,1.000,0.000,0.000
0.2300,0.99925,0.99925,0.99920,0.01470,-0.01473,1.55035,-0.00820,-0.00806,-0.00867,0.10033,-0.10731,-0.21978,0.00000,0.00000,0.00000,0.00000,0.00000,0.00000,-0.99925,-0.99925,-0.99920,-0.01470,0.01473,-1.55035,"[1.000, 0.000, 0.000, 1.000, 1.000, 0.000]",1.000,1.000,0.000,0.000,0.000,0.000,1.000,1.000,1.000,1.000,0.000,0.000
0.2350,0.99920,0.99921,0.99915,0.01522,-0.01525,1.54923,-0.00843,-0.00828,-0.00891,0.10174,-0.10883,-0.22572,0.00000,0.00000,0.00000,0.00000,0.00000,0.00000,-0.99920,-0.99921,-0.99915,-0.01522,0.01525,-1.54923,"[1.000, 0.000, 0.000, 1.000, 1.000, 0.000]",1.000,1.000,0.000,0.000,0.000,0.000,1.000,1.000,1.000,1.000,0.000,0.000
0.2400,0.99916,0.99917,0.99911,0.01575,-0.01579,1.54808,-0.00866,-0.00849,-0.00914,0.10314,-0.11034,-0.23166,0.00000,0.00000,0.00000,0.00000,0.00000,0.00000,-0.99916,-0.99917,-0.99911,-0.01575,0.01579,-1.54808,"[1.000, 0.000, 0.000, 1.000, 1.000, 0.000]",1.000,1.000,0.000,0.000,0.000,0.000,1.000,1.000,1.000,1.000,0.000,0.000
0.2450,0.99912,0.99912,0.99906,0.01629,-0.01632,1.54690,-0.00889,-0.00870,-0.00938,0.10454,-0.11185,-0.23760,0.00000,0.00000,0.00000,0.00000,0.00000,0.00000,-0.99912,-0.99912,-0.99906,-0.01629,0.01632,-1.54690,"[1.000, 0.000, 0.000, 1.000, 1.000, 0.000]",1.000,1.000,0.000,0.000,0.000,0.000,1.000,1.000,1.000,1.000,0.000,0.000
0.2500,0.99907,0.99908,0.99901,0.01683,-0.01686,1.54569,-0.00911,-0.00891,-0.00961,0.10305,-0.11080,-0.24354,0.00000,0.00000,0.00000,0.00000,0.00000,0.00000,-0.99907,-0.99908,-0.99901,-0.01683,0.01686,-1.54569,"[1.000, 0.000, 0.000, 1.000, 1.000, 0.000]",1.000,1.000,0.000,0.000,0.000,0.000,1.000,1.000,1.000,1.000,0.000,0.000
0.2550,0.99903,0.99903,0.99897,0.01736,-0.01739,1.54444,-0.00934,-0.00912,-0.00985,0.10157,-0.10975,-0.24948,0.00000,0.00000,0.00000,0.00000,0.00000,0.00000,-0.99903,-0.99903,-0.99897,-0.01736,0.01739,-1.54444,"[1.000, 0.000, 0.000, 1.000, 1.000, 0.000]",1.000,1.000,0.000,0.000,0.000,0.000,1.000,1.000,1.000,1.000,0.000,0.000
0.2600,0.99898,0.99899,0.99892,0.01789,-0.01791,1.54317,-0.00957,-0.00933,-0.01008,0.10009,-0.10870,-0.25543,0.00000,0.00000,0.00000,0.00000,0.00000,0.00000,-0.99898,-0.99899,-0.99892,-0.01789,0.01791,-1.54317,"[1.000, 0.000, 0.000, 1.000, 1.000, 0.000]",1.000,1.000,0.000,0.000,0.000,0.000,1.000,1.000,1.000,1.000,0.000,0.000
0.2650,0.99893,0.99894,0.99887,0.01841,-0.01843,1.54187,-0.00980,-0.00954,-0.01032,0.09860,-0.10765,-0.26137,0.00000,0.00000,0.00000,0.00000,0.00000,0.00000,-0.99893,-0.99894,-0.99887,-0.01841,0.01843,-1.54187,"[1.000, 0.000, 0.000, 1.000, 1.000, 0.000]",1.000,1.000,0.000,0.000,0.000,0.000,1.000,1.000,1.000,1.000,0.000,0.000
0.2700,0.99888,0.99889,0.99881,0.01892,-0.01894,1.54054,-0.01003,-0.00975,-0.01055,0.09712,-0.10659,-0.26731,0.00000,0.00000,0.00000,0.00000,0.00000,0.00000,-0.99888,-0.99889,-0.99881,-0.01892,0.01894,-1.54054,"[1.000, 0.000, 0.000, 1.000, 1.000, 0.000]",1.000,1.000,0.000,0.000,0.000,0.000,1.000,1.000,1.000,1.000,0.000,0.000
0.2750,0.99883,0.99884,0.99876,0.01943,-0.01944,1.53918,-0.01026,-0.00996,-0.01078,0.09564,-0.10554,-0.27325,0.00000,0.00000,0.00000,0.00000,0.00000,0.00000,-0.99883,-0.99884,-0.99876,-0.01943,0.01944,-1.53918,"[1.000, 0.000, 0.000, 1.000, 1.000, 0.000]",1.000,1.000,0.000,0.000,0.000,0.000,1.000,1.000,1.000,1.000,0.000,0.000
0.2800,0.99878,0.99879,0.99871,0.01993,-0.01994,1.53778,-0.01049,-0.01017,-0.01102,0.09415,-0.10449,-0.27919,0.00000,0.00000,0.00000,0.00000,0.00000,0.00000,-0.99878,-0.99879,-0.99871,-0.01993,0.01994,-1.53778,"[1.000, 0.000, 0.000, 1.000, 1.000, 0.000]",1.000,1.000,0.000,0.000,0.000,0.000,1.000,1.000,1.000,1.000,0.000,0.000
0.2850,0.99873,0.99874,0.99865,0.02043,-0.02043,1.53636,-0.01072,-0.01038,-0.01125,0.09267,-0.10344,-0.28513,0.00000,0.00000,0.00000,0.00000,0.00000,0.00000,-0.99873,-0.99874,-0.99865,-0.02043,0.02043,-1.53636,"[1.000, 0.000, 0.000, 1.000, 1.000, 0.000]",1.000,1.000,0.000,0.000,0.000,0.000,1.000,1.000,1.000,1.000,0.000,0.000
0.2900,0.99867,0.99869,0.99859,0.02092,-0.02092,1.53491,-0.01095,-0.01059,-0.01149,0.09119,-0.10238,-0.29108,0.00000,0.00000,0.00000,0.00000,0.00000,0.00000,-0.99867,-0.99869,-0.99859,-0.02092,0.02092,-1.53491,"[1.000, 0.000, 0.000, 1.000, 1.000, 0.000]",1.000,1.000,0.000,0.000,0.000,0.000,1.000,1.000,1.000,1.000,0.000,0.000
0.2950,0.99862,0.99864,0.99853,0.02140,-0.02140,1.53343,-0.01118,-0.01080,-0.01172,0.08970,-0.10133,-0.29702,0.00000,0.00000,0.00000,0.00000,0.00000,0.00000,-0.99862,-0.99864,-0.99853,-0.02140,0.02140,-1.53343,"[1.000, 0.000, 0.000, 1.000, 1.000, 0.000]",1.000,1.000,0.000,0.000,0.000,0.000,1.000,1.000,1.000,1.000,0.000,0.000
0.3000,0.99856,0.99858,0.99848,0.02188,-0.02187,1.53192,-0.01141,-0.01100,-0.01196,0.09020,-0.10203,-0.30296,0.00000,0.00000,0.00000,0.00000,0.00000,0.00000,-0.99856,-0.99858,-0.99848,-0.02188,0.02187,-1.53192,"[1.000, 0.000, 0.000, 1.000, 1.000, 0.000]",1.000,1.000,0.000,0.000,0.000,0.000,1.000,1.000,1.000,1.000,0.000,0.000
0.3050,0.99850,0.99853,0.99842,0.02237,-0.02235,1.53038,-0.01165,-0.01121,-0.01219,0.09069,-0.10273,-0.30891,0.00000,0.00000,0.00000,0.00000,0.00000,0.00000,-0.99850,-0.99853,-0.99842,-0.02237,0.02235,-1.53038,"[1.000, 0.000, 0.000, 1.000, 1.000, 0.000]",1.000,1.000,0.000,0.000,0.000,0.000,1.000,1.000,1.000,1.000,0.000,0.000
0.3100,0.99844,0.99847,0.99835,0.02286,-0.02283,1.52881,-0.01188,-0.01142,-0.01243,0.09119,-0.10344,-0.31485,0.00000,0.00000,0.00000,0.00000,0.00000,0.00000,-0.99844,-0.99847,-0.99835,-0.02286,0.02283,-1.52881,"[1.000, 0.000, 0.000, 1.000, 1.000, 0.000]",1.000,1.000,0.000,0.000,0.000,0.000,1.000,1.000,1.000,1.000,0.000,0.000
0.3150,0.99838,0.99841,0.99829,0.02335,-0.02331,1.52721,-0.01211,-0.01162,-0.01266,0.09168,-0.10414,-0.32080,0.00000,0.00000,0.00000,0.00000,0.00000,0.00000,-0.99838,-0.99841,-0.99829,-0.02335,0.02331,-1.52721,"[1.000, 0.000, 0.000, 1.000, 1.000, 0.000]",1.000,1.000,0.000,0.000,0.000,0.000,1.000,1.000,1.000,1.000,0.000,0.000
0.3200,0.99832,0.99835,0.99823,0.02385,-0.02380,1.52558,-0.01235,-0.01183,-0.01289,0.09217,-0.10484,-0.32674,0.00000,0.00000,0.00000,0.00000,0.00000,0.00000,-0.99832,-0.99835,-0.99823,-0.02385,0.02380,-1.52558,"[1.000, 0.000, 0.000, 1.000, 1.000, 0.000]",1.000,1.000,0.000,0.000,0.000,0.000,1.000,1.000,1.000,1.000,0.000,0.000
0.3250,0.99826,0.99829,0.99816,0.02435,-0.02428,1.52391,-0.01258,-0.01203,-0.01313,0.09267,-0.10554,-0.33269,0.00000,0.00000,0.00000,0.00000,0.00000,0.00000,-0.99826,-0.99829,-0.99816,-0.02435,0.02428,-1.52391,"[1.000, 0.000, 0.000, 1.000, 1.000, 0.000]",1.000,1.000,0.000,0.000,0.000,0.000,1.000,1.000,1.000,1.000,0.000,0.000
0.3300,0.99820,0.99823,0.99810,0.02486,-0.02477,1.52222,-0.01282,-0.01224,-0.01336,0.09316,-0.10624,-0.33863,0.00000,0.00000,0.00000,0.00000,0.00000,0.00000,-0.99820,-0.99823,-0.99810,-0.02486,0.02477,-1.52222,"[1.000, 0.000, 0.000, 1.000, 1.000, 0.000]",1.000,1.000,0.000,0.000,0.000,0.000,1.000,1.000,1.000,1.000,0.000,0.000
0.3350,0.99813,0.99817,0.99803,0.02537,-0.02526,1.52050,-0.01305,-0.01244,-0.01360,0.09366,-0.10694,-0.34458,0.00000,0.00000,0.00000,0.00000,0.00000,0.00000,-0.99813,-0.99817,-0.99803,-0.02537,0.02526,-1.52050,"[1.000, 0.000, 0.000, 1.000, 1.000, 0.000]",1.000,1.000,0.000,0.000,0.000,0.000,1.000,1.000,1.000,1.000,0.000,0.000
0.3400,0.99807,0.99811,0.99796,0.02588,-0.02575,1.51875,-0.01329,-0.01265,-0.01383,0.09415,-0.10764,-0.35052,0.00000,0.00000,0.00000,0.00000,0.00000,0.00000,-0.99807,-0.99811,-0.99796,-0.02588,0.02575,-1.51875,"[1.000, 0.000, 0.000, 1.000, 1.000, 0.000]",1.000,1.000,0.000,0.000,0.000,0.000,1.000,1.000,1.000,1.000,0.000,0.000
0.3450,0.99800,0.99804,0.99789,0.02640,-0.02625,1.51697,-0.01352,-0.01285,-0.01407,0.09464,-0.10834,-0.35647,0.00000,0.00000,0.00000,0.00000,0.00000,0.00000,-0.99800,-0.99804,-0.99789,-0.02640,0.02625,-1.51697,"[1.000, 0.000, 0.000, 1.000, 1.000, 0.000]",1.000,1.000,0.000,0.000,0.000,0.000,1.000,1.000,1.000,1.000,0.000,0.000
0.3500,0.99793,0.99798,0.99782,0.02692,-0.02674,1.51516,-0.01376,-0.01305,-0.01430,0.09380,-0.10784,-0.36241,0.00000,0.00000,0.00000,0.00000,0.00000,0.00000,-0.99793,-0.99798,-0.99782,-0.02692,0.02674,-1.51516,"[0.999, 0.001, 0.001, 0.999, 0.999, 0.001]",0.999,0.999,0.001,0.001,0.001,0.001,0.999,0.999,0.999,0.999,0.001,0.001
0.3550,0.99786,0.99791,0.99775,0.02744,-0.02723,1.51332,-0.01399,-0.01325,-0.01453,0.09295,-0.10734,-0.36836,0.00000,0.00000,0.00000,0.00000,0.00000,0.00000,-0.99786,-0.99791,-0.99775,-0.02744,0.02723,-1.51332,"[0.999, 0.001, 0.001, 0.999, 0.999, 0.001]",0.999,0.999,0.001,0.001,0.001,0.001,0.999,0.999,0.999,0.999,0.001,0.001
0.3600,0.99779,0.99785,0.99767,0.02795,-0.02771,1.51144,-0.01423,-0.01345,-0.01477,0.09210,-0.10683,-0.37430,0.00000,0.00000,0.00000,0.00000,0.00000,0.00000,-0.99779,-0.99785,-0.99767,-0.02795,0.02771,-1.51144,"[0.999, 0.001, 0.001, 0.999, 0.999, 0.001]",0.999,0.999,0.001,0.001,0.001,0.001,0.999,0.999,0.999,0.999,0.001,0.001
0.3650,0.99772,0.99778,0.99760,0.02846,-0.02819,1.50954,-0.01447,-0.01365,-0.01500,0.09125,-0.10633,-0.38025,0.00000,0.00000,0.00000,0.00000,0.00000,0.00000,-0.99772,-0.99778,-0.99760,-0.02846,0.02819,-1.50954,"[0.999, 0.001, 0.001, 0.999, 0.999, 0.001]",0.999,0.999,0.001,0.001,0.001,0.001,0.999,0.999,0.999,0.999,0.001,0.001
0.3700,0.99765,0.99771,0.99752,0.02897,-0.02866,1.50761,-0.01471,-0.01385,-0.01524,0.09041,-0.10582,-0.38619,0.00000,0.00000,0.00000,0.00000,0.00000,0.00000,-0.99765,-0.99771,-0.99752,-0.02897,0.02866,-1.50761,"[0.999, 0.001, 0.001, 0.999, 0.999, 0.001]",0.999,0.999,0.001,0.001,0.001,0.001,0.999,0.999,0.999,0.999,0.001,0.001
0.3750,0.99757,0.99764,0.99745,0.02948,-0.02914,1.50565,-0.01495,-0.01405,-0.01547,0.08956,-0.10532,-0.39214,0.00000,0.00000,0.00000,0.00000,0.00000,0.00000,-0.99757,-0.99764,-0.99745,-0.02948,0.02914,-1.50565,"[0.999, 0.001, 0.001, 0.999, 0.999, 0.001]",0.999,0.999,0.001,0.001,0.001,0.001,0.999,0.999,0.999,0.999,0.001,0.001
0.3800,0.99750,0.99757,0.99737,0.02998,-0.02960,1.50366,-0.01519,-0.01425,-0.01571,0.08871,-0.10481,-0.39808,0.00000,0.00000,0.00000,0.00000,0.00000,0.00000,-0.99750,-0.99757,-0.99737,-0.02998,0.02960,-1.50366,"[0.999, 0.001, 0.001, 0.999, 0.999, 0.001]",0.999,0.999,0.001,0.001,0.001,0.001,0.999,0.999,0.999,0.999,0.001,0.001
0.3850,0.99742,0.99750,0.99729,0.03048,-0.03006,1.50164,-0.01543,-0.01445,-0.01594,0.08786,-0.10431,-0.40403,0.00000,0.00000,0.00000,0.00000,0.00000,0.00000,-0.99742,-0.99750,-0.99729,-0.03048,0.03006,-1.50164,"[0.999, 0.001, 0.001, 0.999, 0.999, 0.001]",0.999,0.999,0.001,0.001,0.001,0.001,0.999,0.999,0.999,0.999,0.001,0.001
0.3900,0.99734,0.99743,0.99721,0.03098,-0.03052,1.49959,-0.01567,-0.01465,-0.01617,0.08702,-0.10381,-0.40997,0.00000,0.00000,0.00000,0.00000,0.00000,0.00000,-0.99734,-0.99743,-0.99721,-0.03098,0.03052,-1.49959,"[0.999, 0.001, 0.001, 0.999, 0.999, 0.001]",0.999,0.999,0.001,0.001,0.001,0.001,0.999,0.999,0.999,0.999,0.001,0.001
0.3950,0.99726,0.99735,0.99713,0.03148,-0.03097,1.49751,-0.01591,-0.01484,-0.01641,0.08617,-0.10330,-0.41591,0.00000,0.00000,0.00000,0.00000,0.00000,0.00000,-0.99726,-0.99735,-0.99713,-0.03148,0.03097,-1.49751,"[0.999, 0.001, 0.001, 0.999, 0.999, 0.001]",0.999,0.999,0.001,0.001,0.001,0.001,0.999,0.999,0.999,0.999,0.001,0.001
0.4000,0.99718,0.99728,0.99705,0.03198,-0.03143,1.49540,-0.01615,-0.01504,-0.01664,0.08624,-0.10362,-0.42186,0.00000,0.00000,0.00000,0.00000,0.00000,0.00000,-0.99718,-0.99728,-0.99705,-0.03198,0.03143,-1.49540,"[0.999, 0.001, 0.001, 0.999, 0.999, 0.001]",0.999,0.999,0.001,0.001,0.001,0.001,0.999,0.999,0.999,0.999,0.001,0.001
0.4050,0.99710,0.99720,0.99696,0.03248,-0.03188,1.49325,-0.01639,-0.01524,-0.01688,0.08632,-0.10393,-0.42781,0.00000,0.00000,0.00000,0.00000,0.00000,0.00000,-0.99710,-0.99720,-0.99696,-0.03248,0.03188,-1.49325,"[0.999, 0.001, 0.001, 0.999, 0.999, 0.001]",0.999,0.999,0.001,0.001,0.001,0.001,0.999,0.999,0.999,0.999,0.001,0.001
0.4100,0.99702,0.99713,0.99688,0.03298,-0.03232,1.49108,-0.01663,-0.01543,-0.01711,0.08639,-0.10424,-0.43375,0.00000,0.00000,0.00000,0.00000,0.00000,0.00000,-0.99702,-0.99713,-0.99688,-0.03298,0.03232,-1.49108,"[0.999, 0.001, 0.001, 0.999, 0.999, 0.001]",0.999,0.999,0.001,0.001,0.001,0.001,0.999,0.999,0.999,0.999,0.001,0.001
0.4150,0.99694,0.99705,0.99679,0.03348,-0.03277,1.48888,-0.01688,-0.01563,-0.01734,0.08646,-0.10456,-0.43970,0.00000,0.00000,0.00000,0.00000,0.00000,0.00000,-0.99694,-0.99705,-0.99679,-0.03348,0.03277,-1.48888,"[0.999, 0.001, 0.001, 0.999, 0.999, 0.001]",0.999,0.999,0.001,0.001,0.001,0.001,0.999,0.999,0.999,0.999,0.001,0.001
0.4200,0.99685,0.99697,0.99670,0.03399,-0.03322,1.48665,-0.01712,-0.01582,-0.01758,0.08654,-0.10487,-0.44564,0.00000,0.00000,0.00000,0.00000,0.00000,0.00000,-0.99685,-0.99697,-0.99670,-0.03399,0.03322,-1.48665,"[0.999, 0.001, 0.001, 0.999, 0.999, 0.001]",0.999,0.999,0.001,0.001,0.001,0.001,0.999,0.999,0.999,0.999,0.001,0.001
0.4250,0.99676,0.99689,0.99661,0.03450,-0.03367,1.48439,-0.01736,-0.01601,-0.01781,0.08661,-0.10519,-0.45159,0.00000,0.00000,0.00000,0.00000,0.00000,0.00000,-0.99676,-0.99689,-0.99661,-0.03450,0.03367,-1.48439,"[0.999, 0.001, 0.001, 0.999, 0.999, 0.001]",0.999,0.999,0.001,0.001,0.001,0.001,0.999,0.999,0.999,0.999,0.001,0.001
0.4300,0.99668,0.99681,0.99653,0.03501,-0.03412,1.48210,-0.01761,-0.01621,-0.01805,0.08669,-0.10550,-0.45753,0.00000,0.00000,0.00000,0.00000,0.00000,0.00000,-0.99668,-0.99681,-0.99653,-0.03501,0.03412,-1.48210,"[0.999, 0.001, 0.001, 0.999, 0.999, 0.001]",0.999,0.999,0.001,0.001,0.001,0.001,0.999,0.999,0.999,0.999,0.001,0.001
0.4350,0.99659,0.99673,0.99643,0.03552,-0.03456,1.47978,-0.01785,-0.01640,-0.01828,0.08676,-0.10582,-0.46348,0.00000,0.00000,0.00000,0.00000,0.00000,0.00000,-0.99659,-0.99673,-0.99643,-0.03552,0.03456,-1.47978,"[0.999, 0.001, 0.001, 0.999, 0.999, 0.001]",0.999,0.999,0.001,0.001,0.001,0.001,0.999,0.999,0.999,0.999,0.001,0.001
0.4400,0.99650,0.99664,0.99634,0.03604,-0.03501,1.47743,-0.01810,-0.01659,-0.01852,0.08683,-0.10613,-0.46942,0.00000,0.00000,0.00000,0.00000,0.00000,0.00000,-0.99650,-0.99664,-0.99634,-0.03604,0.03501,-1.47743,"[0.999, 0.001, 0.001, 0.999, 0.999, 0.001]",0.999,0.999,0.001,0.001,0.001,0.001,0.999,0.999,0.999,0.999,0.001,0.001
0.4450,0.99641,0.99656,0.99625,0.03655,-0.03546,1.47505,-0.01834,-0.01678,-0.01875,0.08691,-0.10644,-0.47537,0.00000,0.00000,0.00000,0.00000,0.00000,0.00000,-0.99641,-0.99656,-0.99625,-0.03655,0.03546,-1.47505,"[0.999, 0.001, 0.001, 0.999, 0.999, 0.001]",0.999,0.999,0.001,0.001,0.001,0.001,0.999,0.999,0.999,0.999,0.001,0.001
0.4500,0.99631,0.99648,0.99615,0.03707,-0.03590,1.47264,-0.01859,-0.01697,-0.01898,0.08657,-0.10603,-0.48131,0.00000,0.00000,0.00000,0.00000,0.00000,0.00000,-0.99631,-0.99648,-0.99615,-0.03707,0.03590,-1.47264,"[1.000, 0.000, 0.000, 1.000, 1.000, 0.000]",1.000,1.000,0.000,0.000,0.000,0.000,1.000,1.000,1.000,1.000,0.000,0.000
0.4550,0.99622,0.99639,0.99606,0.03759,-0.03634,1.47019,-0.01884,-0.01716,-0.01922,0.08623,-0.10562,-0.48726,0.00000,0.00000,0.00000,0.00000,0.00000,0.00000,-0.99622,-0.99639,-0.99606,-0.03759,0.03634,-1.47019,"[1.000, 0.000, 0.000, 1.000, 1.000, 0.000]",1.000,1.000,0.000,0.000,0.000,0.000,1.000,1.000,1.000,1.000,0.000,0.000
0.4600,0.99613,0.99631,0.99596,0.03811,-0.03677,1.46772,-0.01909,-0.01735,-0.01945,0.08589,-0.10521,-0.49320,0.00000,0.00000,0.00000,0.00000,0.00000,0.00000,-0.99613,-0.99631,-0.99596,-0.03811,0.03677,-1.46772,"[1.000, 0.000, 0.000, 1.000, 1.000, 0.000]",1.000,1.000,0.000,0.000,0.000,0.000,1.000,1.000,1.000,1.000,0.000,0.000
0.4650,0.99603,0.99622,0.99586,0.03863,-0.03720,1.46522,-0.01933,-0.01754,-0.01969,0.08555,-0.10480,-0.49915,0.00000,0.00000,0.00000,0.00000,0.00000,0.00000,-0.99603,-0.99622,-0.99586,-0.03863,0.03720,-1.46522,"[1.000, 0.000, 0.000, 1.000, 1.000, 0.000]",1.000,1.000,0.000,0.000,0.000,0.000,1.000,1.000,1.000,1.000,0.000,0.000
0.4700,0.99593,0.99613,0.99577,0.03916,-0.03763,1.46269,-0.01958,-0.01772,-0.01992,0.08522,-0.10439,-0.50509,0.00000,0.00000,0.00000,0.00000,0.00000,0.00000,-0.99593,-0.99613,-0.99577,-0.03916,0.03763,-1.46269,"[1.000, 0.000, 0.000, 1.000, 1.000, 0.000]",1.000,1.000,0.000,0.000,0.000,0.000,1.000,1.000,1.000,1.000,0.000,0.000
0.4750,0.99583,0.99604,0.99567,0.03968,-0.03805,1.46013,-0.01983,-0.01791,-0.02015,0.08488,-0.10398,-0.51104,0.00000,0.00000,0.00000,0.00000,0.00000,0.00000,-0.99583,-0.99604,-0.99567,-0.03968,0.03805,-1.46013,"[1.000, 0.000, 0.000, 1.000, 1.000, 0.000]",1.000,1.000,0.000,0.000,0.000,0.000,1.000,1.000,1.000,1.000,0.000,0.000
0.4800,0.99573,0.99595,0.99556,0.04020,-0.03846,1.45754,-0.02008,-0.01809,-0.02039,0.08454,-0.10357,-0.51698,0.00000,0.00000,0.00000,0.00000,0.00000,0.00000,-0.99573,-0.99595,-0.99556,-0.04020,0.03846,-1.45754,"[1.000, 0.000, 0.000, 1.000, 1.000, 0.000]",1.000,1.000,0.000,0.000,0.000,0.000,1.000,1.000,1.000,1.000,0.000,0.000
0.4850,0.99563,0.99586,0.99546,0.04072,-0.03887,1.45492,-0.02033,-0.01828,-0.02062,0.08420,-0.10316,-0.52293,0.00000,0.00000,0.00000,0.00000,0.00000,0.00000,-0.99563,-0.99586,-0.99546,-0.04072,0.03887,-1.45492,"[1.000, 0.000, 0.000, 1.000, 1.000, 0.000]",1.000,1.000,0.000,0.000,0.000,0.000,1.000,1.000,1.000,1.000,0.000,0.000
0.4900,0.99553,0.99577,0.99536,0.04125,-0.03928,1.45227,-0.02059,-0.01846,-0.02085,0.08386,-0.10275,-0.52888,0.00000,0.00000,0.00000,0.00000,0.00000,0.00000,-0.99553,-0.99577,-0.99536,-0.04125,0.03928,-1.45227,"[1.000, 0.000, 0.000, 1.000, 1.000, 0.000]",1.000,1.000,0.000,0.000,0.000,0.000,1.000,1.000,1.000,1.000,0.000,0.000
0.4950,0.99543,0.99568,0.99525,0.04177,-0.03968,1.44959,-0.02084,-0.01865,-0.02109,0.08352,-0.10234,-0.53482,0.00000,0.00000,0.00000,0.00000,0.00000,0.00000,-0.99543,-0.99568,-0.99525,-0.04177,0.03968,-1.44959,"[1.000, 0.000, 0.000, 1.000, 1.000, 0.000]",1.000,1.000,0.000,0.000,0.000,0.000,1.000,1.000,1.000,1.000,0.000,0.000
0.5000,0.99532,0.99558,0.99515,0.04230,-0.04008,1.44689,-0.02109,-0.01883,-0.02132,0.08323,-0.10295,-0.53807,0.00000,0.00000,0.00000,0.00000,0.00000,0.00000,-0.99532,-0.99558,-0.99515,-0.04230,0.04008,-1.44689,"[1.000, 0.000, 0.000, 1.000, 1.000, 0.000]",1.000,1.000,0.000,0.000,0.000,0.000,1.000,1.000,1.000,1.000,0.000,0.000
0.5050,0.99522,0.99549,0.99504,0.04282,-0.04048,1.44417,-0.02134,-0.01901,-0.02156,0.08294,-0.10357,-0.54131,0.00000,0.00000,0.00000,0.00000,0.00000,0.00000,-0.99522,-0.99549,-0.99504,-0.04282,0.04048,-1.44417,"[1.000, 0.000, 0.000, 1.000, 1.000, 0.000]",1.000,1.000,0.000,0.000,0.000,0.000,1.000,1.000,1.000,1.000,0.000,0.000
0.5100,0.99511,0.99539,0.99493,0.04335,-0.04089,1.44143,-0.02160,-0.01919,-0.02179,0.08265,-0.10419,-0.54456,0.00000,0.00000,0.00000,0.00000,0.00000,0.00000,-0.99511,-0.99539,-0.99493,-0.04335,0.04089,-1.44143,"[1.000, 0.000, 0.000, 1.000, 1.000, 0.000]",1.000,1.000,0.000,0.000,0.000,0.000,1.000,1.000,1.000,1.000,0.000,0.000
0.5150,0.99500,0.99530,0.99482,0.04387,-0.04129,1.43868,-0.02185,-0.01937,-0.02202,0.08236,-0.10480,-0.54781,0.00000,0.00000,0.00000,0.00000,0.00000,0.00000,-0.99500,-0.99530,-0.99482,-0.04387,0.04129,-1.43868,"[1.000, 0.000, 0.000, 1.000, 1.000, 0.000]",1.000,1.000,0.000,0.000,0.000,0.000,1.000,1.000,1.000,1.000,0.000,0.000
0.5200,0.99489,0.99520,0.99471,0.04440,-0.04169,1.43590,-0.02211,-0.01955,-0.02226,0.08207,-0.10542,-0.55105,0.00000,0.00000,0.00000,0.00000,0.00000,0.00000,-0.99489,-0.99520,-0.99471,-0.04440,0.04169,-1.43590,"[1.000, 0.000, 0.000, 1.000, 1.000, 0.000]",1.000,1.000,0.000,0.000,0.000,0.000,1.000,1.000,1.000,1.000,0.000,0.000
0.5250,0.99478,0.99510,0.99460,0.04493,-0.04210,1.43312,-0.02236,-0.01973,-0.02249,0.08178,-0.10603,-0.55430,0.00000,0.00000,0.00000,0.00000,0.00000,0.00000,-0.99478,-0.99510,-0.99460,-0.04493,0.04210,-1.43312,"[1.000, 0.000, 0.000, 1.000, 1.000, 0.000]",1.000,1.000,0.000,0.000,0.000,0.000,1.000,1.000,1.000,1.000,0.000,0.000
0.5300,0.99467,0.99500,0.99449,0.04545,-0.04250,1.43031,-0.02262,-0.01991,-0.02272,0.08149,-0.10665,-0.55755,0.00000,0.00000,0.00000,0.00000,0.00000,0.00000,-0.99467,-0.99500,-0.99449,-0.04545,0.04250,-1.43031,"[1.000, 0.000, 0.000, 1.000, 1.000, 0.000]",1.000,1.000,0.000,0.000,0.000,0.000,1.000,1.000,1.000,1.000,0.000,0.000
0.5350,0.99455,0.99490,0.99437,0.04598,-0.04291,1.42750,-0.02287,-0.02008,-0.02296,0.08120,-0.10727,-0.56080,0.00000,0.00000,0.00000,0.00000,0.00000,0.00000,-0.99455,-0.99490,-0.99437,-0.04598,0.04291,-1.42750,"[1.000, 0.000, 0.000, 1.000, 1.000, 0.000]",1.000,1.000,0.000,0.000,0.000,0.000,1.000,1.000,1.000,1.000,0.000,0.000
0.5400,0.99444,0.99480,0.99426,0.04651,-0.04332,1.42466,-0.02313,-0.02026,-0.02319,0.08090,-0.10788,-0.56404,0.00000,0.00000,0.00000,0.00000,0.00000,0.00000,-0.99444,-0.99480,-0.99426,-0.04651,0.04332,-1.42466,"[1.000, 0.000, 0.000, 1.000, 1.000, 0.000]",1.000,1.000,0.000,0.000,0.000,0.000,1.000,1.000,1.000,1.000,0.000,0.000
0.5450,0.99432,0.99470,0.99414,0.04703,-0.04372,1.42181,-0.02339,-0.02043,-0.02342,0.08061,-0.10850,-0.56729,0.00000,0.00000,0.00000,0.00000,0.00000,0.00000,-0.99432,-0.99470,-0.99414,-0.04703,0.04372,-1.42181,"[1.000, 0.000, 0.000, 1.000, 1.000, 0.000]",1.000,1.000,0.000,0.000,0.000,0.000,1.000,1.000,1.000,1.000,0.000,0.000
0.5500,0.99420,0.99460,0.99402,0.04756,-0.04413,1.41895,-0.02365,-0.02061,-0.02366,0.08031,-0.10841,-0.56635,0.00000,0.00000,0.00000,0.00000,0.00000,0.00000,-0.99420,-0.99460,-0.99402,-0.04756,0.04413,-1.41895,"[1.000, 0.000, 0.000, 1.000, 1.000, 0.000]",1.000,1.000,0.000,0.000,0.000,0.000,1.000,1.000,1.000,1.000,0.000,0.000
0.5550,0.99409,0.99449,0.99390,0.04809,-0.04454,1.41609,-0.02391,-0.02078,-0.02389,0.08001,-0.10832,-0.56542,0.00000,0.00000,0.00000,0.00000,0.00000,0.00000,-0.99409,-0.99449,-0.99390,-0.04809,0.04454,-1.41609,"[1.000, 0.000, 0.000, 1.000, 1.000, 0.000]",1.000,1.000,0.000,0.000,0.000,0.000,1.000,1.000,1.000,1.000,0.000,0.000
0.5600,0.99397,0.99439,0.99378,0.04862,-0.04494,1.41324,-0.02417,-0.02095,-0.02412,0.07970,-0.10823,-0.56449,0.00000,0.00000,0.00000,0.00000,0.00000,0.00000,-0.99397,-0.99439,-0.99378,-0.04862,0.04494,-1.41324,"[1.000, 0.000, 0.000, 1.000, 1.000, 0.000]",1.000,1.000,0.000,0.000,0.000,0.000,1.000,1.000,1.000,1.000,0.000,0.000
0.5650,0.99384,0.99428,0.99366,0.04914,-0.04534,1.41039,-0.02443,-0.02113,-0.02436,0.07940,-0.10815,-0.56355,0.00000,0.00000,0.00000,0.00000,0.00000,0.00000,-0.99384,-0.99428,-0.99366,-0.04914,0.04534,-1.41039,"[1.000, 0.000, 0.000, 1.000, 1.000, 0.000]",1.000,1.000,0.000,0.000,0.000,0.000,1.000,1.000,1.000,1.000,0.000,0.000
0.5700,0.99372,0.99418,0.99354,0.04967,-0.04575,1.40755,-0.02469,-0.02130,-0.02459,0.07909,-0.10806,-0.56262,0.00000,0.00000,0.00000,0.00000,0.00000,0.00000,-0.99372,-0.99418,-0.99354,-0.04967,0.04575,-1.40755,"[1.000, 0.000, 0.000, 1.000, 1.000, 0.000]",1.000,1.000,0.000,0.000,0.000,0.000,1.000,1.000,1.000,1.000,0.000,0.000
0.5750,0.99360,0.99407,0.99342,0.05019,-0.04614,1.40472,-0.02495,-0.02147,-0.02482,0.07879,-0.10797,-0.56168,0.00000,0.00000,0.00000,0.00000,0.00000,0.00000,-0.99360,-0.99407,-0.99342,-0.05019,0.04614,-1.40472,"[1.000, 0.000, 0.000, 1.000, 1.000, 0.000]",1.000,1.000,0.000,0.000,0.000,0.000,1.000,1.000,1.000,1.000,0.000,0.000
0.5800,0.99347,0.99396,0.99329,0.05072,-0.04654,1.40188,-0.02521,-0.02164,-0.02506,0.07848,-0.10788,-0.56075,0.00000,0.00000,0.00000,0.00000,0.00000,0.00000,-0.99347,-0.99396,-0.99329,-0.05072,0.04654,-1.40188,"[1.000, 0.000, 0.000, 1.000, 1.000, 0.000]",1.000,1.000,0.000,0.000,0.000,0.000,1.000,1.000,1.000,1.000,0.000,0.000
0.5850,0.99335,0.99385,0.99317,0.05124,-0.04694,1.39905,-0.02547,-0.02180,-0.02529,0.07818,-0.10780,-0.55981,0.00000,0.00000,0.00000,0.00000,0.00000,0.00000,-0.99335,-0.99385,-0.99317,-0.05124,0.04694,-1.39905,"[1.000, 0.000, 0.000, 1.000, 1.000, 0.000]",1.000,1.000,0.000,0.000,0.000,0.000,1.000,1.000,1.000,1.000,0.000,0.000
0.5900,0.99322,0.99374,0.99304,0.05176,-0.04733,1.39623,-0.02574,-0.02197,-0.02552,0.07788,-0.10771,-0.55888,0.00000,0.00000,0.00000,0.00000,0.00000,0.00000,-0.99322,-0.99374,-0.99304,-0.05176,0.04733,-1.39623,"[1.000, 0.000, 0.000, 1.000, 1.000, 0.000]",1.000,1.000,0.000,0.000,0.000,0.000,1.000,1.000,1.000,1.000,0.000,0.000
0.5950,0.99309,0.99363,0.99291,0.05229,-0.04772,1.39341,-0.02600,-0.02214,-0.02575,0.07757,-0.10762,-0.55794,0.00000,0.00000,0.00000,0.00000,0.00000,0.00000,-0.99309,-0.99363,-0.99291,-0.05229,0.04772,-1.39341,"[1.000, 0.000, 0.000, 1.000, 1.000, 0.000]",1.000,1.000,0.000,0.000,0.000,0.000,1.000,1.000,1.000,1.000,0.000,0.000
0.6000,0.99296,0.99352,0.99278,0.05281,-0.04811,1.39060,-0.02627,-0.02230,-0.02599,0.07726,-0.10741,-0.55630,0.00000,0.00000,0.00000,0.00000,0.00000,0.00000,-0.99296,-0.99352,-0.99278,-0.05281,0.04811,-1.39060,"[1.000, 0.000, 0.000, 1.000, 1.000, 0.000]",1.000,1.000,0.000,0.000,0.000,0.000,1.000,1.000,1.000,1.000,0.000,0.000
0.6050,0.99283,0.99341,0.99265,0.05333,-0.04850,1.38779,-0.02653,-0.02247,-0.02622,0.07695,-0.10720,-0.55465,0.00000,0.00000,0.00000,0.00000,0.00000,0.00000,-0.99283,-0.99341,-0.99265,-0.05333,0.04850,-1.38779,"[1.000, 0.000, 0.000, 1.000, 1.000, 0.000]",1.000,1.000,0.000,0.000,0.000,0.000,1.000,1.000,1.000,1.000,0.000,0.000
0.6100,0.99269,0.99330,0.99252,0.05385,-0.04889,1.38500,-0.02680,-0.02263,-0.02645,0.07664,-0.10699,-0.55300,0.00000,0.00000,0.00000,0.00000,0.00000,0.00000,-0.99269,-0.99330,-0.99252,-0.05385,0.04889,-1.38500,"[1.000, 0.000, 0.000, 1.000, 1.000, 0.000]",1.000,1.000,0.000,0.000,0.000,0.000,1.000,1.000,1.000,1.000,0.000,0.000
0.6150,0.99256,0.99318,0.99239,0.05437,-0.04927,1.38221,-0.02706,-0.02280,-0.02669,0.07633,-0.10678,-0.55135,0.00000,0.00000,0.00000,0.00000,0.00000,0.00000,-0.99256,-0.99318,-0.99239,-0.05437,0.04927,-1.38221,"[1.000, 0.000, 0.000, 1.000, 1.000, 0.000]",1.000,1.000,0.000,0.000,0.000,0.000,1.000,1.000,1.000,1.000,0.000,0.000
0.6200,0.99242,0.99307,0.99225,0.05489,-0.04966,1.37943,-0.02733,-0.02296,-0.02692,0.07602,-0.10657,-0.54971,0.00000,0.00000,0.00000,0.00000,0.00000,0.00000,-0.99242,-0.99307,-0.99225,-0.05489,0.04966,-1.37943,"[1.000, 0.000, 0.000, 1.000, 1.000, 0.000]",1.000,1.000,0.000,0.000,0.000,0.000,1.000,1.000,1.000,1.000,0.000,0.000
0.6250,0.99228,0.99295,0.99212,0.05541,-0.05004,1.37665,-0.02760,-0.02312,-0.02715,0.07571,-0.10636,-0.54806,0.00000,0.00000,0.00000,0.00000,0.00000,0.00000,-0.99228,-0.99295,-0.99212,-0.05541,0.05004,-1.37665,"[1.000, 0.000, 0.000, 1.000, 1.000, 0.000]",1.000,1.000,0.000,0.000,0.000,0.000,1.000,1.000,1.000,1.000,0.000,0.000
0.6300,0.99215,0.99284,0.99198,0.05592,-0.05041,1.37389,-0.02786,-0.02328,-0.02738,0.07540,-0.10615,-0.54641,0.00000,0.00000,0.00000,0.00000,0.00000,0.00000,-0.99215,-0.99284,-0.99198,-0.05592,0.05041,-1.37389,"[1.000, 0.000, 0.000, 1.000, 1.000, 0.000]",1.000,1.000,0.000,0.000,0.000,0.000,1.000,1.000,1.000,1.000,0.000,0.000
0.6350,0.99201,0.99272,0.99184,0.05644,-0.05079,1.37113,-0.02813,-0.02344,-0.02762,0.07508,-0.10594,-0.54476,0.00000,0.00000,0.00000,0.00000,0.00000,0.00000,-0.99201,-0.99272,-0.99184,-0.05644,0.05079,-1.37113,"[1.000, 0.000, 0.000, 1.000, 1.000, 0.000]",1.000,1.000,0.000,0.000,0.000,0.000,1.000,1.000,1.000,1.000,0.000,0.000
0.6400,0.99186,0.99260,0.99170,0.05695,-0.05117,1.36838,-0.02840,-0.02360,-0.02785,0.07477,-0.10574,-0.54311,0.00000,0.00000,0.00000,0.00000,0.00000,0.00000,-0.99186,-0.99260,-0.99170,-0.05695,0.05117,-1.36838,"[1.000, 0.000, 0.000, 1.000, 1.000, 0.000]",1.000,1.000,0.000,0.000,0.000,0.000,1.000,1.000,1.000,1.000,0.000,0.000
0.6450,0.99172,0.99249,0.99156,0.05747,-0.05154,1.36564,-0.02867,-0.02376,-0.02808,0.07446,-0.10553,-0.54147,0.00000,0.00000,0.00000,0.00000,0.00000,0.00000,-0.99172,-0.99249,-0.99156,-0.05747,0.05154,-1.36564,"[1.000, 0.000, 0.000, 1.000, 1.000, 0.000]",1.000,1.000,0.000,0.000,0.000,0.000,1.000,1.000,1.000,1.000,0.000,0.000
0.6500,0.99158,0.99237,0.99142,0.05798,-0.05191,1.36291,-0.02894,-0.02392,-0.02832,0.07414,-0.10536,-0.54024,0.00000,0.00000,0.00000,0.00000,0.00000,0.00000,-0.99158,-0.99237,-0.99142,-0.05798,0.05191,-1.36291,"[1.000, 0.000, 0.000, 1.000, 1.000, 0.000]",1.000,1.000,0.000,0.000,0.000,0.000,1.000,1.000,1.000,1.000,0.000,0.000
0.6550,0.99143,0.99225,0.99128,0.05849,-0.05228,1.36018,-0.02921,-0.02407,-0.02855,0.07382,-0.10520,-0.53901,0.00000,0.00000,0.00000,0.00000,0.00000,0.00000,-0.99143,-0.99225,-0.99128,-0.05849,0.05228,-1.36018,"[1.000, 0.000, 0.000, 1.000, 1.000, 0.000]",1.000,1.000,0.000,0.000,0.000,0.000,1.000,1.000,1.000,1.000,0.000,0.000
0.6600,0.99129,0.99213,0.99114,0.05900,-0.05264,1.35746,-0.02948,-0.02423,-0.02878,0.07349,-0.10503,-0.53778,0.00000,0.00000,0.00000,0.00000,0.00000,0.00000,-0.99129,-0.99213,-0.99114,-0.05900,0.05264,-1.35746,"[1.000, 0.000, 0.000, 1.000, 1.000, 0.000]",1.000,1.000,0.000,0.000,0.000,0.000,1.000,1.000,1.000,1.000,0.000,0.000
0.6650,0.99114,0.99200,0.99099,0.05951,-0.05301,1.35474,-0.02975,-0.02438,-0.02901,0.07317,-0.10487,-0.53656,0.00000,0.00000,0.00000,0.00000,0.00000,0.00000,-0.99114,-0.99200,-0.99099,-0.05951,0.05301,-1.35474,"[1.000, 0.000, 0.000, 1.000, 1.000, 0.000]",1.000,1.000,0.000,0.000,0.000,0.000,1.000,1.000,1.000,1.000,0.000,0.000
0.6700,0.99099,0.99188,0.99085,0.06002,-0.05337,1.35203,-0.03002,-0.02454,-0.02925,0.07285,-0.10471,-0.53533,0.00000,0.00000,0.00000,0.00000,0.00000,0.00000,-0.99099,-0.99188,-0.99085,-0.06002,0.05337,-1.35203,"[1.000, 0.000, 0.000, 1.000, 1.000, 0.000]",1.000,1.000,0.000,0.000,0.000,0.000,1.000,1.000,1.000,1.000,0.000,0.000
0.6750,0.99084,0.99176,0.99070,0.06053,-0.05373,1.34933,-0.03030,-0.02469,-0.02948,0.07252,-0.10454,-0.53410,0.00000,0.00000,0.00000,0.00000,0.00000,0.00000,-0.99084,-0.99176,-0.99070,-0.06053,0.05373,-1.34933,"[1.000, 0.000, 0.000, 1.000, 1.000, 0.000]",1.000,1.000,0.000,0.000,0.000,0.000,1.000,1.000,1.000,1.000,0.000,0.000
0.6800,0.99068,0.99163,0.99055,0.06104,-0.05409,1.34663,-0.03057,-0.02484,-0.02971,0.07220,-0.10438,-0.53287,0.00000,0.00000,0.00000,0.00000,0.00000,0.00000,-0.99068,-0.99163,-0.99055,-0.06104,0.05409,-1.34663,"[1.000, 0.000, 0.000, 1.000, 1.000, 0.000]",1.000,1.000,0.000,0.000,0.000,0.000,1.000,1.000,1.000,1.000,0.000,0.000
0.6850,0.99053,0.99151,0.99040,0.06154,-0.05445,1.34394,-0.03084,-0.02499,-0.02994,0.07188,-0.10421,-0.53165,0.00000,0.00000,0.00000,0.00000,0.00000,0.00000,-0.99053,-0.99151,-0.99040,-0.06154,0.05445,-1.34394,"[1.000, 0.000, 0.000, 1.000, 1.000, 0.000]",1.000,1.000,0.000,0.000,0.000,0.000,1.000,1.000,1.000,1.000,0.000,0.000
0.6900,0.99038,0.99138,0.99025,0.06205,-0.05480,1.34125,-0.03112,-0.02514,-0.03017,0.07156,-0.10405,-0.53042,0.00000,0.00000,0.00000,0.00000,0.00000,0.00000,-0.99038,-0.99138,-0.99025,-0.06205,0.05480,-1.34125,"[1.000, 0.000, 0.000, 1.000, 1.000, 0.000]",1.000,1.000,0.000,0.000,0.000,0.000,1.000,1.000,1.000,1.000,0.000,0.000
0.6950,0.99022,0.99126,0.99010,0.06255,-0.05516,1.33857,-0.03139,-0.02529,-0.03041,0.07123,-0.10389,-0.52919,0.00000,0.00000,0.00000,0.00000,0.00000,0.00000,-0.99022,-0.99126,-0.99010,-0.06255,0.05516,-1.33857,"[1.000, 0.000, 0.000, 1.000, 1.000, 0.000]",1.000,1.000,0.000,0.000,0.000,0.000,1.000,1.000,1.000,1.000,0.000,0.000
0.7000,0.99006,0.99113,0.98995,0.06306,-0.05551,1.33589,-0.03167,-0.02544,-0.03064,0.07094,-0.10382,-0.52830,0.00000,0.00000,0.00000,0.00000,0.00000,0.00000,-0.99006,-0.99113,-0.98995,-0.06306,0.05551,-1.33589,"[1.000, 0.000, 0.000, 1.000, 1.000, 0.000]",1.000,1.000,0.000,0.000,0.000,0.000,1.000,1.000,1.000,1.000,0.000,0.000
0.7050,0.98990,0.99100,0.98980,0.06356,-0.05586,1.33322,-0.03194,-0.02559,-0.03087,0.07065,-0.10374,-0.52740,0.00000,0.00000,0.00000,0.00000,0.00000,0.00000,-0.98990,-0.99100,-0.98980,-0.06356,0.05586,-1.33322,"[1.000, 0.000, 0.000, 1.000, 1.000, 0.000]",1.000,1.000,0.000,0.000,0.000,0.000,1.000,1.000,1.000,1.000,0.000,0.000
0.7100,0.98974,0.99088,0.98964,0.06406,-0.05621,1.33056,-0.03222,-0.02574,-0.03110,0.07036,-0.10367,-0.52650,0.00000,0.00000,0.00000,0.00000,0.00000,0.00000,-0.98974,-0.99088,-0.98964,-0.06406,0.05621,-1.33056,"[1.000, 0.000, 0.000, 1.000, 1.000, 0.000]",1.000,1.000,0.000,0.000,0.000,0.000,1.000,1.000,1.000,1.000,0.000,0.000
0.7150,0.98958,0.99075,0.98949,0.06456,-0.05656,1.32789,-0.03249,-0.02589,-0.03133,0.07007,-0.10360,-0.52561,0.00000,0.00000,0.00000,0.00000,0.00000,0.00000,-0.98958,-0.99075,-0.98949,-0.06456,0.05656,-1.32789,"[1.000, 0.000, 0.000, 1.000, 1.000, 0.000]",1.000,1.000,0.000,0.000,0.000,0.000,1.000,1.000,1.000,1.000,0.000,0.000
0.7200,0.98942,0.99062,0.98933,0.06506,-0.05691,1.32524,-0.03277,-0.02603,-0.03157,0.06978,-0.10353,-0.52471,0.00000,0.00000,0.00000,0.00000,0.00000,0.00000,-0.98942,-0.99062,-0.98933,-0.06506,0.05691,-1.32524,"[1.000, 0.000, 0.000, 1.000, 1.000, 0.000]",1.000,1.000,0.000,0.000,0.000,0.000,1.000,1.000,1.000,1.000,0.000,0.000
0.7250,0.98925,0.99049,0.98917,0.06556,-0.05725,1.32258,-0.03305,-0.02618,-0.03180,0.06949,-0.10346,-0.52381,0.00000,0.00000,0.00000,0.00000,0.00000,0.00000,-0.98925,-0.99049,-0.98917,-0.06556,0.05725,-1.32258,"[1.000, 0.000, 0.000, 1.000, 1.000, 0.000]",1.000,1.000,0.000,0.000,0.000,0.000,1.000,1.000,1.000,1.000,0.000,0.000
0.7300,0.98909,0.99036,0.98901,0.06606,-0.05759,1.31993,-0.03333,-0.02632,-0.03203,0.06921,-0.10339,-0.52292,0.00000,0.00000,0.00000,0.00000,0.00000,0.00000,-0.98909,-0.99036,-0.98901,-0.06606,0.05759,-1.31993,"[1.000, 0.000, 0.000, 1.000, 1.000, 0.000]",1.000,1.000,0.000,0.000,0.000,0.000,1.000,1.000,1.000,1.000,0.000,0.000
0.7350,0.98892,0.99022,0.98885,0.06656,-0.05794,1.31729,-0.03360,-0.02646,-0.03226,0.06892,-0.10331,-0.52202,0.00000,0.00000,0.00000,0.00000,0.00000,0.00000,-0.98892,-0.99022,-0.98885,-0.06656,0.05794,-1.31729,"[1.000, 0.000, 0.000, 1.000, 1.000, 0.000]",1.000,1.000,0.000,0.000,0.000,0.000,1.000,1.000,1.000,1.000,0.000,0.000
0.7400,0.98875,0.99009,0.98869,0.06706,-0.05828,1.31465,-0.03388,-0.02661,-0.03249,0.06863,-0.10324,-0.52112,0.00000,0.00000,0.00000,0.00000,0.00000,0.00000,-0.98875,-0.99009,-0.98869,-0.06706,0.05828,-1.31465,"[1.000, 0.000, 0.000, 1.000, 1.000, 0.000]",1.000,1.000,0.000,0.000,0.000,0.000,1.000,1.000,1.000,1.000,0.000,0.000
0.7450,0.98858,0.98996,0.98852,0.06755,-0.05862,1.31201,-0.03416,-0.02675,-0.03273,0.06834,-0.10317,-0.52023,0.00000,0.00000,0.00000,0.00000,0.00000,0.00000,-0.98858,-0.98996,-0.98852,-0.06755,0.05862,-1.31201,"[1.000, 0.000, 0.000, 1.000, 1.000, 0.000]",1.000,1.000,0.000,0.000,0.000,0.000,1.000,1.000,1.000,1.000,0.000,0.000
0.7500,0.98841,0.98982,0.98836,0.06805,-0.05896,1.30938,-0.03444,-0.02689,-0.03296,0.06806,-0.10312,-0.51938,0.00000,0.00000,0.00000,0.00000,0.00000,0.00000,-0.98841,-0.98982,-0.98836,-0.06805,0.05896,-1.30938,"[1.000, 0.000, 0.000, 1.000, 1.000, 0.000]",1.000,1.000,0.000,0.000,0.000,0.000,1.000,1.000,1.000,1.000,0.000,0.000
0.7550,0.98824,0.98969,0.98819,0.06854,-0.05929,1.30675,-0.03472,-0.02703,-0.03319,0.06778,-0.10306,-0.51854,0.00000,0.00000,0.00000,0.00000,0.00000,0.00000,-0.98824,-0.98969,-0.98819,-0.06854,0.05929,-1.30675,"[1.000, 0.000, 0.000, 1.000, 1.000, 0.000]",1.000,1.000,0.000,0.000,0.000,0.000,1.000,1.000,1.000,1.000,0.000,0.000
0.7600,0.98806,0.98955,0.98803,0.06904,-0.05963,1.30413,-0.03500,-0.02717,-0.03342,0.06751,-0.10301,-0.51770,0.00000,0.00000,0.00000,0.00000,0.00000,0.00000,-0.98806,-0.98955,-0.98803,-0.06904,0.05963,-1.30413,"[1.000, 0.000, 0.000, 1.000, 1.000, 0.000]",1.000,1.000,0.000,0.000,0.000,0.000,1.000,1.000,1.000,1.000,0.000,0.000
0.7650,0.98789,0.98942,0.98786,0.06953,-0.05996,1.30150,-0.03528,-0.02730,-0.03365,0.06723,-0.10296,-0.51686,0.00000,0.00000,0.00000,0.00000,0.00000,0.00000,-0.98789,-0.98942,-0.98786,-0.06953,0.05996,-1.30150,"[1.000, 0.000, 0.000, 1.000, 1.000, 0.000]",1.000,1.000,0.000,0.000,0.000,0.000,1.000,1.000,1.000,1.000,0.000,0.000
0.7700,0.98771,0.98928,0.98769,0.07002,-0.06030,1.29889,-0.03556,-0.02744,-0.03388,0.06695,-0.10290,-0.51601,0.00000,0.00000,0.00000,0.00000,0.00000,0.00000,-0.98771,-0.98928,-0.98769,-0.07002,0.06030,-1.29889,"[1.000, 0.000, 0.000, 1.000, 1.000, 0.000]",1.000,1.000,0.000,0.000,0.000,0.000,1.000,1.000,1.000,1.000,0.000,0.000
0.7750,0.98753,0.98914,0.98752,0.07051,-0.06063,1.29628,-0.03585,-0.02758,-0.03412,0.06668,-0.10285,-0.51517,0.00000,0.00000,0.00000,0.00000,0.00000,0.00000,-0.98753,-0.98914,-0.98752,-0.07051,0.06063,-1.29628,"[1.000, 0.000, 0.000, 1.000, 1.000, 0.000]",1.000,1.000,0.000,0.000,0.000,0.000,1.000,1.000,1.000,1.000,0.000,0.000
0.7800,0.98735,0.98900,0.98735,0.07101,-0.06096,1.29367,-0.03613,-0.02771,-0.03435,0.06640,-0.10280,-0.51433,0.00000,0.00000,0.00000,0.00000,0.00000,0.00000,-0.98735,-0.98900,-0.98735,-0.07101,0.06096,-1.29367,"[1.000, 0.000, 0.000, 1.000, 1.000, 0.000]",1.000,1.000,0.000,0.000,0.000,0.000,1.000,1.000,1.000,1.000,0.000,0.000
0.7850,0.98717,0.98887,0.98718,0.07150,-0.06129,1.29106,-0.03641,-0.02785,-0.03458,0.06612,-0.10274,-0.51349,0.00000,0.00000,0.00000,0.00000,0.00000,0.00000,-0.98717,-0.98887,-0.98718,-0.07150,0.06129,-1.29106,"[1.000, 0.000, 0.000, 1.000, 1.000, 0.000]",1.000,1.000,0.000,0.000,0.000,0.000,1.000,1.000,1.000,1.000,0.000,0.000
0.7900,0.98699,0.98873,0.98700,0.07199,-0.06162,1.28846,-0.03669,-0.02798,-0.03481,0.06585,-0.10269,-0.51264,0.00000,0.00000,0.00000,0.00000,0.00000,0.00000,-0.98699,-0.98873,-0.98700,-0.07199,0.06162,-1.28846,"[1.000, 0.000, 0.000, 1.000, 1.000, 0.000]",1.000,1.000,0.000,0.000,0.000,0.000,1.000,1.000,1.000,1.000,0.000,0.000
0.7950,0.98680,0.98859,0.98683,0.07247,-0.06195,1.28587,-0.03698,-0.02812,-0.03504,0.06557,-0.10264,-0.51180,0.00000,0.00000,0.00000,0.00000,0.00000,0.00000,-0.98680,-0.98859,-0.98683,-0.07247,0.06195,-1.28587,"[1.000, 0.000, 0.000, 1.000, 1.000, 0.000]",1.000,1.000,0.000,0.000,0.000,0.000,1.000,1.000,1.000,1.000,0.000,0.000
0.8000,0.98662,0.98844,0.98665,0.07296,-0.06227,1.28327,-0.03726,-0.02825,-0.03527,0.06530,-0.10257,-0.51093,0.00000,0.00000,0.00000,0.00000,0.00000,0.00000,-0.98662,-0.98844,-0.98665,-0.07296,0.06227,-1.28327,"[1.000, 0.000, 0.000, 1.000, 1.000, 0.000]",1.000,1.000,0.000,0.000,0.000,0.000,1.000,1.000,1.000,1.000,0.000,0.000
0.8050,0.98643,0.98830,0.98648,0.07345,-0.06260,1.28069,-0.03755,-0.02838,-0.03550,0.06503,-0.10251,-0.51006,0.00000,0.00000,0.00000,0.00000,0.00000,0.00000,-0.98643,-0.98830,-0.98648,-0.07345,0.06260,-1.28069,"[1.000, 0.000, 0.000, 1.000, 1.000, 0.000]",1.000,1.000,0.000,0.000,0.000,0.000,1.000,1.000,1.000,1.000,0.000,0.000
0.8100,0.98624,0.98816,0.98630,0.07394,-0.06292,1.27810,-0.03783,-0.02851,-0.03573,0.06476,-0.10245,-0.50918,0.00000,0.00000,0.00000,0.00000,0.00000,0.00000,-0.98624,-0.98816,-0.98630,-0.07394,0.06292,-1.27810,"[1.000, 0.000, 0.000, 1.000, 1.000, 0.000]",1.000,1.000,0.000,0.000,0.000,0.000,1.000,1.000,1.000,1.000,0.000,0.000
0.8150,0.98605,0.98802,0.98612,0.07442,-0.06324,1.27552,-0.03812,-0.02864,-0.03597,0.06448,-0.10238,-0.50831,0.00000,0.00000,0.00000,0.00000,0.00000,0.00000,-0.98605,-0.98802,-0.98612,-0.07442,0.06324,-1.27552,"[1.000, 0.000, 0.000, 1.000, 1.000, 0.000]",1.000,1.000,0.000,0.000,0.000,0.000,1.000,1.000,1.000,1.000,0.000,0.000
0.8200,0.98586,0.98787,0.98594,0.07491,-0.06356,1.27295,-0.03840,-0.02877,-0.03620,0.06421,-0.10232,-0.50744,0.00000,0.00000,0.00000,0.00000,0.00000,0.00000,-0.98586,-0.98787,-0.98594,-0.07491,0.06356,-1.27295,"[1.000, 0.000, 0.000, 1.000, 1.000, 0.000]",1.000,1.000,0.000,0.000,0.000,0.000,1.000,1.000,1.000,1.000,0.000,0.000
0.8250,0.98567,0.98773,0.98576,0.07539,-0.06388,1.27037,-0.03869,-0.02890,-0.03643,0.06394,-0.10226,-0.50656,0.00000,0.00000,0.00000,0.00000,0.00000,0.00000,-0.98567,-0.98773,-0.98576,-0.07539,0.06388,-1.27037,"[1.000, 0.000, 0.000, 1.000, 1.000, 0.000]",1.000,1.000,0.000,0.000,0.000,0.000,1.000,1.000,1.000,1.000,0.000,0.000
0.8300,0.98547,0.98759,0.98558,0.07587,-0.06420,1.26781,-0.03898,-0.02902,-0.03666,0.06367,-0.10219,-0.50569,0.00000,0.00000,0.00000,0.00000,0.00000,0.00000,-0.98547,-0.98759,-0.98558,-0.07587,0.06420,-1.26781,"[1.000, 0.000, 0.000, 1.000, 1.000, 0.000]",1.000,1.000,0.000,0.000,0.000,0.000,1.000,1.000,1.000,1.000,0.000,0.000
0.8350,0.98528,0.98744,0.98539,0.07636,-0.06452,1.26524,-0.03926,-0.02915,-0.03689,0.06340,-0.10213,-0.50482,0.00000,0.00000,0.00000,0.00000,0.00000,0.00000,-0.98528,-0.98744,-0.98539,-0.07636,0.06452,-1.26524,"[1.000, 0.000, 0.000, 1.000, 1.000, 0.000]",1.000,1.000,0.000,0.000,0.000,0.000,1.000,1.000,1.000,1.000,0.000,0.000
0.8400,0.98508,0.98729,0.98521,0.07684,-0.06483,1.26268,-0.03955,-0.02928,-0.03712,0.06313,-0.10207,-0.50394,0.00000,0.00000,0.00000,0.00000,0.00000,0.00000,-0.98508,-0.98729,-0.98521,-0.07684,0.06483,-1.26268,"[1.000, 0.000, 0.000, 1.000, 1.000, 0.000]",1.000,1.000,0.000,0.000,0.000,0.000,1.000,1.000,1.000,1.000,0.000,0.000
0.8450,0.98488,0.98715,0.98502,0.07732,-0.06515,1.26013,-0.03984,-0.02940,-0.03735,0.06285,-0.10200,-0.50307,0.00000,0.00000,0.00000,0.00000,0.00000,0.00000,-0.98488,-0.98715,-0.98502,-0.07732,0.06515,-1.26013,"[1.000, 0.000, 0.000, 1.000, 1.000, 0.000]",1.000,1.000,0.000,0.000,0.000,0.000,1.000,1.000,1.000,1.000,0.000,0.000
0.8500,0.98468,0.98700,0.98483,0.07780,-0.06546,1.25758,-0.04013,-0.02953,-0.03758,0.06258,-0.10192,-0.50216,0.00000,0.00000,0.00000,0.00000,0.00000,0.00000,-0.98468,-0.98700,-0.98483,-0.07780,0.06546,-1.25758,"[1.000, 0.000, 0.000, 1.000, 1.000, 0.000]",1.000,1.000,0.000,0.000,0.000,0.000,1.000,1.000,1.000,1.000,0.000,0.000
0.8550,0.98448,0.98685,0.98464,0.07828,-0.06577,1.25503,-0.04041,-0.02965,-0.03781,0.06230,-0.10184,-0.50126,0.00000,0.00000,0.00000,0.00000,0.00000,0.00000,-0.98448,-0.98685,-0.98464,-0.07828,0.06577,-1.25503,"[1.000, 0.000, 0.000, 1.000, 1.000, 0.000]",1.000,1.000,0.000,0.000,0.000,0.000,1.000,1.000,1.000,1.000,0.000,0.000
0.8600,0.98428,0.98670,0.98445,0.07876,-0.06609,1.25249,-0.04070,-0.02977,-0.03804,0.06203,-0.10176,-0.50035,0.00000,0.00000,0.00000,0.00000,0.00000,0.00000,-0.98428,-0.98670,-0.98445,-0.07876,0.06609,-1.25249,"[1.000, 0.000, 0.000, 1.000, 1.000, 0.000]",1.000,1.000,0.000,0.000,0.000,0.000,1.000,1.000,1.000,1.000,0.000,0.000
0.8650,0.98407,0.98655,0.98426,0.07923,-0.06640,1.24995,-0.04099,-0.02989,-0.03827,0.06175,-0.10168,-0.49944,0.00000,0.00000,0.00000,0.00000,0.00000,0.00000,-0.98407,-0.98655,-0.98426,-0.07923,0.06640,-1.24995,"[1.000, 0.000, 0.000, 1.000, 1.000, 0.000]",1.000,1.000,0.000,0.000,0.000,0.000,1.000,1.000,1.000,1.000,0.000,0.000
0.8700,0.98387,0.98640,0.98407,0.07971,-0.06670,1.24742,-0.04128,-0.03001,-0.03850,0.06148,-0.10159,-0.49854,0.00000,0.00000,0.00000,0.00000,0.00000,0.00000,-0.98387,-0.98640,-0.98407,-0.07971,0.06670,-1.24742,"[1.000, 0.000, 0.000, 1.000, 1.000, 0.000]",1.000,1.000,0.000,0.000,0.000,0.000,1.000,1.000,1.000,1.000,0.000,0.000
0.8750,0.98366,0.98625,0.98388,0.08019,-0.06701,1.24489,-0.04157,-0.03013,-0.03873,0.06120,-0.10151,-0.49763,0.00000,0.00000,0.00000,0.00000,0.00000,0.00000,-0.98366,-0.98625,-0.98388,-0.08019,0.06701,-1.24489,"[1.000, 0.000, 0.000, 1.000, 1.000, 0.000]",1.000,1.000,0.000,0.000,0.000,0.000,1.000,1.000,1.000,1.000,0.000,0.000
0.8800,0.98345,0.98610,0.98368,0.08066,-0.06732,1.24237,-0.04186,-0.03025,-0.03897,0.06092,-0.10143,-0.49672,0.00000,0.00000,0.00000,0.00000,0.00000,0.00000,-0.98345,-0.98610,-0.98368,-0.08066,0.06732,-1.24237,"[1.000, 0.000, 0.000, 1.000, 1.000, 0.000]",1.000,1.000,0.000,0.000,0.000,0.000,1.000,1.000,1.000,1.000,0.000,0.000
0.8850,0.98324,0.98595,0.98349,0.08114,-0.06762,1.23985,-0.04215,-0.03037,-0.03920,0.06065,-0.10135,-0.49582,0.00000,0.00000,0.00000,0.00000,0.00000,0.00000,-0.98324,-0.98595,-0.98349,-0.08114,0.06762,-1.23985,"[1.000, 0.000, 0.000, 1.000, 1.000, 0.000]",1.000,1.000,0.000,0.000,0.000,0.000,1.000,1.000,1.000,1.000,0.000,0.000
0.8900,0.98303,0.98580,0.98329,0.08161,-0.06793,1.23733,-0.04244,-0.03049,-0.03943,0.06037,-0.10127,-0.49491,0.00000,0.00000,0.00000,0.00000,0.00000,0.00000,-0.98303,-0.98580,-0.98329,-0.08161,0.06793,-1.23733,"[1.000, 0.000, 0.000, 1.000, 1.000, 0.000]",1.000,1.000,0.000,0.000,0.000,0.000,1.000,1.000,1.000,1.000,0.000,0.000
0.8950,0.98282,0.98565,0.98310,0.08208,-0.06823,1.23482,-0.04274,-0.03060,-0.03966,0.06010,-0.10119,-0.49400,0.00000,0.00000,0.00000,0.00000,0.00000,0.00000,-0.98282,-0.98565,-0.98310,-0.08208,0.06823,-1.23482,"[1.000, 0.000, 0.000, 1.000, 1.000, 0.000]",1.000,1.000,0.000,0.000,0.000,0.000,1.000,1.000,1.000,1.000,0.000,0.000
0.9000,0.98260,0.98549,0.98290,0.08255,-0.06853,1.23231,-0.04303,-0.03072,-0.03989,0.05983,-0.10111,-0.49312,0.00000,0.00000,0.00000,0.00000,0.00000,0.00000,-0.98260,-0.98549,-0.98290,-0.08255,0.06853,-1.23231,"[1.000, 0.000, 0.000, 1.000, 1.000, 0.000]",1.000,1.000,0.000,0.000,0.000,0.000,1.000,1.000,1.000,1.000,0.000,0.000
0.9050,0.98239,0.98534,0.98270,0.08302,-0.06883,1.22981,-0.04332,-0.03083,-0.04012,0.05957,-0.10103,-0.49224,0.00000,0.00000,0.00000,0.00000,0.00000,0.00000,-0.98239,-0.98534,-0.98270,-0.08302,0.06883,-1.22981,"[1.000, 0.000, 0.000, 1.000, 1.000, 0.000]",1.000,1.000,0.000,0.000,0.000,0.000,1.000,1.000,1.000,1.000,0.000,0.000
