Step,MPC_Start_Time,Control_Time,Actual_Time_Interval,CONTROL_DT,Mission_Phase,Waypoint_Number,Telemetry_X_mm,Telemetry_Y_mm,Telemetry_Z_mm,Telemetry_Roll_deg,Telemetry_Pitch_deg,Telemetry_Yaw_deg,Current_X,Current_Y,Current_Z,Current_Roll,Current_Pitch,Current_Yaw,Current_VX,Current_VY,Current_VZ,Current_WX,Current_WY,Current_WZ,Target_X,Target_Y,Target_Z,Target_Roll,Target_Pitch,Target_Yaw,Target_VX,Target_VY,Target_VZ,Target_WX,Target_WY,Target_WZ,Error_X,Error_Y,Error_Z,Error_Roll,Error_Pitch,Error_Yaw,Error_VX,Error_VY,Error_VZ,Error_WX,Error_WY,Error_WZ,MPC_Computation_Time,MPC_Status,MPC_Solver,MPC_Solver_Time_Limit,MPC_Solve_Time,MPC_Time_Limit_Exceeded,MPC_Fallback_Used,MPC_Objective,MPC_Iterations,MPC_Optimality_Gap,Command_Vector,Command_Hex,Command_Sent_Time,Total_Active_Thrusters,Thruster_Switches,RW_Torque_X,RW_Torque_Y,RW_Torque_Z,Total_MPC_Loop_Time,Timing_Violation
0,0.0450,0.0450,0.0500,0.050,APPROACHING,0,1000.00,1000.00,1000.00,0.00,0.00,90.00,1.00000,1.00000,1.00000,0.00000,0.00000,1.57080,0.00000,0.00000,0.00000,0.00000,0.00000,0.00000,0.00000,0.00000,0.00000,0.00000,0.00000,0.00000,0.00000,0.00000,0.00000,0.00000,0.00000,0.00000,1.00000,1.00000,1.00000,0.00000,0.00000,-1.57080,0.00000,0.00000,0.00000,0.00000,0.00000,0.00000,0.0000,,,,0.0423,,,,,,"[0.000, 0.000, 0.000, 0.000, 0.000, 0.000]",0x000000,0.0450,0,0,0.000000,0.000000,0.000000,0.0000,NO
1,0.0950,0.0950,0.0500,0.050,APPROACHING,0,1000.00,1000.00,1000.00,0.00,0.00,90.00,1.00000,1.00000,1.00000,0.00000,0.00000,1.57080,0.00000,0.00000,0.00000,0.00000,0.00000,0.00000,0.00000,0.00000,0.00000,0.00000,0.00000,0.00000,0.00000,0.00000,0.00000,0.00000,0.00000,0.00000,1.00000,1.00000,1.00000,0.00000,0.00000,-1.57080,0.00000,0.00000,0.00000,0.00000,0.00000,0.00000,0.0000,,,,0.0423,,,,,,"[0.000, 0.000, 0.000, 0.000, 0.000, 0.000]",0x000000,0.0950,0,0,0.000000,0.000000,0.000000,0.0000,NO
2,0.1450,0.1450,0.0500,0.050,APPROACHING,0,1000.00,1000.00,1000.00,0.00,0.00,90.00,1.00000,1.00000,1.00000,0.00000,0.00000,1.57080,0.00000,0.00000,0.00000,0.00000,0.00000,0.00000,0.00000,0.00000,0.00000,0.00000,0.00000,0.00000,0.00000,0.00000,0.00000,0.00000,0.00000,0.00000,1.00000,1.00000,1.00000,0.00000,0.00000,-1.57080,0.00000,0.00000,0.00000,0.00000,0.00000,0.00000,0.0000,,,,0.0420,,,,,,"[0.000, 0.000, 0.000, 0.000, 0.000, 0.000]",0x000000,0.1450,0,0,0.000000,0.000000,0.000000,0.0000,NO
3,0.1950,0.1950,0.0500,0.050,APPROACHING,0,1000.00,1000.00,1000.00,0.00,0.00,90.00,1.00000,1.00000,1.00000,0.00000,0.00000,1.57080,0.00000,0.00000,0.00000,0.00000,0.00000,0.00000,0.00000,0.00000,0.00000,0.00000,0.00000,0.00000,0.00000,0.00000,0.00000,0.00000,0.00000,0.00000,1.00000,1.00000,1.00000,0.00000,0.00000,-1.57080,0.00000,0.00000,0.00000,0.00000,0.00000,0.00000,0.0000,,,,0.0420,,,,,,"[0.000, 0.000, 0.000, 0.000, 0.000, 0.000]",0x000000,0.1950,0,0,0.000000,0.000000,0.000000,0.0000,NO
4,0.2450,0.2450,0.0500,0.050,APPROACHING,0,1000.00,1000.00,1000.00,0.00,0.00,90.00,1.00000,1.00000,1.00000,0.00000,0.00000,1.57080,0.00000,0.00000,0.00000,0.00000,0.00000,0.00000,0.00000,0.00000,0.00000,0.00000,0.00000,0.00000,0.00000,0.00000,0.00000,0.00000,0.00000,0.00000,1.00000,1.00000,1.00000,0.00000,0.00000,-1.57080,0.00000,0.00000,0.00000,0.00000,0.00000,0.00000,0.0000,,,,0.0421,,,,,,"[0.000, 0.000, 0.000, 0.000, 0.000, 0.000]",0x000000,0.2450,0,0,0.000000,0.000000,0.000000,0.0000,NO
5,0.2950,0.2950,0.0500,0.050,APPROACHING,0,1000.00,1000.00,1000.00,0.00,0.00,90.00,1.00000,1.00000,1.00000,0.00000,0.00000,1.57080,0.00000,0.00000,0.00000,0.00000,0.00000,0.00000,0.00000,0.00000,0.00000,0.00000,0.00000,0.00000,0.00000,0.00000,0.00000,0.00000,0.00000,0.00000,1.00000,1.00000,1.00000,0.00000,0.00000,-1.57080,0.00000,0.00000,0.00000,0.00000,0.00000,0.00000,0.0000,,,,0.0421,,,,,,"[0.000, 0.000, 0.000, 0.000, 0.000, 0.000]",0x000000,0.2950,0,0,0.000000,0.000000,0.000000,0.0000,NO
6,0.3450,0.3450,0.0500,0.050,APPROACHING,0,1000.00,1000.00,1000.00,0.00,0.00,90.00,1.00000,1.00000,1.00000,0.00000,0.00000,1.57080,0.00000,0.00000,0.00000,0.00000,0.00000,0.00000,0.00000,0.00000,0.00000,0.00000,0.00000,0.00000,0.00000,0.00000,0.00000,0.00000,0.00000,0.00000,1.00000,1.00000,1.00000,0.00000,0.00000,-1.57080,0.00000,0.00000,0.00000,0.00000,0.00000,0.00000,0.0000,,,,0.0410,,,,,,"[0.000, 0.000, 0.000, 0.000, 0.000, 0.000]",0x000000,0.3450,0,0,0.000000,0.000000,0.000000,0.0000,NO
7,0.3950,0.3950,0.0500,0.050,APPROACHING,0,1000.00,1000.00,1000.00,0.00,0.00,90.00,1.00000,1.00000,1.00000,0.00000,0.00000,1.57080,0.00000,0.00000,0.00000,0.00000,0.00000,0.00000,0.00000,0.00000,0.00000,0.00000,0.00000,0.00000,0.00000,0.00000,0.00000,0.00000,0.00000,0.00000,1.00000,1.00000,1.00000,0.00000,0.00000,-1.57080,0.00000,0.00000,0.00000,0.00000,0.00000,0.00000,0.0000,,,,0.0040,,,,,,"[1.000, 0.000, 0.000, 0.000, 1.000, 0.000]",0x100010,0.3950,2,2,-0.009659,0.009659,0.054708,0.0000,NO
8,0.4450,0.4450,0.0500,0.050,APPROACHING,0,1000.00,999.94,999.94,-0.01,0.01,90.05,1.00000,0.99994,0.99994,-0.00014,0.00014,1.57161,0.00000,-0.00250,-0.00250,-0.00574,0.00574,0.03253,0.00000,0.00000,0.00000,0.00000,0.00000,0.00000,0.00000,0.00000,0.00000,0.00000,0.00000,0.00000,1.00000,0.99994,0.99994,0.00014,-0.00014,-1.57161,-0.00000,0.00250,0.00250,0.00574,-0.00574,-0.03253,0.0000,,,,0.0419,,,,,,"[0.000, 0.000, 0.000, 0.000, 0.000, 0.000]",0x000000,0.4450,0,2,0.000000,0.000000,0.000000,0.0000,NO
9,0.4950,0.4950,0.0500,0.050,APPROACHING,0,1000.00,999.81,999.81,-0.02,0.02,90.14,1.00000,0.99981,0.99981,-0.00043,0.00043,1.57324,0.00000,-0.00250,-0.00250,-0.00574,0.00574,0.03253,0.00000,0.00000,0.00000,0.00000,0.00000,0.00000,0.00000,0.00000,0.00000,0.00000,0.00000,0.00000,1.00000,0.99981,0.99981,0.00043,-0.00043,-1.57324,-0.00000,0.00250,0.00250,0.00574,-0.00574,-0.03253,0.0000,,,,0.0419,,,,,,"[0.000, 0.000, 0.000, 0.000, 0.000, 0.000]",0x000000,0.4950,0,0,0.000000,0.000000,0.000000,0.0000,NO
10,0.5450,0.5450,0.0500,0.050,APPROACHING,0,1000.00,999.69,999.69,-0.04,0.04,90.23,1.00000,0.99969,0.99969,-0.00072,0.00072,1.57486,0.00000,-0.00250,-0.00250,-0.00574,0.00574,0.03253,0.00000,0.00000,0.00000,0.00000,0.00000,0.00000,0.00000,0.00000,0.00000,0.00000,0.00000,0.00000,1.00000,0.99969,0.99969,0.00072,-0.00072,-1.57486,-0.00000,0.00250,0.00250,0.00574,-0.00574,-0.03253,0.0000,,,,0.0292,,,,,,"[0.998, 0.000, 0.000, 0.000, 0.998, 0.000]",0x100010,0.5450,2,2,-0.026936,0.026898,0.152461,0.0000,NO
11,0.5950,0.5950,0.0500,0.050,APPROACHING,0,1000.00,999.50,999.50,-0.08,0.08,90.46,1.00000,0.99950,0.99950,-0.00140,0.00141,1.57875,0.00002,-0.00500,-0.00500,-0.02176,0.02173,0.12317,0.00000,0.00000,0.00000,0.00000,0.00000,0.00000,0.00000,0.00000,0.00000,0.00000,0.00000,0.00000,1.00000,0.99950,0.99950,0.00140,-0.00141,-1.57875,-0.00002,0.00500,0.00500,0.02176,-0.02173,-0.12317,0.0000,,,,0.0419,,,,,,"[0.000, 0.000, 0.000, 0.000, 0.000, 0.000]",0x000000,0.5950,0,2,0.000000,0.000000,0.000000,0.0000,NO
12,0.6450,0.6450,0.0500,0.050,APPROACHING,0,1000.00,999.25,999.25,-0.14,0.14,90.81,1.00000,0.99925,0.99925,-0.00248,0.00251,1.58491,0.00002,-0.00500,-0.00500,-0.02176,0.02173,0.12317,0.00000,0.00000,0.00000,0.00000,0.00000,0.00000,0.00000,0.00000,0.00000,0.00000,0.00000,0.00000,1.00000,0.99925,0.99925,0.00248,-0.00251,-1.58491,-0.00002,0.00500,0.00500,0.02176,-0.02173,-0.12317,0.0000,,,,0.0421,,,,,,"[0.000, 0.000, 0.000, 0.000, 0.000, 0.000]",0x000000,0.6450,0,0,0.000000,0.000000,0.000000,0.0000,NO
13,0.6950,0.6950,0.0500,0.050,APPROACHING,0,1000.00,999.00,999.00,-0.20,0.21,91.16,1.00000,0.99900,0.99900,-0.00354,0.00361,1.59106,0.00002,-0.00500,-0.00500,-0.02176,0.02173,0.12317,0.00000,0.00000,0.00000,0.00000,0.00000,0.00000,0.00000,0.00000,0.00000,0.00000,0.00000,0.00000,1.00000,0.99900,0.99900,0.00354,-0.00361,-1.59106,-0.00002,0.00500,0.00500,0.02176,-0.02173,-0.12317,0.0000,,,,0.0340,,,,,,"[0.998, 0.000, 0.000, 0.000, 0.998, 0.000]",0x100010,0.6950,2,2,-0.075166,0.074909,0.425019,0.0000,NO
14,0.7450,0.7450,0.0500,0.050,APPROACHING,0,1000.00,998.69,998.69,-0.33,0.34,91.88,1.00000,0.99869,0.99869,-0.00569,0.00587,1.60353,0.00009,-0.00751,-0.00749,-0.06644,0.06627,0.37586,0.00000,0.00000,0.00000,0.00000,0.00000,0.00000,0.00000,0.00000,0.00000,0.00000,0.00000,0.00000,1.00000,0.99869,0.99869,0.00569,-0.00587,-1.60353,-0.00009,0.00751,0.00749,0.06644,-0.06627,-0.37586,0.0000,,,,0.0420,,,,,,"[0.000, 0.000, 0.000, 0.000, 0.000, 0.000]",0x000000,0.7450,0,2,0.000000,0.000000,0.000000,0.0000,NO
15,0.7950,0.7950,0.0500,0.050,APPROACHING,0,1000.01,998.31,998.31,-0.51,0.53,92.95,1.00001,0.99831,0.99831,-0.00887,0.00932,1.62230,0.00009,-0.00751,-0.00749,-0.06644,0.06627,0.37586,0.00000,0.00000,0.00000,0.00000,0.00000,0.00000,0.00000,0.00000,0.00000,0.00000,0.00000,0.00000,1.00001,0.99831,0.99831,0.00887,-0.00932,-1.62230,-0.00009,0.00751,0.00749,0.06644,-0.06627,-0.37586,0.0000,,,,0.0419,,,,,,"[0.000, 0.000, 0.000, 0.000, 0.000, 0.000]",0x000000,0.7950,0,0,0.000000,0.000000,0.000000,0.0000,NO
16,0.8450,0.8450,0.0500,0.050,APPROACHING,0,1000.01,997.94,997.94,-0.69,0.74,94.03,1.00001,0.99794,0.99794,-0.01198,0.01283,1.64106,0.00009,-0.00751,-0.00749,-0.06644,0.06627,0.37586,0.00000,0.00000,0.00000,0.00000,0.00000,0.00000,0.00000,0.00000,0.00000,0.00000,0.00000,0.00000,1.00001,0.99794,0.99794,0.01198,-0.01283,-1.64106,-0.00009,0.00751,0.00749,0.06644,-0.06627,-0.37586,0.0000,,,,0.0419,,,,,,"[0.000, 0.000, 0.000, 0.000, 0.000, 0.000]",0x000000,0.8450,0,0,0.000000,0.000000,0.000000,0.0000,NO
17,0.8950,0.8950,0.0500,0.050,APPROACHING,0,1000.02,997.56,997.57,-0.86,0.94,95.10,1.00002,0.99756,0.99757,-0.01503,0.01640,1.65981,0.00009,-0.00751,-0.00749,-0.06644,0.06627,0.37586,0.00000,0.00000,0.00000,0.00000,0.00000,0.00000,0.00000,0.00000,0.00000,0.00000,0.00000,0.00000,1.00002,0.99756,0.99757,0.01503,-0.01640,-1.65981,-0.00009,0.00751,0.00749,0.06644,-0.06627,-0.37586,0.0000,,,,0.0240,,,,,,"[0.998, 0.000, 0.000, 0.000, 0.998, 0.000]",0x100010,0.8950,2,2,-0.209992,0.208611,1.185447,0.0000,NO
18,0.9450,0.9450,0.0500,0.050,APPROACHING,0,1000.03,997.12,997.13,-1.19,1.34,97.18,1.00003,0.99712,0.99713,-0.02075,0.02346,1.69610,0.00039,-0.01004,-0.00994,-0.19129,0.19030,1.08064,0.00000,0.00000,0.00000,0.00000,0.00000,0.00000,0.00000,0.00000,0.00000,0.00000,0.00000,0.00000,1.00003,0.99712,0.99713,0.02075,-0.02346,-1.69610,-0.00039,0.01004,0.00994,0.19129,-0.19030,-1.08064,0.0000,,,,0.0239,,,,,,"[1.000, 0.000, 0.001, 0.000, 1.000, 0.000]",0x100010,0.9450,2,0,-0.585133,0.580933,2.000000,0.0000,NO
19,0.9950,0.9950,0.0500,0.050,APPROACHING,0,1000.06,996.56,996.57,-2.08,2.52,101.95,1.00006,0.99656,0.99657,-0.03624,0.04398,1.77936,0.00086,-0.01257,-0.01236,-0.53880,0.53605,2.26970,0.00000,0.00000,0.00000,0.00000,0.00000,0.00000,0.00000,0.00000,0.00000,0.00000,0.00000,0.00000,1.00006,0.99656,0.99657,0.03624,-0.04398,-1.77936,-0.00086,0.01257,0.01236,0.53880,-0.53605,-2.26970,0.0000,,,,0.0084,,,,,,"[1.000, 0.000, 0.000, 0.000, 1.000, 0.000]",0x100010,0.9950,2,0,-1.629357,1.618857,2.000000,0.0000,NO
20,1.0450,1.0450,0.0500,0.050,APPROACHING,0,1000.12,995.86,995.90,-4.44,5.89,110.00,1.00012,0.99586,0.99590,-0.07741,0.10276,1.91980,0.00169,-0.01510,-0.01468,-1.50362,1.50239,3.45876,0.00000,0.00000,0.00000,0.00000,0.00000,0.00000,0.00000,0.00000,0.00000,0.00000,0.00000,0.00000,1.00012,0.99586,0.99590,0.07741,-0.10276,-1.91980,-0.00169,0.01510,0.01468,1.50362,-1.50239,-3.45876,0.0000,,,,0.0186,,,,,,"[1.000, 0.000, 0.000, 0.000, 1.000, 0.000]",0x100010,1.0450,2,0,-2.000000,2.000000,2.000000,0.0000,NO
21,1.0950,1.0950,0.0500,0.050,APPROACHING,0,1000.24,995.05,995.11,-8.66,13.18,120.99,1.00024,0.99505,0.99511,-0.15118,0.23004,2.11166,0.00313,-0.01757,-0.01676,-2.68684,2.69723,4.64785,0.00000,0.00000,0.00000,0.00000,0.00000,0.00000,0.00000,0.00000,0.00000,0.00000,0.00000,0.00000,1.00024,0.99505,0.99511,0.15118,-0.23004,-2.11166,-0.00313,0.01757,0.01676,2.68684,-2.69723,-4.64785,0.0000,,,,0.0251,,,,,,"[1.000, 0.000, 0.000, 0.000, 1.000, 0.000]",0x100010,1.0950,2,0,-2.000000,2.000000,2.000000,0.0000,NO
22,1.1450,1.1450,0.0500,0.050,APPROACHING,0,1000.45,994.11,994.23,-13.61,25.36,134.64,1.00045,0.99411,0.99423,-0.23752,0.44265,2.34984,0.00539,-0.01978,-0.01830,-3.87006,3.89208,5.83693,0.00000,0.00000,0.00000,0.00000,0.00000,0.00000,0.00000,0.00000,0.00000,0.00000,0.00000,0.00000,1.00045,0.99411,0.99423,0.23752,-0.44265,-2.34984,-0.00539,0.01978,0.01830,3.87006,-3.89208,-5.83693,0.0000,,,,0.0359,,,,,,"[0.000, 0.000, 0.000, 0.000, 1.000, 0.000]",0x000010,1.1450,1,1,-2.000000,2.000000,2.000000,0.0000,NO
23,1.1950,1.1950,0.0500,0.050,APPROACHING,0,1000.75,993.11,993.26,-16.73,42.69,151.96,1.00075,0.99311,0.99326,-0.29199,0.74503,2.65217,0.00682,-0.02004,-0.02032,-5.05328,5.08693,7.02599,0.00000,0.00000,0.00000,0.00000,0.00000,0.00000,0.00000,0.00000,0.00000,0.00000,0.00000,0.00000,1.00075,0.99311,0.99326,0.29199,-0.74503,-2.65217,-0.00682,0.02004,0.02032,5.05328,-5.08693,-7.02599,0.0000,,,,0.0429,,,,,,"[0.000, 0.000, 0.000, 0.000, 0.000, 0.000]",0x000000,1.1950,0,1,0.000000,0.000000,0.000000,0.0000,NO
24,1.2450,1.2450,0.0500,0.050,APPROACHING,0,1001.09,992.11,992.24,-10.07,61.93,178.42,1.00109,0.99211,0.99224,-0.17570,1.08086,3.11396,0.00682,-0.02004,-0.02032,-5.05328,5.08693,7.02599,0.00000,0.00000,0.00000,0.00000,0.00000,0.00000,0.00000,0.00000,0.00000,0.00000,0.00000,0.00000,1.00109,0.99211,0.99224,0.17570,-1.08086,-3.11396,-0.00682,0.02004,0.02032,5.05328,-5.08693,-7.02599,0.0000,,,,0.0121,,,,,,"[0.000, 0.000, 0.006, 0.000, 0.000, 0.000]",0x000000,1.2450,0,0,-2.000000,2.000000,2.000000,0.0000,NO
25,1.2950,1.2950,0.0500,0.050,APPROACHING,0,1001.43,991.11,991.23,40.80,73.96,-110.43,1.00143,0.99111,0.99123,0.71213,1.29079,-1.92733,0.00682,-0.02004,-0.02032,-6.23651,6.28179,8.21505,0.00000,0.00000,0.00000,0.00000,0.00000,0.00000,0.00000,0.00000,0.00000,0.00000,0.00000,0.00000,1.00143,0.99111,0.99123,-0.71213,-1.29079,1.92733,-0.00682,0.02004,0.02032,6.23651,-6.28179,-8.21505,0.0000,,,,0.0430,,,,,,"[0.000, 0.000, 0.000, 0.000, 0.000, 0.000]",0x000000,1.2950,0,0,0.000000,0.000000,0.000000,0.0000,NO
26,1.3450,1.3450,0.0500,0.050,APPROACHING,0,1001.77,990.11,990.21,86.80,58.22,-41.95,1.00177,0.99011,0.99021,1.51490,1.01606,-0.73210,0.00682,-0.02004,-0.02032,-6.23651,6.28179,8.21505,0.00000,0.00000,0.00000,0.00000,0.00000,0.00000,0.00000,0.00000,0.00000,0.00000,0.00000,0.00000,1.00177,0.99011,0.99021,-1.51490,-1.01606,0.73210,-0.00682,0.02004,0.02032,6.23651,-6.28179,-8.21505,0.0000,,,,0.0184,,,,,,"[0.000, 0.000, 1.000, 0.000, 0.000, 0.000]",0x001000,1.3450,1,1,-2.000000,2.000000,2.000000,0.0000,NO
27,1.3950,1.3950,0.0500,0.050,APPROACHING,0,1002.07,989.13,989.16,88.50,33.23,-12.50,1.00207,0.98913,0.98916,1.54461,0.57998,-0.21818,0.00522,-0.01920,-0.02201,-7.41975,7.47666,9.40409,0.00000,0.00000,0.00000,0.00000,0.00000,0.00000,0.00000,0.00000,0.00000,0.00000,0.00000,0.00000,1.00207,0.98913,0.98916,-1.54461,-0.57998,0.21818,-0.00522,0.01920,0.02201,7.41975,-7.47666,-9.40409,0.0000,,,,0.0429,,,,,,"[0.000, 0.000, 0.000, 0.000, 0.000, 0.000]",0x000000,1.3950,0,1,0.000000,0.000000,0.000000,0.0000,NO
28,1.4450,1.4450,0.0500,0.050,APPROACHING,0,1002.33,988.17,988.06,76.41,9.02,13.74,1.00233,0.98817,0.98806,1.33353,0.15748,0.23975,0.00522,-0.01920,-0.02201,-7.41975,7.47666,9.40409,0.00000,0.00000,0.00000,0.00000,0.00000,0.00000,0.00000,0.00000,0.00000,0.00000,0.00000,0.00000,1.00233,0.98817,0.98806,-1.33353,-0.15748,-0.23975,-0.00522,0.01920,0.02201,7.41975,-7.47666,-9.40409,0.0000,,,,0.0317,,,,,,"[1.000, 0.000, 1.000, 0.000, 0.000, 0.000]",0x101000,1.4450,2,2,-2.000000,2.000000,2.000000,0.0000,NO
29,1.4950,1.4950,0.0500,0.050,APPROACHING,0,1002.54,987.17,986.90,53.10,-7.37,46.51,1.00254,0.98717,0.98690,0.92678,-0.12862,0.81180,0.00347,-0.02116,-0.02425,-8.60299,8.67153,10.59312,0.00000,0.00000,0.00000,0.00000,0.00000,0.00000,0.00000,0.00000,0.00000,0.00000,0.00000,0.00000,1.00254,0.98717,0.98690,-0.92678,0.12862,-0.81180,-0.00347,0.02116,0.02425,8.60299,-8.67153,-10.59312,0.0000,,,,0.0429,,,,,,"[0.000, 0.000, 0.000, 0.000, 0.000, 0.000]",0x000000,1.4950,0,2,0.000000,0.000000,0.000000,0.0000,NO
30,1.5450,1.5450,0.0500,0.050,APPROACHING,0,1002.72,986.11,985.69,22.59,-6.34,85.69,1.00272,0.98611,0.98569,0.39429,-0.11064,1.49562,0.00347,-0.02116,-0.02425,-8.60299,8.67153,10.59312,0.00000,0.00000,0.00000,0.00000,0.00000,0.00000,0.00000,0.00000,0.00000,0.00000,0.00000,0.00000,1.00272,0.98611,0.98569,-0.39429,0.11064,-1.49562,-0.00347,0.02116,0.02425,8.60299,-8.67153,-10.59312,0.0000,,,,0.0429,,,,,,"[0.000, 0.000, 0.000, 0.000, 0.000, 0.000]",0x000000,1.5450,0,0,0.000000,0.000000,0.000000,0.0000,NO
31,1.5950,1.5950,0.0500,0.050,APPROACHING,0,1002.89,985.05,984.48,-1.04,12.81,119.77,1.00289,0.98505,0.98448,-0.01821,0.22361,2.09041,0.00347,-0.02116,-0.02425,-8.60299,8.67153,10.59312,0.00000,0.00000,0.00000,0.00000,0.00000,0.00000,0.00000,0.00000,0.00000,0.00000,0.00000,0.00000,1.00289,0.98505,0.98448,0.01821,-0.22361,-2.09041,-0.00347,0.02116,0.02425,8.60299,-8.67153,-10.59312,0.0000,,,,0.0140,,,,,,"[1.000, 0.000, 0.000, 0.000, 1.000, 0.000]",0x100010,1.5950,2,2,-2.000000,2.000000,2.000000,0.0000,NO
32,1.6450,1.6450,0.0500,0.050,APPROACHING,0,1003.12,983.94,983.23,-12.65,43.59,151.71,1.00312,0.98394,0.98323,-0.22081,0.76083,2.64785,0.00595,-0.02325,-0.02538,-9.78624,9.86641,11.78214,0.00000,0.00000,0.00000,0.00000,0.00000,0.00000,0.00000,0.00000,0.00000,0.00000,0.00000,0.00000,1.00312,0.98394,0.98323,0.22081,-0.76083,-2.64785,-0.00595,0.02325,0.02538,9.78624,-9.86641,-11.78214,0.0000,,,,0.0429,,,,,,"[0.000, 0.000, 0.000, 0.000, 0.000, 0.000]",0x000000,1.6450,0,2,0.000000,0.000000,0.000000,0.0000,NO
33,1.6950,1.6950,0.0500,0.050,APPROACHING,0,1003.42,982.77,981.96,23.32,73.79,-136.31,1.00342,0.98277,0.98196,0.40708,1.28780,-2.37902,0.00595,-0.02325,-0.02538,-9.78624,9.86641,11.78214,0.00000,0.00000,0.00000,0.00000,0.00000,0.00000,0.00000,0.00000,0.00000,0.00000,0.00000,0.00000,1.00342,0.98277,0.98196,-0.40708,-1.28780,2.37902,-0.00595,0.02325,0.02538,9.78624,-9.86641,-11.78214,0.0000,,,,0.0428,,,,,,"[0.000, 0.000, 0.000, 0.000, 0.000, 0.000]",0x000000,1.6950,0,0,0.000000,0.000000,0.000000,0.0000,NO
34,1.7450,1.7450,0.0500,0.050,APPROACHING,0,1003.71,981.61,980.69,92.00,52.75,-32.74,1.00371,0.98161,0.98069,1.60579,0.92060,-0.57142,0.00595,-0.02325,-0.02538,-9.78624,9.86641,11.78214,0.00000,0.00000,0.00000,0.00000,0.00000,0.00000,0.00000,0.00000,0.00000,0.00000,0.00000,0.00000,1.00371,0.98161,0.98069,-1.60579,-0.92060,0.57142,-0.00595,0.02325,0.02538,9.78624,-9.86641,-11.78214,0.0000,,,,0.0292,,,,,,"[0.000, 0.000, 1.000, 0.000, 0.000, 0.000]",0x001000,1.7450,1,1,-2.000000,2.000000,2.000000,0.0000,NO
35,1.7950,1.7950,0.0500,0.050,APPROACHING,0,1003.97,980.47,979.38,83.61,17.37,4.68,1.00397,0.98047,0.97938,1.45932,0.30316,0.08169,0.00459,-0.02279,-0.02735,-10.96949,11.06129,12.97115,0.00000,0.00000,0.00000,0.00000,0.00000,0.00000,0.00000,0.00000,0.00000,0.00000,0.00000,0.00000,1.00397,0.98047,0.97938,-1.45932,-0.30316,-0.08169,-0.00459,0.02279,0.02735,10.96949,-11.06129,-12.97115,0.0000,,,,0.0429,,,,,,"[0.000, 0.000, 0.000, 0.000, 0.000, 0.000]",0x000000,1.7950,0,1,0.000000,0.000000,0.000000,0.0000,NO
36,1.8450,1.8450,0.0500,0.050,APPROACHING,0,1004.20,979.33,978.01,54.36,-6.75,46.90,1.00420,0.97933,0.97801,0.94868,-0.11785,0.81856,0.00459,-0.02279,-0.02735,-10.96949,11.06129,12.97115,0.00000,0.00000,0.00000,0.00000,0.00000,0.00000,0.00000,0.00000,0.00000,0.00000,0.00000,0.00000,1.00420,0.97933,0.97801,-0.94868,0.11785,-0.81856,-0.00459,0.02279,0.02735,10.96949,-11.06129,-12.97115,0.0000,,,,0.0429,,,,,,"[0.000, 0.000, 0.000, 0.000, 0.000, 0.000]",0x000000,1.8450,0,0,0.000000,0.000000,0.000000,0.0000,NO
37,1.8950,1.8950,0.0500,0.050,APPROACHING,0,1004.43,978.19,976.64,16.82,-2.41,95.06,1.00443,0.97819,0.97664,0.29364,-0.04198,1.65908,0.00459,-0.02279,-0.02735,-10.96949,11.06129,12.97115,0.00000,0.00000,0.00000,0.00000,0.00000,0.00000,0.00000,0.00000,0.00000,0.00000,0.00000,0.00000,1.00443,0.97819,0.97664,-0.29364,0.04198,-1.65908,-0.00459,0.02279,0.02735,10.96949,-11.06129,-12.97115,0.0000,,,,0.0430,,,,,,"[0.000, 0.000, 0.000, 0.000, 0.000, 0.000]",0x000000,1.8950,0,0,0.000000,0.000000,0.000000,0.0000,NO
38,1.9450,1.9450,0.0500,0.050,APPROACHING,0,1004.66,977.05,975.27,-7.55,27.01,134.66,1.00466,0.97705,0.97527,-0.13173,0.47139,2.35026,0.00459,-0.02279,-0.02735,-10.96949,11.06129,12.97115,0.00000,0.00000,0.00000,0.00000,0.00000,0.00000,0.00000,0.00000,0.00000,0.00000,0.00000,0.00000,1.00466,0.97705,0.97527,0.13173,-0.47139,-2.35026,-0.00459,0.02279,0.02735,10.96949,-11.06129,-12.97115,0.0000,,,,0.0227,,,,,,"[0.000, 0.000, 0.000, 0.000, 1.000, 0.000]",0x000010,1.9450,1,1,-2.000000,2.000000,2.000000,0.0000,NO
39,1.9950,1.9950,0.0500,0.050,APPROACHING,0,1004.93,975.90,973.86,-1.91,66.42,-173.57,1.00493,0.97590,0.97386,-0.03337,1.15929,-3.02930,0.00629,-0.02307,-0.02907,-12.15274,12.25618,14.16015,0.00000,0.00000,0.00000,0.00000,0.00000,0.00000,0.00000,0.00000,0.00000,0.00000,0.00000,0.00000,1.00493,0.97590,0.97386,0.03337,-1.15929,3.02930,-0.00629,0.02307,0.02907,12.15274,-12.25618,-14.16015,0.0000,,,,0.0429,,,,,,"[0.000, 0.000, 0.000, 0.000, 0.000, 0.000]",0x000000,1.9950,0,1,0.000000,0.000000,0.000000,0.0000,NO
40,2.0450,2.0450,0.0500,0.050,APPROACHING,0,1005.24,974.74,972.41,91.87,56.59,-37.07,1.00524,0.97474,0.97241,1.60341,0.98762,-0.64699,0.00629,-0.02307,-0.02907,-12.15274,12.25618,14.16015,0.00000,0.00000,0.00000,0.00000,0.00000,0.00000,0.00000,0.00000,0.00000,0.00000,0.00000,0.00000,1.00524,0.97474,0.97241,-1.60341,-0.98762,0.64699,-0.00629,0.02307,0.02907,12.15274,-12.25618,-14.16015,0.0000,,,,0.0429,,,,,,"[0.000, 0.000, 0.000, 0.000, 0.000, 0.000]",0x000000,2.0450,0,0,0.000000,0.000000,0.000000,0.0000,NO
41,2.0950,2.0950,0.0500,0.050,APPROACHING,0,1005.56,973.59,970.95,83.16,15.75,7.33,1.00556,0.97359,0.97095,1.45134,0.27496,0.12802,0.00629,-0.02307,-0.02907,-12.15274,12.25618,14.16015,0.00000,0.00000,0.00000,0.00000,0.00000,0.00000,0.00000,0.00000,0.00000,0.00000,0.00000,0.00000,1.00556,0.97359,0.97095,-1.45134,-0.27496,-0.12802,-0.00629,0.02307,0.02907,12.15274,-12.25618,-14.16015,0.0000,,,,0.0428,,,,,,"[0.000, 0.000, 0.000, 0.000, 0.000, 0.000]",0x000000,2.0950,0,0,0.000000,0.000000,0.000000,0.0000,NO
42,2.1450,2.1450,0.0500,0.050,APPROACHING,0,1005.87,972.44,969.50,49.04,-8.12,54.84,1.00587,0.97244,0.96950,0.85598,-0.14171,0.95716,0.00629,-0.02307,-0.02907,-12.15274,12.25618,14.16015,0.00000,0.00000,0.00000,0.00000,0.00000,0.00000,0.00000,0.00000,0.00000,0.00000,0.00000,0.00000,1.00587,0.97244,0.96950,-0.85598,0.14171,-0.95716,-0.00629,0.02307,0.02907,12.15274,-12.25618,-14.16015,0.0000,,,,0.0427,,,,,,"[0.000, 0.000, 0.000, 0.000, 0.000, 0.000]",0x000000,2.1450,0,0,0.000000,0.000000,0.000000,0.0000,NO
43,2.1950,2.1950,0.0500,0.050,APPROACHING,0,1006.19,971.28,968.05,9.22,3.41,106.45,1.00619,0.97128,0.96805,0.16084,0.05957,1.85795,0.00629,-0.02307,-0.02907,-12.15274,12.25618,14.16015,0.00000,0.00000,0.00000,0.00000,0.00000,0.00000,0.00000,0.00000,0.00000,0.00000,0.00000,0.00000,1.00619,0.97128,0.96805,-0.16084,-0.05957,-1.85795,-0.00629,0.02307,0.02907,12.15274,-12.25618,-14.16015,0.0000,,,,0.0146,,,,,,"[0.999, 0.000, 0.000, 0.000, 1.000, 0.000]",0x100010,2.1950,2,2,-2.000000,2.000000,2.000000,0.0000,NO
44,2.2450,2.2450,0.0500,0.050,APPROACHING,0,1006.54,970.07,966.55,-11.69,42.50,150.01,1.00654,0.97007,0.96655,-0.20400,0.74168,2.61816,0.00818,-0.02540,-0.03055,-13.33601,13.45108,15.34913,0.00000,0.00000,0.00000,0.00000,0.00000,0.00000,0.00000,0.00000,0.00000,0.00000,0.00000,0.00000,1.00654,0.97007,0.96655,0.20400,-0.74168,-2.61816,-0.00818,0.02540,0.03055,13.33601,-13.45108,-15.34913,0.0000,,,,0.0428,,,,,,"[0.000, 0.000, 0.000, 0.000, 0.000, 0.000]",0x000000,2.2450,0,2,0.000000,0.000000,0.000000,0.0000,NO
45,2.2950,2.2950,0.0500,0.050,APPROACHING,0,1006.95,968.80,965.02,62.39,73.93,-87.89,1.00695,0.96880,0.96502,1.08883,1.29040,-1.53388,0.00818,-0.02540,-0.03055,-13.33601,13.45108,15.34913,0.00000,0.00000,0.00000,0.00000,0.00000,0.00000,0.00000,0.00000,0.00000,0.00000,0.00000,0.00000,1.00695,0.96880,0.96502,-1.08883,-1.29040,1.53388,-0.00818,0.02540,0.03055,13.33601,-13.45108,-15.34913,0.0000,,,,0.0429,,,,,,"[0.000, 0.000, 0.000, 0.000, 0.000, 0.000]",0x000000,2.2950,0,0,0.000000,0.000000,0.000000,0.0000,NO
46,2.3450,2.3450,0.0500,0.050,APPROACHING,0,1007.35,967.53,963.49,91.44,31.24,-8.21,1.00735,0.96753,0.96349,1.59600,0.54516,-0.14324,0.00818,-0.02540,-0.03055,-13.33601,13.45108,15.34913,0.00000,0.00000,0.00000,0.00000,0.00000,0.00000,0.00000,0.00000,0.00000,0.00000,0.00000,0.00000,1.00735,0.96753,0.96349,-1.59600,-0.54516,0.14324,-0.00818,0.02540,0.03055,13.33601,-13.45108,-15.34913,0.0000,,,,0.0429,,,,,,"[0.000, 0.000, 0.000, 0.000, 0.000, 0.000]",0x000000,2.3450,0,0,0.000000,0.000000,0.000000,0.0000,NO
47,2.3950,2.3950,0.0500,0.050,APPROACHING,0,1007.76,966.26,961.96,61.95,-4.11,39.13,1.00776,0.96626,0.96196,1.08129,-0.07181,0.68302,0.00818,-0.02540,-0.03055,-13.33601,13.45108,15.34913,0.00000,0.00000,0.00000,0.00000,0.00000,0.00000,0.00000,0.00000,0.00000,0.00000,0.00000,0.00000,1.00776,0.96626,0.96196,-1.08129,0.07181,-0.68302,-0.00818,0.02540,0.03055,13.33601,-13.45108,-15.34913,0.0000,,,,0.0429,,,,,,"[0.000, 0.000, 0.000, 0.000, 0.000, 0.000]",0x000000,2.3950,0,0,0.000000,0.000000,0.000000,0.0000,NO
48,2.4450,2.4450,0.0500,0.050,APPROACHING,0,1008.17,964.99,960.44,16.77,-2.07,96.46,1.00817,0.96499,0.96044,0.29267,-0.03620,1.68355,0.00818,-0.02540,-0.03055,-13.33601,13.45108,15.34913,0.00000,0.00000,0.00000,0.00000,0.00000,0.00000,0.00000,0.00000,0.00000,0.00000,0.00000,0.00000,1.00817,0.96499,0.96044,-0.29267,0.03620,-1.68355,-0.00818,0.02540,0.03055,13.33601,-13.45108,-15.34913,0.0000,,,,0.0430,,,,,,"[0.000, 0.000, 0.000, 0.000, 0.000, 0.000]",0x000000,2.4450,0,0,0.000000,0.000000,0.000000,0.0000,NO
49,2.4950,2.4950,0.0500,0.050,APPROACHING,0,1008.58,963.72,958.91,-10.25,35.35,142.90,1.00858,0.96372,0.95891,-0.17896,0.61704,2.49413,0.00818,-0.02540,-0.03055,-13.33601,13.45108,15.34913,0.00000,0.00000,0.00000,0.00000,0.00000,0.00000,0.00000,0.00000,0.00000,0.00000,0.00000,0.00000,1.00858,0.96372,0.95891,0.17896,-0.61704,-2.49413,-0.00818,0.02540,0.03055,13.33601,-13.45108,-15.34913,0.0000,,,,0.0186,,,,,,"[0.000, 0.000, 0.000, 0.000, 1.000, 0.000]",0x000010,2.4950,1,1,-2.000000,2.000000,2.000000,0.0000,NO
50,2.5450,2.5450,0.0500,0.050,APPROACHING,0,1009.04,962.44,957.34,43.09,75.46,-112.30,1.00904,0.96244,0.95734,0.75214,1.31702,-1.96002,0.01018,-0.02536,-0.03188,-14.51927,14.64598,16.53810,0.00000,0.00000,0.00000,0.00000,0.00000,0.00000,0.00000,0.00000,0.00000,0.00000,0.00000,0.00000,1.00904,0.96244,0.95734,-0.75214,-1.31702,1.96002,-0.01018,0.02536,0.03188,14.51927,-14.64598,-16.53810,0.0000,,,,0.0429,,,,,,"[0.000, 0.000, 0.000, 0.000, 0.000, 0.000]",0x000000,2.5450,0,1,0.000000,0.000000,0.000000,0.0000,NO
51,2.5950,2.5950,0.0500,0.050,APPROACHING,0,1009.55,961.17,955.75,92.30,32.67,-8.96,1.00955,0.96117,0.95575,1.61092,0.57025,-0.15632,0.01018,-0.02536,-0.03188,-14.51927,14.64598,16.53810,0.00000,0.00000,0.00000,0.00000,0.00000,0.00000,0.00000,0.00000,0.00000,0.00000,0.00000,0.00000,1.00955,0.96117,0.95575,-1.61092,-0.57025,0.15632,-0.01018,0.02536,0.03188,14.51927,-14.64598,-16.53810,0.0000,,,,0.0429,,,,,,"[0.000, 0.000, 0.000, 0.000, 0.000, 0.000]",0x000000,2.5950,0,0,0.000000,0.000000,0.000000,0.0000,NO
52,2.6450,2.6450,0.0500,0.050,APPROACHING,0,1010.05,959.91,954.16,59.94,-5.06,42.59,1.01005,0.95991,0.95416,1.04608,-0.08832,0.74339,0.01018,-0.02536,-0.03188,-14.51927,14.64598,16.53810,0.00000,0.00000,0.00000,0.00000,0.00000,0.00000,0.00000,0.00000,0.00000,0.00000,0.00000,0.00000,1.01005,0.95991,0.95416,-1.04608,0.08832,-0.74339,-0.01018,0.02536,0.03188,14.51927,-14.64598,-16.53810,0.0000,,,,0.0429,,,,,,"[0.000, 0.000, 0.000, 0.000, 0.000, 0.000]",0x000000,2.6450,0,0,0.000000,0.000000,0.000000,0.0000,NO
53,2.6950,2.6950,0.0500,0.050,APPROACHING,0,1010.56,958.64,952.56,11.71,1.74,104.00,1.01056,0.95864,0.95256,0.20440,0.03034,1.81520,0.01018,-0.02536,-0.03188,-14.51927,14.64598,16.53810,0.00000,0.00000,0.00000,0.00000,0.00000,0.00000,0.00000,0.00000,0.00000,0.00000,0.00000,0.00000,1.01056,0.95864,0.95256,-0.20440,-0.03034,-1.81520,-0.01018,0.02536,0.03188,14.51927,-14.64598,-16.53810,0.0000,,,,0.0428,,,,,,"[0.000, 0.000, 0.000, 0.000, 0.000, 0.000]",0x000000,2.6950,0,0,0.000000,0.000000,0.000000,0.0000,NO
54,2.7450,2.7450,0.0500,0.050,APPROACHING,0,1011.07,957.37,950.97,-11.84,45.79,153.57,1.01107,0.95737,0.95097,-0.20665,0.79923,2.68025,0.01018,-0.02536,-0.03188,-14.51927,14.64598,16.53810,0.00000,0.00000,0.00000,0.00000,0.00000,0.00000,0.00000,0.00000,0.00000,0.00000,0.00000,0.00000,1.01107,0.95737,0.95097,0.20665,-0.79923,-2.68025,-0.01018,0.02536,0.03188,14.51927,-14.64598,-16.53810,0.0000,,,,0.0429,,,,,,"[0.000, 0.000, 0.000, 0.000, 0.000, 0.000]",0x000000,2.7450,0,0,0.000000,0.000000,0.000000,0.0000,NO
55,2.7950,2.7950,0.0500,0.050,APPROACHING,0,1011.58,956.10,949.37,80.69,69.50,-62.40,1.01158,0.95610,0.94937,1.40833,1.21299,-1.08909,0.01018,-0.02536,-0.03188,-14.51927,14.64598,16.53810,0.00000,0.00000,0.00000,0.00000,0.00000,0.00000,0.00000,0.00000,0.00000,0.00000,0.00000,0.00000,1.01158,0.95610,0.94937,-1.40833,-1.21299,1.08909,-0.01018,0.02536,0.03188,14.51927,-14.64598,-16.53810,0.0000,,,,0.0248,,,,,,"[0.000, 0.000, 1.000, 0.000, 0.000, 0.000]",0x001000,2.7950,1,1,-2.000000,2.000000,2.000000,0.0000,NO
56,2.8450,2.8450,0.0500,0.050,APPROACHING,0,1012.05,954.87,947.75,86.31,19.39,4.61,1.01205,0.95487,0.94775,1.50646,0.33840,0.08048,0.00874,-0.02443,-0.03351,-15.70255,15.84089,17.72707,0.00000,0.00000,0.00000,0.00000,0.00000,0.00000,0.00000,0.00000,0.00000,0.00000,0.00000,0.00000,1.01205,0.95487,0.94775,-1.50646,-0.33840,-0.08048,-0.00874,0.02443,0.03351,15.70255,-15.84089,-17.72707,0.0000,,,,0.0429,,,,,,"[0.000, 0.000, 0.000, 0.000, 0.000, 0.000]",0x000000,2.8450,0,1,0.000000,0.000000,0.000000,0.0000,NO
57,2.8950,2.8950,0.0500,0.050,APPROACHING,0,1012.49,953.64,946.07,42.00,-8.48,65.48,1.01249,0.95364,0.94607,0.73310,-0.14792,1.14291,0.00874,-0.02443,-0.03351,-15.70255,15.84089,17.72707,0.00000,0.00000,0.00000,0.00000,0.00000,0.00000,0.00000,0.00000,0.00000,0.00000,0.00000,0.00000,1.01249,0.95364,0.94607,-0.73310,0.14792,-1.14291,-0.00874,0.02443,0.03351,15.70255,-15.84089,-17.72707,0.0000,,,,0.0429,,,,,,"[0.000, 0.000, 0.000, 0.000, 0.000, 0.000]",0x000000,2.8950,0,0,0.000000,0.000000,0.000000,0.0000,NO
58,2.9450,2.9450,0.0500,0.050,APPROACHING,0,1012.93,952.42,944.39,-2.52,19.01,126.49,1.01293,0.95242,0.94439,-0.04403,0.33178,2.20775,0.00874,-0.02443,-0.03351,-15.70255,15.84089,17.72707,0.00000,0.00000,0.00000,0.00000,0.00000,0.00000,0.00000,0.00000,0.00000,0.00000,0.00000,0.00000,1.01293,0.95242,0.94439,0.04403,-0.33178,-2.20775,-0.00874,0.02443,0.03351,15.70255,-15.84089,-17.72707,0.0000,,,,0.0427,,,,,,"[0.000, 0.000, 0.000, 0.000, 0.000, 0.000]",0x000000,2.9450,0,0,0.000000,0.000000,0.000000,0.0000,NO
59,2.9950,2.9950,0.0500,0.050,APPROACHING,0,1013.36,951.20,942.72,5.66,70.56,-161.66,1.01336,0.95120,0.94272,0.09881,1.23143,-2.82145,0.00874,-0.02443,-0.03351,-15.70255,15.84089,17.72707,0.00000,0.00000,0.00000,0.00000,0.00000,0.00000,0.00000,0.00000,0.00000,0.00000,0.00000,0.00000,1.01336,0.95120,0.94272,-0.09881,-1.23143,2.82145,-0.00874,0.02443,0.03351,15.70255,-15.84089,-17.72707,0.0000,,,,0.0428,,,,,,"[0.000, 0.000, 0.000, 0.000, 0.000, 0.000]",0x000000,2.9950,0,0,0.000000,0.000000,0.000000,0.0000,NO
60,3.0450,3.0450,0.0500,0.050,APPROACHING,0,1013.80,949.98,941.04,94.30,40.52,-16.58,1.01380,0.94998,0.94104,1.64587,0.70724,-0.28943,0.00874,-0.02443,-0.03351,-15.70255,15.84089,17.72707,0.00000,0.00000,0.00000,0.00000,0.00000,0.00000,0.00000,0.00000,0.00000,0.00000,0.00000,0.00000,1.01380,0.94998,0.94104,-1.64587,-0.70724,0.28943,-0.00874,0.02443,0.03351,15.70255,-15.84089,-17.72707,0.0000,,,,0.0430,,,,,,"[0.000, 0.000, 0.000, 0.000, 0.000, 0.000]",0x000000,3.0450,0,0,0.000000,0.000000,0.000000,0.0000,NO
61,3.0950,3.0950,0.0500,0.050,APPROACHING,0,1014.24,948.76,939.37,63.66,-3.04,38.03,1.01424,0.94876,0.93937,1.11103,-0.05298,0.66371,0.00874,-0.02443,-0.03351,-15.70255,15.84089,17.72707,0.00000,0.00000,0.00000,0.00000,0.00000,0.00000,0.00000,0.00000,0.00000,0.00000,0.00000,0.00000,1.01424,0.94876,0.93937,-1.11103,0.05298,-0.66371,-0.00874,0.02443,0.03351,15.70255,-15.84089,-17.72707,0.0000,,,,0.0431,,,,,,"[0.000, 0.000, 0.000, 0.000, 0.000, 0.000]",0x000000,3.0950,0,0,0.000000,0.000000,0.000000,0.0000,NO
62,3.1450,3.1450,0.0500,0.050,APPROACHING,0,1014.67,947.54,937.69,12.11,2.03,103.95,1.01467,0.94754,0.93769,0.21131,0.03550,1.81435,0.00874,-0.02443,-0.03351,-15.70255,15.84089,17.72707,0.00000,0.00000,0.00000,0.00000,0.00000,0.00000,0.00000,0.00000,0.00000,0.00000,0.00000,0.00000,1.01467,0.94754,0.93769,-0.21131,-0.03550,-1.81435,-0.00874,0.02443,0.03351,15.70255,-15.84089,-17.72707,0.0000,,,,0.0164,,,,,,"[1.000, 0.000, 0.000, 0.000, 1.000, 0.000]",0x100010,3.1450,2,2,-2.000000,2.000000,2.000000,0.0000,NO
63,3.1950,3.1950,0.0500,0.050,APPROACHING,0,1015.14,946.25,935.97,-11.33,51.87,160.19,1.01514,0.94625,0.93597,-0.19772,0.90528,2.79587,0.01072,-0.02662,-0.03481,-16.88582,17.03581,18.91602,0.00000,0.00000,0.00000,0.00000,0.00000,0.00000,0.00000,0.00000,0.00000,0.00000,0.00000,0.00000,1.01514,0.94625,0.93597,0.19772,-0.90528,-2.79587,-0.01072,0.02662,0.03481,16.88582,-17.03581,-18.91602,0.0000,,,,0.0430,,,,,,"[0.000, 0.000, 0.000, 0.000, 0.000, 0.000]",0x000000,3.1950,0,2,0.000000,0.000000,0.000000,0.0000,NO
64,3.2450,3.2450,0.0500,0.050,APPROACHING,0,1015.68,944.92,934.23,94.15,57.02,-35.11,1.01568,0.94492,0.93423,1.64324,0.99522,-0.61287,0.01072,-0.02662,-0.03481,-16.88582,17.03581,18.91602,0.00000,0.00000,0.00000,0.00000,0.00000,0.00000,0.00000,0.00000,0.00000,0.00000,0.00000,0.00000,1.01568,0.94492,0.93423,-1.64324,-0.99522,0.61287,-0.01072,0.02662,0.03481,16.88582,-17.03581,-18.91602,0.0000,,,,0.0429,,,,,,"[0.000, 0.000, 0.000, 0.000, 0.000, 0.000]",0x000000,3.2450,0,0,0.000000,0.000000,0.000000,0.0000,NO
65,3.2950,3.2950,0.0500,0.050,APPROACHING,0,1016.22,943.59,932.49,74.28,4.07,24.32,1.01622,0.94359,0.93249,1.29640,0.07105,0.42438,0.01072,-0.02662,-0.03481,-16.88582,17.03581,18.91602,0.00000,0.00000,0.00000,0.00000,0.00000,0.00000,0.00000,0.00000,0.00000,0.00000,0.00000,0.00000,1.01622,0.94359,0.93249,-1.29640,-0.07105,-0.42438,-0.01072,0.02662,0.03481,16.88582,-17.03581,-18.91602,0.0000,,,,0.0429,,,,,,"[0.000, 0.000, 0.000, 0.000, 0.000, 0.000]",0x000000,3.2950,0,0,0.000000,0.000000,0.000000,0.0000,NO
66,3.3450,3.3450,0.0500,0.050,APPROACHING,0,1016.75,942.26,930.75,19.43,-2.75,94.42,1.01675,0.94226,0.93075,0.33904,-0.04795,1.64790,0.01072,-0.02662,-0.03481,-16.88582,17.03581,18.91602,0.00000,0.00000,0.00000,0.00000,0.00000,0.00000,0.00000,0.00000,0.00000,0.00000,0.00000,0.00000,1.01675,0.94226,0.93075,-0.33904,0.04795,-1.64790,-0.01072,0.02662,0.03481,16.88582,-17.03581,-18.91602,0.0000,,,,0.0429,,,,,,"[0.000, 0.000, 0.000, 0.000, 0.000, 0.000]",0x000000,3.3450,0,0,0.000000,0.000000,0.000000,0.0000,NO
67,3.3950,3.3950,0.0500,0.050,APPROACHING,0,1017.29,940.93,929.01,-11.43,45.20,152.73,1.01729,0.94093,0.92901,-0.19942,0.78898,2.66560,0.01072,-0.02662,-0.03481,-16.88582,17.03581,18.91602,0.00000,0.00000,0.00000,0.00000,0.00000,0.00000,0.00000,0.00000,0.00000,0.00000,0.00000,0.00000,1.01729,0.94093,0.92901,0.19942,-0.78898,-2.66560,-0.01072,0.02662,0.03481,16.88582,-17.03581,-18.91602,0.0000,,,,0.0429,,,,,,"[0.000, 0.000, 0.000, 0.000, 0.000, 0.000]",0x000000,3.3950,0,0,0.000000,0.000000,0.000000,0.0000,NO
68,3.4450,3.4450,0.0500,0.050,APPROACHING,0,1017.82,939.60,927.27,90.37,63.42,-45.79,1.01782,0.93960,0.92727,1.57731,1.10688,-0.79917,0.01072,-0.02662,-0.03481,-16.88582,17.03581,18.91602,0.00000,0.00000,0.00000,0.00000,0.00000,0.00000,0.00000,0.00000,0.00000,0.00000,0.00000,0.00000,1.01782,0.93960,0.92727,-1.57731,-1.10688,0.79917,-0.01072,0.02662,0.03481,16.88582,-17.03581,-18.91602,0.0000,,,,0.0429,,,,,,"[0.000, 0.000, 0.000, 0.000, 0.000, 0.000]",0x000000,3.4450,0,0,0.000000,0.000000,0.000000,0.0000,NO
69,3.4950,3.4950,0.0500,0.050,APPROACHING,0,1018.36,938.27,925.53,79.02,8.79,17.46,1.01836,0.93827,0.92553,1.37911,0.15337,0.30467,0.01072,-0.02662,-0.03481,-16.88582,17.03581,18.91602,0.00000,0.00000,0.00000,0.00000,0.00000,0.00000,0.00000,0.00000,0.00000,0.00000,0.00000,0.00000,1.01836,0.93827,0.92553,-1.37911,-0.15337,-0.30467,-0.01072,0.02662,0.03481,16.88582,-17.03581,-18.91602,0.0000,,,,0.0428,,,,,,"[0.000, 0.000, 0.000, 0.000, 0.000, 0.000]",0x000000,3.4950,0,0,0.000000,0.000000,0.000000,0.0000,NO
70,3.5450,3.5450,0.0500,0.050,APPROACHING,0,1018.90,936.93,923.79,25.50,-5.52,86.59,1.01890,0.93693,0.92379,0.44506,-0.09642,1.51125,0.01072,-0.02662,-0.03481,-16.88582,17.03581,18.91602,0.00000,0.00000,0.00000,0.00000,0.00000,0.00000,0.00000,0.00000,0.00000,0.00000,0.00000,0.00000,1.01890,0.93693,0.92379,-0.44506,0.09642,-1.51125,-0.01072,0.02662,0.03481,16.88582,-17.03581,-18.91602,0.0000,,,,0.0143,,,,,,"[0.999, 0.000, 0.000, 0.000, 1.000, 0.000]",0x100010,3.5450,2,2,-2.000000,2.000000,2.000000,0.0000,NO
71,3.5950,3.5950,0.0500,0.050,APPROACHING,0,1019.44,935.54,921.99,-10.91,40.62,147.80,1.01944,0.93554,0.92199,-0.19034,0.70897,2.57958,0.01174,-0.02903,-0.03664,-18.06910,18.23073,20.10495,0.00000,0.00000,0.00000,0.00000,0.00000,0.00000,0.00000,0.00000,0.00000,0.00000,0.00000,0.00000,1.01944,0.93554,0.92199,0.19034,-0.70897,-2.57958,-0.01174,0.02903,0.03664,18.06910,-18.23073,-20.10495,0.0000,,,,0.0429,,,,,,"[0.000, 0.000, 0.000, 0.000, 0.000, 0.000]",0x000000,3.5950,0,2,0.000000,0.000000,0.000000,0.0000,NO
72,3.6450,3.6450,0.0500,0.050,APPROACHING,0,1020.03,934.09,920.16,90.48,64.19,-46.56,1.02003,0.93409,0.92016,1.57913,1.12034,-0.81265,0.01174,-0.02903,-0.03664,-18.06910,18.23073,20.10495,0.00000,0.00000,0.00000,0.00000,0.00000,0.00000,0.00000,0.00000,0.00000,0.00000,0.00000,0.00000,1.02003,0.93409,0.92016,-1.57913,-1.12034,0.81265,-0.01174,0.02903,0.03664,18.06910,-18.23073,-20.10495,0.0000,,,,0.0429,,,,,,"[0.000, 0.000, 0.000, 0.000, 0.000, 0.000]",0x000000,3.6450,0,0,0.000000,0.000000,0.000000,0.0000,NO
73,3.6950,3.6950,0.0500,0.050,APPROACHING,0,1020.61,932.64,918.33,77.09,6.38,20.88,1.02061,0.93264,0.91833,1.34546,0.11127,0.36438,0.01174,-0.02903,-0.03664,-18.06910,18.23073,20.10495,0.00000,0.00000,0.00000,0.00000,0.00000,0.00000,0.00000,0.00000,0.00000,0.00000,0.00000,0.00000,1.02061,0.93264,0.91833,-1.34546,-0.11127,-0.36438,-0.01174,0.02903,0.03664,18.06910,-18.23073,-20.10495,0.0000,,,,0.0429,,,,,,"[0.000, 0.000, 0.000, 0.000, 0.000, 0.000]",0x000000,3.6950,0,0,0.000000,0.000000,0.000000,0.0000,NO
74,3.7450,3.7450,0.0500,0.050,APPROACHING,0,1021.20,931.19,916.50,19.07,-2.54,95.04,1.02120,0.93119,0.91650,0.33280,-0.04442,1.65882,0.01174,-0.02903,-0.03664,-18.06910,18.23073,20.10495,0.00000,0.00000,0.00000,0.00000,0.00000,0.00000,0.00000,0.00000,0.00000,0.00000,0.00000,0.00000,1.02120,0.93119,0.91650,-0.33280,0.04442,-1.65882,-0.01174,0.02903,0.03664,18.06910,-18.23073,-20.10495,0.0000,,,,0.0429,,,,,,"[0.000, 0.000, 0.000, 0.000, 0.000, 0.000]",0x000000,3.7450,0,0,0.000000,0.000000,0.000000,0.0000,NO
75,3.7950,3.7950,0.0500,0.050,APPROACHING,0,1021.79,929.74,914.66,-11.67,49.75,157.36,1.02179,0.92974,0.91466,-0.20363,0.86836,2.74645,0.01174,-0.02903,-0.03664,-18.06910,18.23073,20.10495,0.00000,0.00000,0.00000,0.00000,0.00000,0.00000,0.00000,0.00000,0.00000,0.00000,0.00000,0.00000,1.02179,0.92974,0.91466,0.20363,-0.86836,-2.74645,-0.01174,0.02903,0.03664,18.06910,-18.23073,-20.10495,0.0000,,,,0.0428,,,,,,"[0.000, 0.000, 0.000, 0.000, 0.000, 0.000]",0x000000,3.7950,0,0,0.000000,0.000000,0.000000,0.0000,NO
76,3.8450,3.8450,0.0500,0.050,APPROACHING,0,1022.37,928.28,912.83,95.29,55.36,-32.29,1.02237,0.92828,0.91283,1.66314,0.96626,-0.56350,0.01174,-0.02903,-0.03664,-18.06910,18.23073,20.10495,0.00000,0.00000,0.00000,0.00000,0.00000,0.00000,0.00000,0.00000,0.00000,0.00000,0.00000,0.00000,1.02237,0.92828,0.91283,-1.66314,-0.96626,0.56350,-0.01174,0.02903,0.03664,18.06910,-18.23073,-20.10495,0.0000,,,,0.0428,,,,,,"[0.000, 0.000, 0.000, 0.000, 0.000, 0.000]",0x000000,3.8450,0,0,0.000000,0.000000,0.000000,0.0000,NO
77,3.8950,3.8950,0.0500,0.050,APPROACHING,0,1022.96,926.83,911.00,70.09,0.46,30.56,1.02296,0.92683,0.91100,1.22339,0.00802,0.53341,0.01174,-0.02903,-0.03664,-18.06910,18.23073,20.10495,0.00000,0.00000,0.00000,0.00000,0.00000,0.00000,0.00000,0.00000,0.00000,0.00000,0.00000,0.00000,1.02296,0.92683,0.91100,-1.22339,-0.00802,-0.53341,-0.01174,0.02903,0.03664,18.06910,-18.23073,-20.10495,0.0000,,,,0.0428,,,,,,"[0.000, 0.000, 0.000, 0.000, 0.000, 0.000]",0x000000,3.8950,0,0,0.000000,0.000000,0.000000,0.0000,NO
78,3.9450,3.9450,0.0500,0.050,APPROACHING,0,1023.55,925.38,909.17,11.50,2.60,105.14,1.02355,0.92538,0.90917,0.20070,0.04534,1.83508,0.01174,-0.02903,-0.03664,-18.06910,18.23073,20.10495,0.00000,0.00000,0.00000,0.00000,0.00000,0.00000,0.00000,0.00000,0.00000,0.00000,0.00000,0.00000,1.02355,0.92538,0.90917,-0.20070,-0.04534,-1.83508,-0.01174,0.02903,0.03664,18.06910,-18.23073,-20.10495,0.0000,,,,0.0429,,,,,,"[0.000, 0.000, 0.000, 0.000, 0.000, 0.000]",0x000000,3.9450,0,0,0.000000,0.000000,0.000000,0.0000,NO
79,3.9950,3.9950,0.0500,0.050,APPROACHING,0,1024.13,923.93,907.34,-9.69,58.83,169.08,1.02413,0.92393,0.90734,-0.16904,1.02677,2.95095,0.01174,-0.02903,-0.03664,-18.06910,18.23073,20.10495,0.00000,0.00000,0.00000,0.00000,0.00000,0.00000,0.00000,0.00000,0.00000,0.00000,0.00000,0.00000,1.02413,0.92393,0.90734,0.16904,-1.02677,-2.95095,-0.01174,0.02903,0.03664,18.06910,-18.23073,-20.10495,0.0000,,,,0.0145,,,,,,"[0.000, 0.000, 0.000, 0.000, 0.000, 0.000]",0x000000,3.9950,0,0,-2.000000,2.000000,2.000000,0.0000,NO
80,4.0450,4.0450,0.0500,0.050,APPROACHING,0,1024.72,922.48,905.50,95.96,44.33,-19.40,1.02472,0.92248,0.90550,1.67482,0.77362,-0.33866,0.01174,-0.02903,-0.03664,-19.25239,19.42566,21.29388,0.00000,0.00000,0.00000,0.00000,0.00000,0.00000,0.00000,0.00000,0.00000,0.00000,0.00000,0.00000,1.02472,0.92248,0.90550,-1.67482,-0.77362,0.33866,-0.01174,0.02903,0.03664,19.25239,-19.42566,-21.29388,0.0000,,,,0.0430,,,,,,"[0.000, 0.000, 0.000, 0.000, 0.000, 0.000]",0x000000,4.0450,0,0,0.000000,0.000000,0.000000,0.0000,NO
81,4.0950,4.0950,0.0500,0.050,APPROACHING,0,1025.31,921.03,903.67,56.79,-6.15,48.15,1.02531,0.92103,0.90367,0.99124,-0.10733,0.84029,0.01174,-0.02903,-0.03664,-19.25239,19.42566,21.29388,0.00000,0.00000,0.00000,0.00000,0.00000,0.00000,0.00000,0.00000,0.00000,0.00000,0.00000,0.00000,1.02531,0.92103,0.90367,-0.99124,0.10733,-0.84029,-0.01174,0.02903,0.03664,19.25239,-19.42566,-21.29388,0.0000,,,,0.0429,,,,,,"[0.000, 0.000, 0.000, 0.000, 0.000, 0.000]",0x000000,4.0950,0,0,0.000000,0.000000,0.000000,0.0000,NO
82,4.1450,4.1450,0.0500,0.050,APPROACHING,0,1025.89,919.58,901.84,-0.92,17.00,124.27,1.02589,0.91958,0.90184,-0.01599,0.29667,2.16884,0.01174,-0.02903,-0.03664,-19.25239,19.42566,21.29388,0.00000,0.00000,0.00000,0.00000,0.00000,0.00000,0.00000,0.00000,0.00000,0.00000,0.00000,0.00000,1.02589,0.91958,0.90184,0.01599,-0.29667,-2.16884,-0.01174,0.02903,0.03664,19.25239,-19.42566,-21.29388,0.0000,,,,0.0429,,,,,,"[0.000, 0.000, 0.000, 0.000, 0.000, 0.000]",0x000000,4.1450,0,0,0.000000,0.000000,0.000000,0.0000,NO
83,4.1950,4.1950,0.0500,0.050,APPROACHING,0,1026.48,918.13,900.01,34.05,75.72,-124.21,1.02648,0.91813,0.90001,0.59429,1.32157,-2.16795,0.01174,-0.02903,-0.03664,-19.25239,19.42566,21.29388,0.00000,0.00000,0.00000,0.00000,0.00000,0.00000,0.00000,0.00000,0.00000,0.00000,0.00000,0.00000,1.02648,0.91813,0.90001,-0.59429,-1.32157,2.16795,-0.01174,0.02903,0.03664,19.25239,-19.42566,-21.29388,0.0000,,,,0.0430,,,,,,"[0.000, 0.000, 0.000, 0.000, 0.000, 0.000]",0x000000,4.1950,0,0,0.000000,0.000000,0.000000,0.0000,NO
84,4.2450,4.2450,0.0500,0.050,APPROACHING,0,1027.07,916.67,898.18,87.82,20.54,4.14,1.02707,0.91667,0.89818,1.53273,0.35857,0.07222,0.01174,-0.02903,-0.03664,-19.25239,19.42566,21.29388,0.00000,0.00000,0.00000,0.00000,0.00000,0.00000,0.00000,0.00000,0.00000,0.00000,0.00000,0.00000,1.02707,0.91667,0.89818,-1.53273,-0.35857,-0.07222,-0.01174,0.02903,0.03664,19.25239,-19.42566,-21.29388,0.0000,,,,0.0429,,,,,,"[0.000, 0.000, 0.000, 0.000, 0.000, 0.000]",0x000000,4.2450,0,0,0.000000,0.000000,0.000000,0.0000,NO
85,4.2950,4.2950,0.0500,0.050,APPROACHING,0,1027.66,915.22,896.34,31.92,-7.24,79.10,1.02766,0.91522,0.89634,0.55716,-0.12640,1.38056,0.01174,-0.02903,-0.03664,-19.25239,19.42566,21.29388,0.00000,0.00000,0.00000,0.00000,0.00000,0.00000,0.00000,0.00000,0.00000,0.00000,0.00000,0.00000,1.02766,0.91522,0.89634,-0.55716,0.12640,-1.38056,-0.01174,0.02903,0.03664,19.25239,-19.42566,-21.29388,0.0000,,,,0.0429,,,,,,"[0.000, 0.000, 0.000, 0.000, 0.000, 0.000]",0x000000,4.2950,0,0,0.000000,0.000000,0.000000,0.0000,NO
86,4.3450,4.3450,0.0500,0.050,APPROACHING,0,1028.24,913.77,894.51,-10.59,40.26,147.54,1.02824,0.91377,0.89451,-0.18474,0.70267,2.57499,0.01174,-0.02903,-0.03664,-19.25239,19.42566,21.29388,0.00000,0.00000,0.00000,0.00000,0.00000,0.00000,0.00000,0.00000,0.00000,0.00000,0.00000,0.00000,1.02824,0.91377,0.89451,0.18474,-0.70267,-2.57499,-0.01174,0.02903,0.03664,19.25239,-19.42566,-21.29388,0.0000,,,,0.0429,,,,,,"[0.000, 0.000, 0.000, 0.000, 0.000, 0.000]",0x000000,4.3450,0,0,0.000000,0.000000,0.000000,0.0000,NO
87,4.3950,4.3950,0.0500,0.050,APPROACHING,0,1028.83,912.32,892.68,93.13,60.89,-40.27,1.02883,0.91232,0.89268,1.62536,1.06269,-0.70290,0.01174,-0.02903,-0.03664,-19.25239,19.42566,21.29388,0.00000,0.00000,0.00000,0.00000,0.00000,0.00000,0.00000,0.00000,0.00000,0.00000,0.00000,0.00000,1.02883,0.91232,0.89268,-1.62536,-1.06269,0.70290,-0.01174,0.02903,0.03664,19.25239,-19.42566,-21.29388,0.0000,,,,0.0428,,,,,,"[0.000, 0.000, 0.000, 0.000, 0.000, 0.000]",0x000000,4.3950,0,0,0.000000,0.000000,0.000000,0.0000,NO
88,4.4450,4.4450,0.0500,0.050,APPROACHING,0,1029.42,910.87,890.85,71.55,1.60,28.96,1.02942,0.91087,0.89085,1.24883,0.02786,0.50545,0.01174,-0.02903,-0.03664,-19.25239,19.42566,21.29388,0.00000,0.00000,0.00000,0.00000,0.00000,0.00000,0.00000,0.00000,0.00000,0.00000,0.00000,0.00000,1.02942,0.91087,0.89085,-1.24883,-0.02786,-0.50545,-0.01174,0.02903,0.03664,19.25239,-19.42566,-21.29388,0.0000,,,,0.0429,,,,,,"[0.000, 0.000, 0.000, 0.000, 0.000, 0.000]",0x000000,4.4450,0,0,0.000000,0.000000,0.000000,0.0000,NO
89,4.4950,4.4950,0.0500,0.050,APPROACHING,0,1030.00,909.42,889.02,9.98,4.23,107.70,1.03000,0.90942,0.88902,0.17417,0.07385,1.87965,0.01174,-0.02903,-0.03664,-19.25239,19.42566,21.29388,0.00000,0.00000,0.00000,0.00000,0.00000,0.00000,0.00000,0.00000,0.00000,0.00000,0.00000,0.00000,1.03000,0.90942,0.88902,-0.17417,-0.07385,-1.87965,-0.01174,0.02903,0.03664,19.25239,-19.42566,-21.29388,0.0000,,,,0.0429,,,,,,"[0.000, 0.000, 0.000, 0.000, 0.000, 0.000]",0x000000,4.4950,0,0,0.000000,0.000000,0.000000,0.0000,NO
90,4.5450,4.5450,0.0500,0.050,APPROACHING,0,1030.59,907.97,887.18,-5.26,64.79,179.87,1.03059,0.90797,0.88718,-0.09177,1.13079,3.13937,0.01174,-0.02903,-0.03664,-19.25239,19.42566,21.29388,0.00000,0.00000,0.00000,0.00000,0.00000,0.00000,0.00000,0.00000,0.00000,0.00000,0.00000,0.00000,1.03059,0.90797,0.88718,0.09177,-1.13079,-3.13937,-0.01174,0.02903,0.03664,19.25239,-19.42566,-21.29388,0.0000,,,,0.0291,,,,,,"[0.000, 0.000, 0.000, 0.000, 0.000, 0.000]",0x000000,4.5450,0,0,-2.000000,2.000000,2.000000,0.0000,NO
91,4.5950,4.5950,0.0500,0.050,APPROACHING,0,1031.18,906.52,885.35,93.87,34.33,-9.34,1.03118,0.90652,0.88535,1.63834,0.59914,-0.16297,0.01174,-0.02903,-0.03664,-20.43568,20.62060,22.48280,0.00000,0.00000,0.00000,0.00000,0.00000,0.00000,0.00000,0.00000,0.00000,0.00000,0.00000,0.00000,1.03118,0.90652,0.88535,-1.63834,-0.59914,0.16297,-0.01174,0.02903,0.03664,20.43568,-20.62060,-22.48280,0.0000,,,,0.0427,,,,,,"[0.000, 0.000, 0.000, 0.000, 0.000, 0.000]",0x000000,4.5950,0,0,0.000000,0.000000,0.000000,0.0000,NO
92,4.6450,4.6450,0.0500,0.050,APPROACHING,0,1031.76,905.06,883.52,42.88,-8.24,65.80,1.03176,0.90506,0.88352,0.74838,-0.14388,1.14835,0.01174,-0.02903,-0.03664,-20.43568,20.62060,22.48280,0.00000,0.00000,0.00000,0.00000,0.00000,0.00000,0.00000,0.00000,0.00000,0.00000,0.00000,0.00000,1.03176,0.90506,0.88352,-0.74838,0.14388,-1.14835,-0.01174,0.02903,0.03664,20.43568,-20.62060,-22.48280,0.0000,,,,0.0429,,,,,,"[0.000, 0.000, 0.000, 0.000, 0.000, 0.000]",0x000000,4.6450,0,0,0.000000,0.000000,0.000000,0.0000,NO
93,4.6950,4.6950,0.0500,0.050,APPROACHING,0,1032.35,903.61,881.69,-8.60,33.65,141.15,1.03235,0.90361,0.88169,-0.15016,0.58736,2.46352,0.01174,-0.02903,-0.03664,-20.43568,20.62060,22.48280,0.00000,0.00000,0.00000,0.00000,0.00000,0.00000,0.00000,0.00000,0.00000,0.00000,0.00000,0.00000,1.03235,0.90361,0.88169,0.15016,-0.58736,-2.46352,-0.01174,0.02903,0.03664,20.43568,-20.62060,-22.48280,0.0000,,,,0.0430,,,,,,"[0.000, 0.000, 0.000, 0.000, 0.000, 0.000]",0x000000,4.6950,0,0,0.000000,0.000000,0.000000,0.0000,NO
94,4.7450,4.7450,0.0500,0.050,APPROACHING,0,1032.94,902.16,879.86,91.19,63.62,-45.16,1.03294,0.90216,0.87986,1.59148,1.11038,-0.78818,0.01174,-0.02903,-0.03664,-20.43568,20.62060,22.48280,0.00000,0.00000,0.00000,0.00000,0.00000,0.00000,0.00000,0.00000,0.00000,0.00000,0.00000,0.00000,1.03294,0.90216,0.87986,-1.59148,-1.11038,0.78818,-0.01174,0.02903,0.03664,20.43568,-20.62060,-22.48280,0.0000,,,,0.0429,,,,,,"[0.000, 0.000, 0.000, 0.000, 0.000, 0.000]",0x000000,4.7450,0,0,0.000000,0.000000,0.000000,0.0000,NO
95,4.7950,4.7950,0.0500,0.050,APPROACHING,0,1033.52,900.71,878.02,70.78,1.10,30.29,1.03352,0.90071,0.87802,1.23528,0.01922,0.52863,0.01174,-0.02903,-0.03664,-20.43568,20.62060,22.48280,0.00000,0.00000,0.00000,0.00000,0.00000,0.00000,0.00000,0.00000,0.00000,0.00000,0.00000,0.00000,1.03352,0.90071,0.87802,-1.23528,-0.01922,-0.52863,-0.01174,0.02903,0.03664,20.43568,-20.62060,-22.48280,0.0000,,,,0.0430,,,,,,"[0.000, 0.000, 0.000, 0.000, 0.000, 0.000]",0x000000,4.7950,0,0,0.000000,0.000000,0.000000,0.0000,NO
96,4.8450,4.8450,0.0500,0.050,APPROACHING,0,1034.11,899.26,876.19,6.57,7.87,112.97,1.03411,0.89926,0.87619,0.11466,0.13743,1.97165,0.01174,-0.02903,-0.03664,-20.43568,20.62060,22.48280,0.00000,0.00000,0.00000,0.00000,0.00000,0.00000,0.00000,0.00000,0.00000,0.00000,0.00000,0.00000,1.03411,0.89926,0.87619,-0.11466,-0.13743,-1.97165,-0.01174,0.02903,0.03664,20.43568,-20.62060,-22.48280,0.0000,,,,0.0430,,,,,,"[0.000, 0.000, 0.000, 0.000, 0.000, 0.000]",0x000000,4.8450,0,0,0.000000,0.000000,0.000000,0.0000,NO
97,4.8950,4.8950,0.0500,0.050,APPROACHING,0,1034.70,897.81,874.36,9.19,72.16,-156.74,1.03470,0.89781,0.87436,0.16034,1.25942,-2.73554,0.01174,-0.02903,-0.03664,-20.43568,20.62060,22.48280,0.00000,0.00000,0.00000,0.00000,0.00000,0.00000,0.00000,0.00000,0.00000,0.00000,0.00000,0.00000,1.03470,0.89781,0.87436,-0.16034,-1.25942,2.73554,-0.01174,0.02903,0.03664,20.43568,-20.62060,-22.48280,0.0000,,,,0.0429,,,,,,"[0.000, 0.000, 0.000, 0.000, 0.000, 0.000]",0x000000,4.8950,0,0,0.000000,0.000000,0.000000,0.0000,NO
98,4.9450,4.9450,0.0500,0.050,APPROACHING,0,1035.28,896.36,872.53,89.70,24.02,0.79,1.03528,0.89636,0.87253,1.56550,0.41918,0.01387,0.01174,-0.02903,-0.03664,-20.43568,20.62060,22.48280,0.00000,0.00000,0.00000,0.00000,0.00000,0.00000,0.00000,0.00000,0.00000,0.00000,0.00000,0.00000,1.03528,0.89636,0.87253,-1.56550,-0.41918,-0.01387,-0.01174,0.02903,0.03664,20.43568,-20.62060,-22.48280,0.0000,,,,0.0429,,,,,,"[0.000, 0.000, 0.000, 0.000, 0.000, 0.000]",0x000000,4.9450,0,0,0.000000,0.000000,0.000000,0.0000,NO
99,4.9950,4.9950,0.0500,0.050,APPROACHING,0,1035.87,894.91,870.69,31.92,-7.02,79.43,1.03587,0.89491,0.87069,0.55705,-0.12261,1.38635,0.01174,-0.02903,-0.03664,-20.43568,20.62060,22.48280,0.00000,0.00000,0.00000,0.00000,0.00000,0.00000,0.00000,0.00000,0.00000,0.00000,0.00000,0.00000,1.03587,0.89491,0.87069,-0.55705,0.12261,-1.38635,-0.01174,0.02903,0.03664,20.43568,-20.62060,-22.48280,0.0000,,,,0.0430,,,,,,"[0.000, 0.000, 0.000, 0.000, 0.000, 0.000]",0x000000,4.9950,0,0,0.000000,0.000000,0.000000,0.0000,NO
100,5.0450,5.0450,0.0500,0.050,APPROACHING,0,1036.46,893.45,868.86,-10.98,44.43,151.82,1.03646,0.89345,0.86886,-0.19169,0.77545,2.64975,0.01174,-0.02903,-0.03664,-20.43568,20.62060,22.48280,0.00000,0.00000,0.00000,0.00000,0.00000,0.00000,0.00000,0.00000,0.00000,0.00000,0.00000,0.00000,1.03646,0.89345,0.86886,0.19169,-0.77545,-2.64975,-0.01174,0.02903,0.03664,20.43568,-20.62060,-22.48280,0.0000,,,,0.0428,,,,,,"[0.000, 0.000, 0.000, 0.000, 0.000, 0.000]",0x000000,5.0450,0,0,0.000000,0.000000,0.000000,0.0000,NO
101,5.0950,5.0950,0.0500,0.050,APPROACHING,0,1037.05,892.00,867.03,95.95,52.97,-28.91,1.03705,0.89200,0.86703,1.67470,0.92451,-0.50456,0.01174,-0.02903,-0.03664,-20.43568,20.62060,22.48280,0.00000,0.00000,0.00000,0.00000,0.00000,0.00000,0.00000,0.00000,0.00000,0.00000,0.00000,0.00000,1.03705,0.89200,0.86703,-1.67470,-0.92451,0.50456,-0.01174,0.02903,0.03664,20.43568,-20.62060,-22.48280,0.0000,,,,0.0185,,,,,,"[0.000, 0.000, 1.000, 0.000, 0.000, 0.000]",0x001000,5.0950,1,1,-2.000000,2.000000,2.000000,0.0000,NO
102,5.1450,5.1450,0.0500,0.050,APPROACHING,0,1037.60,890.56,865.15,59.45,-4.97,45.11,1.03760,0.89056,0.86515,1.03768,-0.08679,0.78733,0.01100,-0.02900,-0.03878,-21.61898,21.81554,23.67170,0.00000,0.00000,0.00000,0.00000,0.00000,0.00000,0.00000,0.00000,0.00000,0.00000,0.00000,0.00000,1.03760,0.89056,0.86515,-1.03768,0.08679,-0.78733,-0.01100,0.02900,0.03878,21.61898,-21.81554,-23.67170,0.0000,,,,0.0430,,,,,,"[0.000, 0.000, 0.000, 0.000, 0.000, 0.000]",0x000000,5.1450,0,1,0.000000,0.000000,0.000000,0.0000,NO
103,5.1950,5.1950,0.0500,0.050,APPROACHING,0,1038.15,889.11,863.21,-3.25,21.83,129.21,1.03815,0.88911,0.86321,-0.05680,0.38104,2.25511,0.01100,-0.02900,-0.03878,-21.61898,21.81554,23.67170,0.00000,0.00000,0.00000,0.00000,0.00000,0.00000,0.00000,0.00000,0.00000,0.00000,0.00000,0.00000,1.03815,0.88911,0.86321,0.05680,-0.38104,-2.25511,-0.01100,0.02900,0.03878,21.61898,-21.81554,-23.67170,0.0000,,,,0.0428,,,,,,"[0.000, 0.000, 0.000, 0.000, 0.000, 0.000]",0x000000,5.1950,0,0,0.000000,0.000000,0.000000,0.0000,NO
104,5.2450,5.2450,0.0500,0.050,APPROACHING,0,1038.70,887.66,861.27,79.11,71.14,-66.36,1.03870,0.88766,0.86127,1.38076,1.24164,-1.15822,0.01100,-0.02900,-0.03878,-21.61898,21.81554,23.67170,0.00000,0.00000,0.00000,0.00000,0.00000,0.00000,0.00000,0.00000,0.00000,0.00000,0.00000,0.00000,1.03870,0.88766,0.86127,-1.38076,-1.24164,1.15822,-0.01100,0.02900,0.03878,21.61898,-21.81554,-23.67170,0.0000,,,,0.0429,,,,,,"[0.000, 0.000, 0.000, 0.000, 0.000, 0.000]",0x000000,5.2450,0,0,0.000000,0.000000,0.000000,0.0000,NO
105,5.2950,5.2950,0.0500,0.050,APPROACHING,0,1039.25,886.21,859.33,74.68,4.27,24.98,1.03925,0.88621,0.85933,1.30333,0.07446,0.43592,0.01100,-0.02900,-0.03878,-21.61898,21.81554,23.67170,0.00000,0.00000,0.00000,0.00000,0.00000,0.00000,0.00000,0.00000,0.00000,0.00000,0.00000,0.00000,1.03925,0.88621,0.85933,-1.30333,-0.07446,-0.43592,-0.01100,0.02900,0.03878,21.61898,-21.81554,-23.67170,0.0000,,,,0.0429,,,,,,"[0.000, 0.000, 0.000, 0.000, 0.000, 0.000]",0x000000,5.2950,0,0,0.000000,0.000000,0.000000,0.0000,NO
106,5.3450,5.3450,0.0500,0.050,APPROACHING,0,1039.80,884.76,857.39,7.41,7.32,111.88,1.03980,0.88476,0.85739,0.12939,0.12774,1.95271,0.01100,-0.02900,-0.03878,-21.61898,21.81554,23.67170,0.00000,0.00000,0.00000,0.00000,0.00000,0.00000,0.00000,0.00000,0.00000,0.00000,0.00000,0.00000,1.03980,0.88476,0.85739,-0.12939,-0.12774,-1.95271,-0.01100,0.02900,0.03878,21.61898,-21.81554,-23.67170,0.0000,,,,0.0428,,,,,,"[0.000, 0.000, 0.000, 0.000, 0.000, 0.000]",0x000000,5.3450,0,0,0.000000,0.000000,0.000000,0.0000,NO
107,5.3950,5.3950,0.0500,0.050,APPROACHING,0,1040.35,883.31,855.45,17.64,73.98,-145.54,1.04035,0.88331,0.85545,0.30790,1.29124,-2.54024,0.01100,-0.02900,-0.03878,-21.61898,21.81554,23.67170,0.00000,0.00000,0.00000,0.00000,0.00000,0.00000,0.00000,0.00000,0.00000,0.00000,0.00000,0.00000,1.04035,0.88331,0.85545,-0.30790,-1.29124,2.54024,-0.01100,0.02900,0.03878,21.61898,-21.81554,-23.67170,0.0000,,,,0.0429,,,,,,"[0.000, 0.000, 0.000, 0.000, 0.000, 0.000]",0x000000,5.3950,0,0,0.000000,0.000000,0.000000,0.0000,NO
108,5.4450,5.4450,0.0500,0.050,APPROACHING,0,1040.90,881.86,853.51,86.29,17.95,7.20,1.04090,0.88186,0.85351,1.50612,0.31329,0.12565,0.01100,-0.02900,-0.03878,-21.61898,21.81554,23.67170,0.00000,0.00000,0.00000,0.00000,0.00000,0.00000,0.00000,0.00000,0.00000,0.00000,0.00000,0.00000,1.04090,0.88186,0.85351,-1.50612,-0.31329,-0.12565,-0.01100,0.02900,0.03878,21.61898,-21.81554,-23.67170,0.0000,,,,0.0429,,,,,,"[0.000, 0.000, 0.000, 0.000, 0.000, 0.000]",0x000000,5.4450,0,0,0.000000,0.000000,0.000000,0.0000,NO
109,5.4950,5.4950,0.0500,0.050,APPROACHING,0,1041.45,880.41,851.58,21.80,-3.19,92.37,1.04145,0.88041,0.85158,0.38042,-0.05574,1.61208,0.01100,-0.02900,-0.03878,-21.61898,21.81554,23.67170,0.00000,0.00000,0.00000,0.00000,0.00000,0.00000,0.00000,0.00000,0.00000,0.00000,0.00000,0.00000,1.04145,0.88041,0.85158,-0.38042,0.05574,-1.61208,-0.01100,0.02900,0.03878,21.61898,-21.81554,-23.67170,0.0000,,,,0.0429,,,,,,"[0.000, 0.000, 0.000, 0.000, 0.000, 0.000]",0x000000,5.4950,0,0,0.000000,0.000000,0.000000,0.0000,NO
110,5.5450,5.5450,0.0500,0.050,APPROACHING,0,1042.00,878.96,849.64,-8.84,59.22,169.85,1.04200,0.87896,0.84964,-0.15424,1.03358,2.96442,0.01100,-0.02900,-0.03878,-21.61898,21.81554,23.67170,0.00000,0.00000,0.00000,0.00000,0.00000,0.00000,0.00000,0.00000,0.00000,0.00000,0.00000,0.00000,1.04200,0.87896,0.84964,0.15424,-1.03358,-2.96442,-0.01100,0.02900,0.03878,21.61898,-21.81554,-23.67170,0.0000,,,,0.0428,,,,,,"[0.000, 0.000, 0.000, 0.000, 0.000, 0.000]",0x000000,5.5450,0,0,0.000000,0.000000,0.000000,0.0000,NO
111,5.5950,5.5950,0.0500,0.050,APPROACHING,0,1042.55,877.51,847.70,93.94,34.38,-9.43,1.04255,0.87751,0.84770,1.63952,0.60010,-0.16460,0.01100,-0.02900,-0.03878,-21.61898,21.81554,23.67170,0.00000,0.00000,0.00000,0.00000,0.00000,0.00000,0.00000,0.00000,0.00000,0.00000,0.00000,0.00000,1.04255,0.87751,0.84770,-1.63952,-0.60010,0.16460,-0.01100,0.02900,0.03878,21.61898,-21.81554,-23.67170,0.0000,,,,0.0429,,,,,,"[0.000, 0.000, 0.000, 0.000, 0.000, 0.000]",0x000000,5.5950,0,0,0.000000,0.000000,0.000000,0.0000,NO
112,5.6450,5.6450,0.0500,0.050,APPROACHING,0,1043.10,876.06,845.76,39.03,-7.95,70.64,1.04310,0.87606,0.84576,0.68116,-0.13871,1.23288,0.01100,-0.02900,-0.03878,-21.61898,21.81554,23.67170,0.00000,0.00000,0.00000,0.00000,0.00000,0.00000,0.00000,0.00000,0.00000,0.00000,0.00000,0.00000,1.04310,0.87606,0.84576,-0.68116,0.13871,-1.23288,-0.01100,0.02900,0.03878,21.61898,-21.81554,-23.67170,0.0000,,,,0.0429,,,,,,"[0.000, 0.000, 0.000, 0.000, 0.000, 0.000]",0x000000,5.6450,0,0,0.000000,0.000000,0.000000,0.0000,NO
113,5.6950,5.6950,0.0500,0.050,APPROACHING,0,1043.65,874.61,843.82,-10.35,41.45,148.63,1.04365,0.87461,0.84382,-0.18059,0.72350,2.59414,0.01100,-0.02900,-0.03878,-21.61898,21.81554,23.67170,0.00000,0.00000,0.00000,0.00000,0.00000,0.00000,0.00000,0.00000,0.00000,0.00000,0.00000,0.00000,1.04365,0.87461,0.84382,0.18059,-0.72350,-2.59414,-0.01100,0.02900,0.03878,21.61898,-21.81554,-23.67170,0.0000,,,,0.0142,,,,,,"[0.000, 0.000, 0.000, 0.000, 0.000, 0.000]",0x000000,5.6950,0,0,-2.000000,2.000000,2.000000,0.0000,NO
114,5.7450,5.7450,0.0500,0.050,APPROACHING,0,1044.20,873.16,841.88,96.42,50.19,-25.49,1.04420,0.87316,0.84188,1.68281,0.87604,-0.44483,0.01100,-0.02900,-0.03878,-22.80228,23.01050,24.86060,0.00000,0.00000,0.00000,0.00000,0.00000,0.00000,0.00000,0.00000,0.00000,0.00000,0.00000,0.00000,1.04420,0.87316,0.84188,-1.68281,-0.87604,0.44483,-0.01100,0.02900,0.03878,22.80228,-23.01050,-24.86060,0.0000,,,,0.0429,,,,,,"[0.000, 0.000, 0.000, 0.000, 0.000, 0.000]",0x000000,5.7450,0,0,0.000000,0.000000,0.000000,0.0000,NO
