Time,Current_X,Current_Y,Current_Z,Current_Roll,Current_Pitch,Current_Yaw,Current_VX,Current_VY,Current_VZ,Current_WX,Current_WY,Current_WZ,Target_X,Target_Y,Target_Z,Target_Roll,Target_Pitch,Target_Yaw,Error_X,Error_Y,Error_Z,Error_Roll,Error_Pitch,Error_Yaw,Command_Vector,Thruster_1_Cmd,Thruster_1_Val,Thruster_2_Cmd,Thruster_2_Val,Thruster_3_Cmd,Thruster_3_Val,Thruster_4_Cmd,Thruster_4_Val,Thruster_5_Cmd,Thruster_5_Val,Thruster_6_Cmd,Thruster_6_Val
0.0050,1.00000,1.00000,1.00000,0.00000,0.00000,1.57080,0.00000,0.00000,0.00000,0.00000,0.00000,0.00000,0.00000,0.00000,0.00000,0.00000,0.00000,1.57080,-1.00000,-1.00000,-1.00000,0.00000,0.00000,0.00000,"[0.000, 0.000, 0.000, 0.000, 0.000, 0.000]",0.000,0.000,0.000,0.000,0.000,0.000,0.000,0.000,0.000,0.000,0.000,0.000
0.0100,1.00000,1.00000,1.00000,0.00000,0.00000,1.57080,0.00000,0.00000,0.00000,0.00000,0.00000,0.00000,0.00000,0.00000,0.00000,0.00000,0.00000,1.57080,-1.00000,-1.00000,-1.00000,0.00000,0.00000,0.00000,"[0.000, 0.000, 0.000, 0.000, 0.000, 0.000]",0.000,0.000,0.000,0.000,0.000,0.000,0.000,0.000,0.000,0.000,0.000,0.000
0.0150,1.00000,1.00000,1.00000,0.00000,0.00000,1.57080,0.00000,0.00000,0.00000,0.00000,0.00000,0.00000,0.00000,0.00000,0.00000,0.00000,0.00000,1.57080,-1.00000,-1.00000,-1.00000,0.00000,0.00000,0.00000,"[0.000, 0.000, 0.000, 0.000, 0.000, 0.000]",0.000,0.000,0.000,0.000,0.000,0.000,0.000,0.000,0.000,0.000,0.000,0.000
0.0200,1.00000,1.00000,1.00000,0.00000,0.00000,1.57080,0.00000,0.00000,0.00000,0.00000,0.00000,0.00000,0.00000,0.00000,0.00000,0.00000,0.00000,1.57080,-1.00000,-1.00000,-1.00000,0.00000,0.00000,0.00000,"[0.000, 0.000, 0.000, 0.000, 0.000, 0.000]",0.000,0.000,0.000,0.000,0.000,0.000,0.000,0.000,0.000,0.000,0.000,0.000
0.0250,1.00000,1.00000,1.00000,0.00000,0.00000,1.57080,0.00000,0.00000,0.00000,0.00000,0.00000,0.00000,0.00000,0.00000,0.00000,0.00000,0.00000,1.57080,-1.00000,-1.00000,-1.00000,0.00000,0.00000,0.00000,"[0.000, 0.000, 0.000, 0.000, 0.000, 0.000]",0.000,0.000,0.000,0.000,0.000,0.000,0.000,0.000,0.000,0.000,0.000,0.000
0.0300,1.00000,1.00000,1.00000,0.00000,0.00000,1.57080,0.00000,0.00000,0.00000,0.00000,0.00000,0.00000,0.00000,0.00000,0.00000,0.00000,0.00000,1.57080,-1.00000,-1.00000,-1.00000,0.00000,0.00000,0.00000,"[0.000, 0.000, 0.000, 0.000, 0.000, 0.000]",0.000,0.000,0.000,0.000,0.000,0.000,0.000,0.000,0.000,0.000,0.000,0.000
0.0350,1.00000,1.00000,1.00000,0.00000,0.00000,1.57080,0.00000,0.00000,0.00000,0.00000,0.00000,0.00000,0.00000,0.00000,0.00000,0.00000,0.00000,1.57080,-1.00000,-1.00000,-1.00000,0.00000,0.00000,0.00000,"[0.000, 0.000, 0.000, 0.000, 0.000, 0.000]",0.000,0.000,0.000,0.000,0.000,0.000,0.000,0.000,0.000,0.000,0.000,0.000
0.0400,1.00000,1.00000,1.00000,0.00000,0.00000,1.57080,0.00000,0.00000,0.00000,0.00000,0.00000,0.00000,0.00000,0.00000,0.00000,0.00000,0.00000,1.57080,-1.00000,-1.00000,-1.00000,0.00000,0.00000,0.00000,"[0.000, 0.000, 0.000, 0.000, 0.000, 0.000]",0.000,0.000,0.000,0.000,0.000,0.000,0.000,0.000,0.000,0.000,0.000,0.000
0.0450,1.00000,1.00000,1.00000,0.00000,0.00000,1.57080,0.00000,0.00000,0.00000,0.00000,0.00000,0.00000,0.00000,0.00000,0.00000,0.00000,0.00000,1.57080,-1.00000,-1.00000,-1.00000,0.00000,0.00000,0.00000,"[0.000, 0.000, 0.000, 0.000, 0.000, 0.000]",0.000,0.000,0.000,0.000,0.000,0.000,0.000,0.000,0.000,0.000,0.000,0.000
0.0500,1.00000,1.00000,1.00000,0.00000,0.00000,1.57080,0.00000,0.00000,0.00000,0.00000,0.00000,0.00000,0.00000,0.00000,0.00000,0.00000,0.00000,0.00000,-1.00000,-1.00000,-1.00000,0.00000,0.00000,-1.57080,"[0.000, 0.000, 0.000, 0.000, 0.000, 0.000]",0.000,0.000,0.000,0.000,0.000,0.000,0.000,0.000,0.000,0.000,0.000,0.000
0.0550,1.00000,1.00000,1.00000,0.00000,0.00000,1.57080,0.00000,0.00000,0.00000,0.00000,0.00000,0.00000,0.00000,0.00000,0.00000,0.00000,0.00000,0.00000,-1.00000,-1.00000,-1.00000,0.00000,0.00000,-1.57080,"[0.000, 0.000, 0.000, 0.000, 0.000, 0.000]",0.000,0.000,0.000,0.000,0.000,0.000,0.000,0.000,0.000,0.000,0.000,0.000
0.0600,1.00000,1.00000,1.00000,0.00000,0.00000,1.57080,0.00000,0.00000,0.00000,0.00000,0.00000,0.00000,0.00000,0.00000,0.00000,0.00000,0.00000,0.00000,-1.00000,-1.00000,-1.00000,0.00000,0.00000,-1.57080,"[0.000, 0.000, 0.000, 0.000, 0.000, 0.000]",0.000,0.000,0.000,0.000,0.000,0.000,0.000,0.000,0.000,0.000,0.000,0.000
0.0650,1.00000,1.00000,1.00000,0.00000,0.00000,1.57080,0.00000,0.00000,0.00000,0.00000,0.00000,0.00000,0.00000,0.00000,0.00000,0.00000,0.00000,0.00000,-1.00000,-1.00000,-1.00000,0.00000,0.00000,-1.57080,"[0.000, 0.000, 0.000, 0.000, 0.000, 0.000]",0.000,0.000,0.000,0.000,0.000,0.000,0.000,0.000,0.000,0.000,0.000,0.000
0.0700,1.00000,1.00000,1.00000,0.00000,0.00000,1.57080,0.00000,0.00000,0.00000,0.00000,0.00000,0.00000,0.00000,0.00000,0.00000,0.00000,0.00000,0.00000,-1.00000,-1.00000,-1.00000,0.00000,0.00000,-1.57080,"[0.000, 0.000, 0.000, 0.000, 0.000, 0.000]",0.000,0.000,0.000,0.000,0.000,0.000,0.000,0.000,0.000,0.000,0.000,0.000
0.0750,1.00000,1.00000,1.00000,0.00000,0.00000,1.57080,0.00000,0.00000,0.00000,0.00000,0.00000,0.00000,0.00000,0.00000,0.00000,0.00000,0.00000,0.00000,-1.00000,-1.00000,-1.00000,0.00000,0.00000,-1.57080,"[0.000, 0.000, 0.000, 0.000, 0.000, 0.000]",0.000,0.000,0.000,0.000,0.000,0.000,0.000,0.000,0.000,0.000,0.000,0.000
0.0800,1.00000,1.00000,1.00000,0.00000,0.00000,1.57080,0.00000,0.00000,0.00000,0.00000,0.00000,0.00000,0.00000,0.00000,0.00000,0.00000,0.00000,0.00000,-1.00000,-1.00000,-1.00000,0.00000,0.00000,-1.57080,"[0.000, 0.000, 0.000, 0.000, 0.000, 0.000]",0.000,0.000,0.000,0.000,0.000,0.000,0.000,0.000,0.000,0.000,0.000,0.000
0.0850,1.00000,1.00000,1.00000,0.00000,0.00000,1.57080,0.00000,0.00000,0.00000,0.00000,0.00000,0.00000,0.00000,0.00000,0.00000,0.00000,0.00000,0.00000,-1.00000,-1.00000,-1.00000,0.00000,0.00000,-1.57080,"[0.000, 0.000, 0.000, 0.000, 0.000, 0.000]",0.000,0.000,0.000,0.000,0.000,0.000,0.000,0.000,0.000,0.000,0.000,0.000
0.0900,1.00000,1.00000,1.00000,0.00000,0.00000,1.57080,0.00000,0.00000,0.00000,0.00000,0.00000,0.00000,0.00000,0.00000,0.00000,0.00000,0.00000,0.00000,-1.00000,-1.00000,-1.00000,0.00000,0.00000,-1.57080,"[0.000, 0.000, 0.000, 0.000, 0.000, 0.000]",0.000,0.000,0.000,0.000,0.000,0.000,0.000,0.000,0.000,0.000,0.000,0.000
0.0950,1.00000,1.00000,1.00000,0.00000,0.00000,1.57080,0.00000,0.00000,0.00000,0.00000,0.00000,0.00000,0.00000,0.00000,0.00000,0.00000,0.00000,0.00000,-1.00000,-1.00000,-1.00000,0.00000,0.00000,-1.57080,"[0.000, 0.000, 0.000, 0.000, 0.000, 0.000]",0.000,0.000,0.000,0.000,0.000,0.000,0.000,0.000,0.000,0.000,0.000,0.000
0.1000,1.00000,1.00000,1.00000,0.00000,0.00000,1.57080,0.00000,0.00000,0.00000,0.00000,0.00000,0.00000,0.00000,0.00000,0.00000,0.00000,0.00000,0.00000,-1.00000,-1.00000,-1.00000,0.00000,0.00000,-1.57080,"[0.000, 0.000, 0.000, 0.000, 0.000, 0.000]",0.000,0.000,0.000,0.000,0.000,0.000,0.000,0.000,0.000,0.000,0.000,0.000
0.1050,1.00000,1.00000,1.00000,0.00000,0.00000,1.57080,0.00000,0.00000,0.00000,0.00000,0.00000,0.00000,0.00000,0.00000,0.00000,0.00000,0.00000,0.00000,-1.00000,-1.00000,-1.00000,0.00000,0.00000,-1.57080,"[0.000, 0.000, 0.000, 0.000, 0.000, 0.000]",0.000,0.000,0.000,0.000,0.000,0.000,0.000,0.000,0.000,0.000,0.000,0.000
0.1100,1.00000,1.00000,1.00000,0.00000,0.00000,1.57080,0.00000,0.00000,0.00000,0.00000,0.00000,0.00000,0.00000,0.00000,0.00000,0.00000,0.00000,0.00000,-1.00000,-1.00000,-1.00000,0.00000,0.00000,-1.57080,"[0.000, 0.000, 0.000, 0.000, 0.000, 0.000]",0.000,0.000,0.000,0.000,0.000,0.000,0.000,0.000,0.000,0.000,0.000,0.000
0.1150,1.00000,1.00000,1.00000,0.00000,0.00000,1.57080,0.00000,0.00000,0.00000,0.00000,0.00000,0.00000,0.00000,0.00000,0.00000,0.00000,0.00000,0.00000,-1.00000,-1.00000,-1.00000,0.00000,0.00000,-1.57080,"[0.000, 0.000, 0.000, 0.000, 0.000, 0.000]",0.000,0.000,0.000,0.000,0.000,0.000,0.000,0.000,0.000,0.000,0.000,0.000
0.1200,1.00000,1.00000,1.00000,0.00000,0.00000,1.57080,0.00000,0.00000,0.00000,0.00000,0.00000,0.00000,0.00000,0.00000,0.00000,0.00000,0.00000,0.00000,-1.00000,-1.00000,-1.00000,0.00000,0.00000,-1.57080,"[0.000, 0.000, 0.000, 0.000, 0.000, 0.000]",0.000,0.000,0.000,0.000,0.000,0.000,0.000,0.000,0.000,0.000,0.000,0.000
0.1250,1.00000,1.00000,1.00000,0.00000,0.00000,1.57080,0.00000,0.00000,0.00000,0.00000,0.00000,0.00000,0.00000,0.00000,0.00000,0.00000,0.00000,0.00000,-1.00000,-1.00000,-1.00000,0.00000,0.00000,-1.57080,"[0.000, 0.000, 0.000, 0.000, 0.000, 0.000]",0.000,0.000,0.000,0.000,0.000,0.000,0.000,0.000,0.000,0.000,0.000,0.000
0.1300,1.00000,1.00000,1.00000,0.00000,0.00000,1.57080,0.00000,0.00000,0.00000,0.00000,0.00000,0.00000,0.00000,0.00000,0.00000,0.00000,0.00000,0.00000,-1.00000,-1.00000,-1.00000,0.00000,0.00000,-1.57080,"[0.000, 0.000, 0.000, 0.000, 0.000, 0.000]",0.000,0.000,0.000,0.000,0.000,0.000,0.000,0.000,0.000,0.000,0.000,0.000
0.1350,1.00000,1.00000,1.00000,0.00000,0.00000,1.57080,0.00000,0.00000,0.00000,0.00000,0.00000,0.00000,0.00000,0.00000,0.00000,0.00000,0.00000,0.00000,-1.00000,-1.00000,-1.00000,0.00000,0.00000,-1.57080,"[0.000, 0.000, 0.000, 0.000, 0.000, 0.000]",0.000,0.000,0.000,0.000,0.000,0.000,0.000,0.000,0.000,0.000,0.000,0.000
0.1400,1.00000,1.00000,1.00000,0.00000,0.00000,1.57080,0.00000,0.00000,0.00000,0.00000,0.00000,0.00000,0.00000,0.00000,0.00000,0.00000,0.00000,0.00000,-1.00000,-1.00000,-1.00000,0.00000,0.00000,-1.57080,"[0.000, 0.000, 0.000, 0.000, 0.000, 0.000]",0.000,0.000,0.000,0.000,0.000,0.000,0.000,0.000,0.000,0.000,0.000,0.000
0.1450,1.00000,1.00000,1.00000,0.00000,0.00000,1.57080,0.00000,0.00000,0.00000,0.00000,0.00000,0.00000,0.00000,0.00000,0.00000,0.00000,0.00000,0.00000,-1.00000,-1.00000,-1.00000,0.00000,0.00000,-1.57080,"[0.000, 0.000, 0.000, 0.000, 0.000, 0.000]",0.000,0.000,0.000,0.000,0.000,0.000,0.000,0.000,0.000,0.000,0.000,0.000
0.1500,1.00000,1.00000,1.00000,0.00000,0.00000,1.57080,0.00000,0.00000,0.00000,0.00000,0.00000,0.00000,0.00000,0.00000,0.00000,0.00000,0.00000,0.00000,-1.00000,-1.00000,-1.00000,0.00000,0.00000,-1.57080,"[0.000, 0.000, 0.000, 0.000, 0.000, 0.000]",0.000,0.000,0.000,0.000,0.000,0.000,0.000,0.000,0.000,0.000,0.000,0.000
0.1550,1.00000,1.00000,1.00000,0.00000,0.00000,1.57080,0.00000,0.00000,0.00000,0.00000,0.00000,0.00000,0.00000,0.00000,0.00000,0.00000,0.00000,0.00000,-1.00000,-1.00000,-1.00000,0.00000,0.00000,-1.57080,"[0.000, 0.000, 0.000, 0.000, 0.000, 0.000]",0.000,0.000,0.000,0.000,0.000,0.000,0.000,0.000,0.000,0.000,0.000,0.000
0.1600,1.00000,1.00000,1.00000,0.00000,0.00000,1.57080,0.00000,0.00000,0.00000,0.00000,0.00000,0.00000,0.00000,0.00000,0.00000,0.00000,0.00000,0.00000,-1.00000,-1.00000,-1.00000,0.00000,0.00000,-1.57080,"[0.000, 0.000, 0.000, 0.000, 0.000, 0.000]",0.000,0.000,0.000,0.000,0.000,0.000,0.000,0.000,0.000,0.000,0.000,0.000
0.1650,1.00000,1.00000,1.00000,0.00000,0.00000,1.57080,0.00000,0.00000,0.00000,0.00000,0.00000,0.00000,0.00000,0.00000,0.00000,0.00000,0.00000,0.00000,-1.00000,-1.00000,-1.00000,0.00000,0.00000,-1.57080,"[0.000, 0.000, 0.000, 0.000, 0.000, 0.000]",0.000,0.000,0.000,0.000,0.000,0.000,0.000,0.000,0.000,0.000,0.000,0.000
0.1700,1.00000,1.00000,1.00000,0.00000,0.00000,1.57080,0.00000,0.00000,0.00000,0.00000,0.00000,0.00000,0.00000,0.00000,0.00000,0.00000,0.00000,0.00000,-1.00000,-1.00000,-1.00000,0.00000,0.00000,-1.57080,"[0.000, 0.000, 0.000, 0.000, 0.000, 0.000]",0.000,0.000,0.000,0.000,0.000,0.000,0.000,0.000,0.000,0.000,0.000,0.000
0.1750,1.00000,1.00000,1.00000,0.00000,0.00000,1.57080,0.00000,0.00000,0.00000,0.00000,0.00000,0.00000,0.00000,0.00000,0.00000,0.00000,0.00000,0.00000,-1.00000,-1.00000,-1.00000,0.00000,0.00000,-1.57080,"[0.000, 0.000, 0.000, 0.000, 0.000, 0.000]",0.000,0.000,0.000,0.000,0.000,0.000,0.000,0.000,0.000,0.000,0.000,0.000
0.1800,1.00000,1.00000,1.00000,0.00000,0.00000,1.57080,0.00000,0.00000,0.00000,0.00000,0.00000,0.00000,0.00000,0.00000,0.00000,0.00000,0.00000,0.00000,-1.00000,-1.00000,-1.00000,0.00000,0.00000,-1.57080,"[0.000, 0.000, 0.000, 0.000, 0.000, 0.000]",0.000,0.000,0.000,0.000,0.000,0.000,0.000,0.000,0.000,0.000,0.000,0.000
0.1850,1.00000,1.00000,1.00000,0.00000,0.00000,1.57080,0.00000,0.00000,0.00000,0.00000,0.00000,0.00000,0.00000,0.00000,0.00000,0.00000,0.00000,0.00000,-1.00000,-1.00000,-1.00000,0.00000,0.00000,-1.57080,"[0.000, 0.000, 0.000, 0.000, 0.000, 0.000]",0.000,0.000,0.000,0.000,0.000,0.000,0.000,0.000,0.000,0.000,0.000,0.000
0.1900,1.00000,1.00000,1.00000,0.00000,0.00000,1.57080,0.00000,0.00000,0.00000,0.00000,0.00000,0.00000,0.00000,0.00000,0.00000,0.00000,0.00000,0.00000,-1.00000,-1.00000,-1.00000,0.00000,0.00000,-1.57080,"[0.000, 0.000, 0.000, 0.000, 0.000, 0.000]",0.000,0.000,0.000,0.000,0.000,0.000,0.000,0.000,0.000,0.000,0.000,0.000
0.1950,1.00000,1.00000,1.00000,0.00000,0.00000,1.57080,0.00000,0.00000,0.00000,0.00000,0.00000,0.00000,0.00000,0.00000,0.00000,0.00000,0.00000,0.00000,-1.00000,-1.00000,-1.00000,0.00000,0.00000,-1.57080,"[0.000, 0.000, 0.000, 0.000, 0.000, 0.000]",0.000,0.000,0.000,0.000,0.000,0.000,0.000,0.000,0.000,0.000,0.000,0.000
0.2000,1.00000,1.00000,1.00000,0.00000,0.00000,1.57080,0.00000,0.00000,0.00000,0.00000,0.00000,0.00000,0.00000,0.00000,0.00000,0.00000,0.00000,0.00000,-1.00000,-1.00000,-1.00000,0.00000,0.00000,-1.57080,"[0.000, 0.000, 0.000, 0.000, 0.000, 0.000]",0.000,0.000,0.000,0.000,0.000,0.000,0.000,0.000,0.000,0.000,0.000,0.000
0.2050,1.00000,1.00000,1.00000,0.00000,0.00000,1.57080,0.00000,0.00000,0.00000,0.00000,0.00000,0.00000,0.00000,0.00000,0.00000,0.00000,0.00000,0.00000,-1.00000,-1.00000,-1.00000,0.00000,0.00000,-1.57080,"[0.000, 0.000, 0.000, 0.000, 0.000, 0.000]",0.000,0.000,0.000,0.000,0.000,0.000,0.000,0.000,0.000,0.000,0.000,0.000
0.2100,1.00000,1.00000,1.00000,0.00000,0.00000,1.57080,0.00000,0.00000,0.00000,0.00000,0.00000,0.00000,0.00000,0.00000,0.00000,0.00000,0.00000,0.00000,-1.00000,-1.00000,-1.00000,0.00000,0.00000,-1.57080,"[0.000, 0.000, 0.000, 0.000, 0.000, 0.000]",0.000,0.000,0.000,0.000,0.000,0.000,0.000,0.000,0.000,0.000,0.000,0.000
0.2150,1.00000,1.00000,1.00000,0.00000,0.00000,1.57080,0.00000,0.00000,0.00000,0.00000,0.00000,0.00000,0.00000,0.00000,0.00000,0.00000,0.00000,0.00000,-1.00000,-1.00000,-1.00000,0.00000,0.00000,-1.57080,"[0.000, 0.000, 0.000, 0.000, 0.000, 0.000]",0.000,0.000,0.000,0.000,0.000,0.000,0.000,0.000,0.000,0.000,0.000,0.000
0.2200,1.00000,1.00000,1.00000,0.00000,0.00000,1.57080,0.00000,0.00000,0.00000,0.00000,0.00000,0.00000,0.00000,0.00000,0.00000,0.00000,0.00000,0.00000,-1.00000,-1.00000,-1.00000,0.00000,0.00000,-1.57080,"[0.000, 0.000, 0.000, 0.000, 0.000, 0.000]",0.000,0.000,0.000,0.000,0.000,0.000,0.000,0.000,0.000,0.000,0.000,0.000
0.2250,1.00000,1.00000,1.00000,0.00000,0.00000,1.57080,0.00000,0.00000,0.00000,0.00000,0.00000,0.00000,0.00000,0.00000,0.00000,0.00000,0.00000,0.00000,-1.00000,-1.00000,-1.00000,0.00000,0.00000,-1.57080,"[0.000, 0.000, 0.000, 0.000, 0.000, 0.000]",0.000,0.000,0.000,0.000,0.000,0.000,0.000,0.000,0.000,0.000,0.000,0.000
0.2300,1.00000,1.00000,1.00000,0.00000,0.00000,1.57080,0.00000,0.00000,0.00000,0.00000,0.00000,0.00000,0.00000,0.00000,0.00000,0.00000,0.00000,0.00000,-1.00000,-1.00000,-1.00000,0.00000,0.00000,-1.57080,"[0.000, 0.000, 0.000, 0.000, 0.000, 0.000]",0.000,0.000,0.000,0.000,0.000,0.000,0.000,0.000,0.000,0.000,0.000,0.000
0.2350,1.00000,1.00000,1.00000,0.00000,0.00000,1.57080,0.00000,0.00000,0.00000,0.00000,0.00000,0.00000,0.00000,0.00000,0.00000,0.00000,0.00000,0.00000,-1.00000,-1.00000,-1.00000,0.00000,0.00000,-1.57080,"[0.000, 0.000, 0.000, 0.000, 0.000, 0.000]",0.000,0.000,0.000,0.000,0.000,0.000,0.000,0.000,0.000,0.000,0.000,0.000
0.2400,1.00000,1.00000,1.00000,0.00000,0.00000,1.57080,0.00000,0.00000,0.00000,0.00000,0.00000,0.00000,0.00000,0.00000,0.00000,0.00000,0.00000,0.00000,-1.00000,-1.00000,-1.00000,0.00000,0.00000,-1.57080,"[0.000, 0.000, 0.000, 0.000, 0.000, 0.000]",0.000,0.000,0.000,0.000,0.000,0.000,0.000,0.000,0.000,0.000,0.000,0.000
0.2450,1.00000,1.00000,1.00000,0.00000,0.00000,1.57080,0.00000,0.00000,0.00000,0.00000,0.00000,0.00000,0.00000,0.00000,0.00000,0.00000,0.00000,0.00000,-1.00000,-1.00000,-1.00000,0.00000,0.00000,-1.57080,"[0.000, 0.000, 0.000, 0.000, 0.000, 0.000]",0.000,0.000,0.000,0.000,0.000,0.000,0.000,0.000,0.000,0.000,0.000,0.000
0.2500,1.00000,1.00000,1.00000,0.00000,0.00000,1.57080,0.00000,0.00000,0.00000,0.00000,0.00000,0.00000,0.00000,0.00000,0.00000,0.00000,0.00000,0.00000,-1.00000,-1.00000,-1.00000,0.00000,0.00000,-1.57080,"[0.000, 0.000, 0.000, 0.000, 0.000, 0.000]",0.000,0.000,0.000,0.000,0.000,0.000,0.000,0.000,0.000,0.000,0.000,0.000
0.2550,1.00000,1.00000,1.00000,0.00000,0.00000,1.57080,0.00000,0.00000,0.00000,0.00000,0.00000,0.00000,0.00000,0.00000,0.00000,0.00000,0.00000,0.00000,-1.00000,-1.00000,-1.00000,0.00000,0.00000,-1.57080,"[0.000, 0.000, 0.000, 0.000, 0.000, 0.000]",0.000,0.000,0.000,0.000,0.000,0.000,0.000,0.000,0.000,0.000,0.000,0.000
0.2600,1.00000,1.00000,1.00000,0.00000,0.00000,1.57080,0.00000,0.00000,0.00000,0.00000,0.00000,0.00000,0.00000,0.00000,0.00000,0.00000,0.00000,0.00000,-1.00000,-1.00000,-1.00000,0.00000,0.00000,-1.57080,"[0.000, 0.000, 0.000, 0.000, 0.000, 0.000]",0.000,0.000,0.000,0.000,0.000,0.000,0.000,0.000,0.000,0.000,0.000,0.000
0.2650,1.00000,1.00000,1.00000,0.00000,0.00000,1.57080,0.00000,0.00000,0.00000,0.00000,0.00000,0.00000,0.00000,0.00000,0.00000,0.00000,0.00000,0.00000,-1.00000,-1.00000,-1.00000,0.00000,0.00000,-1.57080,"[0.000, 0.000, 0.000, 0.000, 0.000, 0.000]",0.000,0.000,0.000,0.000,0.000,0.000,0.000,0.000,0.000,0.000,0.000,0.000
0.2700,1.00000,1.00000,1.00000,0.00000,0.00000,1.57080,0.00000,0.00000,0.00000,0.00000,0.00000,0.00000,0.00000,0.00000,0.00000,0.00000,0.00000,0.00000,-1.00000,-1.00000,-1.00000,0.00000,0.00000,-1.57080,"[0.000, 0.000, 0.000, 0.000, 0.000, 0.000]",0.000,0.000,0.000,0.000,0.000,0.000,0.000,0.000,0.000,0.000,0.000,0.000
0.2750,1.00000,1.00000,1.00000,0.00000,0.00000,1.57080,0.00000,0.00000,0.00000,0.00000,0.00000,0.00000,0.00000,0.00000,0.00000,0.00000,0.00000,0.00000,-1.00000,-1.00000,-1.00000,0.00000,0.00000,-1.57080,"[0.000, 0.000, 0.000, 0.000, 0.000, 0.000]",0.000,0.000,0.000,0.000,0.000,0.000,0.000,0.000,0.000,0.000,0.000,0.000
0.2800,1.00000,1.00000,1.00000,0.00000,0.00000,1.57080,0.00000,0.00000,0.00000,0.00000,0.00000,0.00000,0.00000,0.00000,0.00000,0.00000,0.00000,0.00000,-1.00000,-1.00000,-1.00000,0.00000,0.00000,-1.57080,"[0.000, 0.000, 0.000, 0.000, 0.000, 0.000]",0.000,0.000,0.000,0.000,0.000,0.000,0.000,0.000,0.000,0.000,0.000,0.000
0.2850,1.00000,1.00000,1.00000,0.00000,0.00000,1.57080,0.00000,0.00000,0.00000,0.00000,0.00000,0.00000,0.00000,0.00000,0.00000,0.00000,0.00000,0.00000,-1.00000,-1.00000,-1.00000,0.00000,0.00000,-1.57080,"[0.000, 0.000, 0.000, 0.000, 0.000, 0.000]",0.000,0.000,0.000,0.000,0.000,0.000,0.000,0.000,0.000,0.000,0.000,0.000
0.2900,1.00000,1.00000,1.00000,0.00000,0.00000,1.57080,0.00000,0.00000,0.00000,0.00000,0.00000,0.00000,0.00000,0.00000,0.00000,0.00000,0.00000,0.00000,-1.00000,-1.00000,-1.00000,0.00000,0.00000,-1.57080,"[0.000, 0.000, 0.000, 0.000, 0.000, 0.000]",0.000,0.000,0.000,0.000,0.000,0.000,0.000,0.000,0.000,0.000,0.000,0.000
0.2950,1.00000,1.00000,1.00000,0.00000,0.00000,1.57080,0.00000,0.00000,0.00000,0.00000,0.00000,0.00000,0.00000,0.00000,0.00000,0.00000,0.00000,0.00000,-1.00000,-1.00000,-1.00000,0.00000,0.00000,-1.57080,"[0.000, 0.000, 0.000, 0.000, 0.000, 0.000]",0.000,0.000,0.000,0.000,0.000,0.000,0.000,0.000,0.000,0.000,0.000,0.000
0.3000,1.00000,1.00000,1.00000,0.00000,0.00000,1.57080,0.00000,0.00000,0.00000,0.00000,0.00000,0.00000,0.00000,0.00000,0.00000,0.00000,0.00000,0.00000,-1.00000,-1.00000,-1.00000,0.00000,0.00000,-1.57080,"[0.000, 0.000, 0.000, 0.000, 0.000, 0.000]",0.000,0.000,0.000,0.000,0.000,0.000,0.000,0.000,0.000,0.000,0.000,0.000
0.3050,1.00000,1.00000,1.00000,0.00000,0.00000,1.57080,0.00000,0.00000,0.00000,0.00000,0.00000,0.00000,0.00000,0.00000,0.00000,0.00000,0.00000,0.00000,-1.00000,-1.00000,-1.00000,0.00000,0.00000,-1.57080,"[0.000, 0.000, 0.000, 0.000, 0.000, 0.000]",0.000,0.000,0.000,0.000,0.000,0.000,0.000,0.000,0.000,0.000,0.000,0.000
0.3100,1.00000,1.00000,1.00000,0.00000,0.00000,1.57080,0.00000,0.00000,0.00000,0.00000,0.00000,0.00000,0.00000,0.00000,0.00000,0.00000,0.00000,0.00000,-1.00000,-1.00000,-1.00000,0.00000,0.00000,-1.57080,"[0.000, 0.000, 0.000, 0.000, 0.000, 0.000]",0.000,0.000,0.000,0.000,0.000,0.000,0.000,0.000,0.000,0.000,0.000,0.000
0.3150,1.00000,1.00000,1.00000,0.00000,0.00000,1.57080,0.00000,0.00000,0.00000,0.00000,0.00000,0.00000,0.00000,0.00000,0.00000,0.00000,0.00000,0.00000,-1.00000,-1.00000,-1.00000,0.00000,0.00000,-1.57080,"[0.000, 0.000, 0.000, 0.000, 0.000, 0.000]",0.000,0.000,0.000,0.000,0.000,0.000,0.000,0.000,0.000,0.000,0.000,0.000
0.3200,1.00000,1.00000,1.00000,0.00000,0.00000,1.57080,0.00000,0.00000,0.00000,0.00000,0.00000,0.00000,0.00000,0.00000,0.00000,0.00000,0.00000,0.00000,-1.00000,-1.00000,-1.00000,0.00000,0.00000,-1.57080,"[0.000, 0.000, 0.000, 0.000, 0.000, 0.000]",0.000,0.000,0.000,0.000,0.000,0.000,0.000,0.000,0.000,0.000,0.000,0.000
0.3250,1.00000,1.00000,1.00000,0.00000,0.00000,1.57080,0.00000,0.00000,0.00000,0.00000,0.00000,0.00000,0.00000,0.00000,0.00000,0.00000,0.00000,0.00000,-1.00000,-1.00000,-1.00000,0.00000,0.00000,-1.57080,"[0.000, 0.000, 0.000, 0.000, 0.000, 0.000]",0.000,0.000,0.000,0.000,0.000,0.000,0.000,0.000,0.000,0.000,0.000,0.000
0.3300,1.00000,1.00000,1.00000,0.00000,0.00000,1.57080,0.00000,0.00000,0.00000,0.00000,0.00000,0.00000,0.00000,0.00000,0.00000,0.00000,0.00000,0.00000,-1.00000,-1.00000,-1.00000,0.00000,0.00000,-1.57080,"[0.000, 0.000, 0.000, 0.000, 0.000, 0.000]",0.000,0.000,0.000,0.000,0.000,0.000,0.000,0.000,0.000,0.000,0.000,0.000
0.3350,1.00000,1.00000,1.00000,0.00000,0.00000,1.57080,0.00000,0.00000,0.00000,0.00000,0.00000,0.00000,0.00000,0.00000,0.00000,0.00000,0.00000,0.00000,-1.00000,-1.00000,-1.00000,0.00000,0.00000,-1.57080,"[0.000, 0.000, 0.000, 0.000, 0.000, 0.000]",0.000,0.000,0.000,0.000,0.000,0.000,0.000,0.000,0.000,0.000,0.000,0.000
0.3400,1.00000,1.00000,1.00000,0.00000,0.00000,1.57080,0.00000,0.00000,0.00000,0.00000,0.00000,0.00000,0.00000,0.00000,0.00000,0.00000,0.00000,0.00000,-1.00000,-1.00000,-1.00000,0.00000,0.00000,-1.57080,"[0.000, 0.000, 0.000, 0.000, 0.000, 0.000]",0.000,0.000,0.000,0.000,0.000,0.000,0.000,0.000,0.000,0.000,0.000,0.000
0.3450,1.00000,1.00000,1.00000,0.00000,0.00000,1.57080,0.00000,0.00000,0.00000,0.00000,0.00000,0.00000,0.00000,0.00000,0.00000,0.00000,0.00000,0.00000,-1.00000,-1.00000,-1.00000,0.00000,0.00000,-1.57080,"[0.000, 0.000, 0.000, 0.000, 0.000, 0.000]",0.000,0.000,0.000,0.000,0.000,0.000,0.000,0.000,0.000,0.000,0.000,0.000
0.3500,1.00000,1.00000,1.00000,0.00000,0.00000,1.57080,0.00000,0.00000,0.00000,0.00000,0.00000,0.00000,0.00000,0.00000,0.00000,0.00000,0.00000,0.00000,-1.00000,-1.00000,-1.00000,0.00000,0.00000,-1.57080,"[0.000, 0.000, 0.000, 0.000, 0.000, 0.000]",0.000,0.000,0.000,0.000,0.000,0.000,0.000,0.000,0.000,0.000,0.000,0.000
0.3550,1.00000,1.00000,1.00000,0.00000,0.00000,1.57080,0.00000,0.00000,0.00000,0.00000,0.00000,0.00000,0.00000,0.00000,0.00000,0.00000,0.00000,0.00000,-1.00000,-1.00000,-1.00000,0.00000,0.00000,-1.57080,"[0.000, 0.000, 0.000, 0.000, 0.000, 0.000]",0.000,0.000,0.000,0.000,0.000,0.000,0.000,0.000,0.000,0.000,0.000,0.000
0.3600,1.00000,1.00000,1.00000,0.00000,0.00000,1.57080,0.00000,0.00000,0.00000,0.00000,0.00000,0.00000,0.00000,0.00000,0.00000,0.00000,0.00000,0.00000,-1.00000,-1.00000,-1.00000,0.00000,0.00000,-1.57080,"[0.000, 0.000, 0.000, 0.000, 0.000, 0.000]",0.000,0.000,0.000,0.000,0.000,0.000,0.000,0.000,0.000,0.000,0.000,0.000
0.3650,1.00000,1.00000,1.00000,0.00000,0.00000,1.57080,0.00000,0.00000,0.00000,0.00000,0.00000,0.00000,0.00000,0.00000,0.00000,0.00000,0.00000,0.00000,-1.00000,-1.00000,-1.00000,0.00000,0.00000,-1.57080,"[0.000, 0.000, 0.000, 0.000, 0.000, 0.000]",0.000,0.000,0.000,0.000,0.000,0.000,0.000,0.000,0.000,0.000,0.000,0.000
0.3700,1.00000,1.00000,1.00000,0.00000,0.00000,1.57080,0.00000,0.00000,0.00000,0.00000,0.00000,0.00000,0.00000,0.00000,0.00000,0.00000,0.00000,0.00000,-1.00000,-1.00000,-1.00000,0.00000,0.00000,-1.57080,"[0.000, 0.000, 0.000, 0.000, 0.000, 0.000]",0.000,0.000,0.000,0.000,0.000,0.000,0.000,0.000,0.000,0.000,0.000,0.000
0.3750,1.00000,1.00000,1.00000,0.00000,0.00000,1.57080,0.00000,0.00000,0.00000,0.00000,0.00000,0.00000,0.00000,0.00000,0.00000,0.00000,0.00000,0.00000,-1.00000,-1.00000,-1.00000,0.00000,0.00000,-1.57080,"[0.000, 0.000, 0.000, 0.000, 0.000, 0.000]",0.000,0.000,0.000,0.000,0.000,0.000,0.000,0.000,0.000,0.000,0.000,0.000
0.3800,1.00000,1.00000,1.00000,0.00000,0.00000,1.57080,0.00000,0.00000,0.00000,0.00000,0.00000,0.00000,0.00000,0.00000,0.00000,0.00000,0.00000,0.00000,-1.00000,-1.00000,-1.00000,0.00000,0.00000,-1.57080,"[0.000, 0.000, 0.000, 0.000, 0.000, 0.000]",0.000,0.000,0.000,0.000,0.000,0.000,0.000,0.000,0.000,0.000,0.000,0.000
0.3850,1.00000,1.00000,1.00000,0.00000,0.00000,1.57080,0.00000,0.00000,0.00000,0.00000,0.00000,0.00000,0.00000,0.00000,0.00000,0.00000,0.00000,0.00000,-1.00000,-1.00000,-1.00000,0.00000,0.00000,-1.57080,"[0.000, 0.000, 0.000, 0.000, 0.000, 0.000]",0.000,0.000,0.000,0.000,0.000,0.000,0.000,0.000,0.000,0.000,0.000,0.000
0.3900,1.00000,1.00000,1.00000,0.00000,0.00000,1.57080,0.00000,0.00000,0.00000,0.00000,0.00000,0.00000,0.00000,0.00000,0.00000,0.00000,0.00000,0.00000,-1.00000,-1.00000,-1.00000,0.00000,0.00000,-1.57080,"[0.000, 0.000, 0.000, 0.000, 0.000, 0.000]",0.000,0.000,0.000,0.000,0.000,0.000,0.000,0.000,0.000,0.000,0.000,0.000
0.3950,1.00000,1.00000,1.00000,0.00000,0.00000,1.57080,0.00000,0.00000,0.00000,0.00000,0.00000,0.00000,0.00000,0.00000,0.00000,0.00000,0.00000,0.00000,-1.00000,-1.00000,-1.00000,0.00000,0.00000,-1.57080,"[0.000, 0.000, 0.000, 0.000, 0.000, 0.000]",0.000,0.000,0.000,0.000,0.000,0.000,0.000,0.000,0.000,0.000,0.000,0.000
0.4000,1.00000,1.00000,1.00000,-0.00000,0.00000,1.57080,-0.00000,-0.00025,-0.00025,-0.00057,0.00057,0.00325,0.00000,0.00000,0.00000,0.00000,0.00000,0.00000,-1.00000,-1.00000,-1.00000,0.00000,-0.00000,-1.57080,"[1.000, 0.000, 0.000, 0.000, 1.000, 0.000]",1.000,1.000,0.000,0.000,0.000,0.000,0.000,0.000,1.000,1.000,0.000,0.000
0.4050,1.00000,1.00000,1.00000,-0.00001,0.00001,1.57083,0.00000,-0.00050,-0.00050,-0.00115,0.00115,0.00651,0.00000,0.00000,0.00000,0.00000,0.00000,0.00000,-1.00000,-1.00000,-1.00000,0.00001,-0.00001,-1.57083,"[1.000, 0.000, 0.000, 0.000, 1.000, 0.000]",1.000,1.000,0.000,0.000,0.000,0.000,0.000,0.000,1.000,1.000,0.000,0.000
0.4100,1.00000,0.99999,0.99999,-0.00001,0.00001,1.57087,0.00000,-0.00075,-0.00075,-0.00172,0.00172,0.00976,0.00000,0.00000,0.00000,0.00000,0.00000,0.00000,-1.00000,-0.99999,-0.99999,0.00001,-0.00001,-1.57087,"[1.000, 0.000, 0.000, 0.000, 1.000, 0.000]",1.000,1.000,0.000,0.000,0.000,0.000,0.000,0.000,1.000,1.000,0.000,0.000
0.4150,1.00000,0.99999,0.99999,-0.00002,0.00002,1.57093,0.00000,-0.00100,-0.00100,-0.00230,0.00230,0.01301,0.00000,0.00000,0.00000,0.00000,0.00000,0.00000,-1.00000,-0.99999,-0.99999,0.00002,-0.00002,-1.57093,"[1.000, 0.000, 0.000, 0.000, 1.000, 0.000]",1.000,1.000,0.000,0.000,0.000,0.000,0.000,0.000,1.000,1.000,0.000,0.000
0.4200,1.00000,0.99998,0.99998,-0.00004,0.00004,1.57100,0.00000,-0.00125,-0.00125,-0.00287,0.00287,0.01626,0.00000,0.00000,0.00000,0.00000,0.00000,0.00000,-1.00000,-0.99998,-0.99998,0.00004,-0.00004,-1.57100,"[1.000, 0.000, 0.000, 0.000, 1.000, 0.000]",1.000,1.000,0.000,0.000,0.000,0.000,0.000,0.000,1.000,1.000,0.000,0.000
0.4250,1.00000,0.99998,0.99998,-0.00005,0.00005,1.57109,0.00000,-0.00150,-0.00150,-0.00345,0.00345,0.01952,0.00000,0.00000,0.00000,0.00000,0.00000,0.00000,-1.00000,-0.99998,-0.99998,0.00005,-0.00005,-1.57109,"[1.000, 0.000, 0.000, 0.000, 1.000, 0.000]",1.000,1.000,0.000,0.000,0.000,0.000,0.000,0.000,1.000,1.000,0.000,0.000
0.4300,1.00000,0.99997,0.99997,-0.00007,0.00007,1.57119,0.00000,-0.00175,-0.00175,-0.00402,0.00402,0.02277,0.00000,0.00000,0.00000,0.00000,0.00000,0.00000,-1.00000,-0.99997,-0.99997,0.00007,-0.00007,-1.57119,"[1.000, 0.000, 0.000, 0.000, 1.000, 0.000]",1.000,1.000,0.000,0.000,0.000,0.000,0.000,0.000,1.000,1.000,0.000,0.000
0.4350,1.00000,0.99996,0.99996,-0.00009,0.00009,1.57132,0.00000,-0.00200,-0.00200,-0.00459,0.00459,0.02602,0.00000,0.00000,0.00000,0.00000,0.00000,0.00000,-1.00000,-0.99996,-0.99996,0.00009,-0.00009,-1.57132,"[1.000, 0.000, 0.000, 0.000, 1.000, 0.000]",1.000,1.000,0.000,0.000,0.000,0.000,0.000,0.000,1.000,1.000,0.000,0.000
0.4400,1.00000,0.99995,0.99995,-0.00012,0.00012,1.57145,0.00000,-0.00225,-0.00225,-0.00517,0.00517,0.02927,0.00000,0.00000,0.00000,0.00000,0.00000,0.00000,-1.00000,-0.99995,-0.99995,0.00012,-0.00012,-1.57145,"[1.000, 0.000, 0.000, 0.000, 1.000, 0.000]",1.000,1.000,0.000,0.000,0.000,0.000,0.000,0.000,1.000,1.000,0.000,0.000
0.4450,1.00000,0.99994,0.99994,-0.00014,0.00014,1.57161,0.00000,-0.00250,-0.00250,-0.00574,0.00574,0.03253,0.00000,0.00000,0.00000,0.00000,0.00000,0.00000,-1.00000,-0.99994,-0.99994,0.00014,-0.00014,-1.57161,"[1.000, 0.000, 0.000, 0.000, 1.000, 0.000]",1.000,1.000,0.000,0.000,0.000,0.000,0.000,0.000,1.000,1.000,0.000,0.000
0.4500,1.00000,0.99992,0.99993,-0.00017,0.00017,1.57177,0.00000,-0.00250,-0.00250,-0.00574,0.00574,0.03253,0.00000,0.00000,0.00000,0.00000,0.00000,0.00000,-1.00000,-0.99992,-0.99993,0.00017,-0.00017,-1.57177,"[0.000, 0.000, 0.000, 0.000, 0.000, 0.000]",0.000,0.000,0.000,0.000,0.000,0.000,0.000,0.000,0.000,0.000,0.000,0.000
0.4550,1.00000,0.99991,0.99991,-0.00020,0.00020,1.57193,0.00000,-0.00250,-0.00250,-0.00574,0.00574,0.03253,0.00000,0.00000,0.00000,0.00000,0.00000,0.00000,-1.00000,-0.99991,-0.99991,0.00020,-0.00020,-1.57193,"[0.000, 0.000, 0.000, 0.000, 0.000, 0.000]",0.000,0.000,0.000,0.000,0.000,0.000,0.000,0.000,0.000,0.000,0.000,0.000
0.4600,1.00000,0.99990,0.99990,-0.00023,0.00023,1.57210,0.00000,-0.00250,-0.00250,-0.00574,0.00574,0.03253,0.00000,0.00000,0.00000,0.00000,0.00000,0.00000,-1.00000,-0.99990,-0.99990,0.00023,-0.00023,-1.57210,"[0.000, 0.000, 0.000, 0.000, 0.000, 0.000]",0.000,0.000,0.000,0.000,0.000,0.000,0.000,0.000,0.000,0.000,0.000,0.000
0.4650,1.00000,0.99989,0.99989,-0.00026,0.00026,1.57226,0.00000,-0.00250,-0.00250,-0.00574,0.00574,0.03253,0.00000,0.00000,0.00000,0.00000,0.00000,0.00000,-1.00000,-0.99989,-0.99989,0.00026,-0.00026,-1.57226,"[0.000, 0.000, 0.000, 0.000, 0.000, 0.000]",0.000,0.000,0.000,0.000,0.000,0.000,0.000,0.000,0.000,0.000,0.000,0.000
0.4700,1.00000,0.99987,0.99988,-0.00029,0.00029,1.57242,0.00000,-0.00250,-0.00250,-0.00574,0.00574,0.03253,0.00000,0.00000,0.00000,0.00000,0.00000,0.00000,-1.00000,-0.99987,-0.99988,0.00029,-0.00029,-1.57242,"[0.000, 0.000, 0.000, 0.000, 0.000, 0.000]",0.000,0.000,0.000,0.000,0.000,0.000,0.000,0.000,0.000,0.000,0.000,0.000
0.4750,1.00000,0.99986,0.99986,-0.00032,0.00032,1.57259,0.00000,-0.00250,-0.00250,-0.00574,0.00574,0.03253,0.00000,0.00000,0.00000,0.00000,0.00000,0.00000,-1.00000,-0.99986,-0.99986,0.00032,-0.00032,-1.57259,"[0.000, 0.000, 0.000, 0.000, 0.000, 0.000]",0.000,0.000,0.000,0.000,0.000,0.000,0.000,0.000,0.000,0.000,0.000,0.000
0.4800,1.00000,0.99985,0.99985,-0.00034,0.00034,1.57275,0.00000,-0.00250,-0.00250,-0.00574,0.00574,0.03253,0.00000,0.00000,0.00000,0.00000,0.00000,0.00000,-1.00000,-0.99985,-0.99985,0.00034,-0.00034,-1.57275,"[0.000, 0.000, 0.000, 0.000, 0.000, 0.000]",0.000,0.000,0.000,0.000,0.000,0.000,0.000,0.000,0.000,0.000,0.000,0.000
0.4850,1.00000,0.99984,0.99984,-0.00037,0.00037,1.57291,0.00000,-0.00250,-0.00250,-0.00574,0.00574,0.03253,0.00000,0.00000,0.00000,0.00000,0.00000,0.00000,-1.00000,-0.99984,-0.99984,0.00037,-0.00037,-1.57291,"[0.000, 0.000, 0.000, 0.000, 0.000, 0.000]",0.000,0.000,0.000,0.000,0.000,0.000,0.000,0.000,0.000,0.000,0.000,0.000
0.4900,1.00000,0.99982,0.99983,-0.00040,0.00040,1.57307,0.00000,-0.00250,-0.00250,-0.00574,0.00574,0.03253,0.00000,0.00000,0.00000,0.00000,0.00000,0.00000,-1.00000,-0.99982,-0.99983,0.00040,-0.00040,-1.57307,"[0.000, 0.000, 0.000, 0.000, 0.000, 0.000]",0.000,0.000,0.000,0.000,0.000,0.000,0.000,0.000,0.000,0.000,0.000,0.000
0.4950,1.00000,0.99981,0.99981,-0.00043,0.00043,1.57324,0.00000,-0.00250,-0.00250,-0.00574,0.00574,0.03253,0.00000,0.00000,0.00000,0.00000,0.00000,0.00000,-1.00000,-0.99981,-0.99981,0.00043,-0.00043,-1.57324,"[0.000, 0.000, 0.000, 0.000, 0.000, 0.000]",0.000,0.000,0.000,0.000,0.000,0.000,0.000,0.000,0.000,0.000,0.000,0.000
0.5000,1.00000,0.99980,0.99980,-0.00046,0.00046,1.57340,0.00000,-0.00250,-0.00250,-0.00574,0.00574,0.03253,0.00000,0.00000,0.00000,0.00000,0.00000,0.00000,-1.00000,-0.99980,-0.99980,0.00046,-0.00046,-1.57340,"[0.000, 0.000, 0.000, 0.000, 0.000, 0.000]",0.000,0.000,0.000,0.000,0.000,0.000,0.000,0.000,0.000,0.000,0.000,0.000
0.5050,1.00000,0.99979,0.99979,-0.00049,0.00049,1.57356,0.00000,-0.00250,-0.00250,-0.00574,0.00574,0.03253,0.00000,0.00000,0.00000,0.00000,0.00000,0.00000,-1.00000,-0.99979,-0.99979,0.00049,-0.00049,-1.57356,"[0.000, 0.000, 0.000, 0.000, 0.000, 0.000]",0.000,0.000,0.000,0.000,0.000,0.000,0.000,0.000,0.000,0.000,0.000,0.000
0.5100,1.00000,0.99977,0.99978,-0.00052,0.00052,1.57372,0.00000,-0.00250,-0.00250,-0.00574,0.00574,0.03253,0.00000,0.00000,0.00000,0.00000,0.00000,0.00000,-1.00000,-0.99977,-0.99978,0.00052,-0.00052,-1.57372,"[0.000, 0.000, 0.000, 0.000, 0.000, 0.000]",0.000,0.000,0.000,0.000,0.000,0.000,0.000,0.000,0.000,0.000,0.000,0.000
0.5150,1.00000,0.99976,0.99976,-0.00054,0.00055,1.57389,0.00000,-0.00250,-0.00250,-0.00574,0.00574,0.03253,0.00000,0.00000,0.00000,0.00000,0.00000,0.00000,-1.00000,-0.99976,-0.99976,0.00054,-0.00055,-1.57389,"[0.000, 0.000, 0.000, 0.000, 0.000, 0.000]",0.000,0.000,0.000,0.000,0.000,0.000,0.000,0.000,0.000,0.000,0.000,0.000
0.5200,1.00000,0.99975,0.99975,-0.00057,0.00058,1.57405,0.00000,-0.00250,-0.00250,-0.00574,0.00574,0.03253,0.00000,0.00000,0.00000,0.00000,0.00000,0.00000,-1.00000,-0.99975,-0.99975,0.00057,-0.00058,-1.57405,"[0.000, 0.000, 0.000, 0.000, 0.000, 0.000]",0.000,0.000,0.000,0.000,0.000,0.000,0.000,0.000,0.000,0.000,0.000,0.000
0.5250,1.00000,0.99974,0.99974,-0.00060,0.00060,1.57421,0.00000,-0.00250,-0.00250,-0.00574,0.00574,0.03253,0.00000,0.00000,0.00000,0.00000,0.00000,0.00000,-1.00000,-0.99974,-0.99974,0.00060,-0.00060,-1.57421,"[0.000, 0.000, 0.000, 0.000, 0.000, 0.000]",0.000,0.000,0.000,0.000,0.000,0.000,0.000,0.000,0.000,0.000,0.000,0.000
0.5300,1.00000,0.99972,0.99973,-0.00063,0.00063,1.57437,0.00000,-0.00250,-0.00250,-0.00574,0.00574,0.03253,0.00000,0.00000,0.00000,0.00000,0.00000,0.00000,-1.00000,-0.99972,-0.99973,0.00063,-0.00063,-1.57437,"[0.000, 0.000, 0.000, 0.000, 0.000, 0.000]",0.000,0.000,0.000,0.000,0.000,0.000,0.000,0.000,0.000,0.000,0.000,0.000
0.5350,1.00000,0.99971,0.99971,-0.00066,0.00066,1.57454,0.00000,-0.00250,-0.00250,-0.00574,0.00574,0.03253,0.00000,0.00000,0.00000,0.00000,0.00000,0.00000,-1.00000,-0.99971,-0.99971,0.00066,-0.00066,-1.57454,"[0.000, 0.000, 0.000, 0.000, 0.000, 0.000]",0.000,0.000,0.000,0.000,0.000,0.000,0.000,0.000,0.000,0.000,0.000,0.000
0.5400,1.00000,0.99970,0.99970,-0.00069,0.00069,1.57470,0.00000,-0.00250,-0.00250,-0.00574,0.00574,0.03253,0.00000,0.00000,0.00000,0.00000,0.00000,0.00000,-1.00000,-0.99970,-0.99970,0.00069,-0.00069,-1.57470,"[0.000, 0.000, 0.000, 0.000, 0.000, 0.000]",0.000,0.000,0.000,0.000,0.000,0.000,0.000,0.000,0.000,0.000,0.000,0.000
0.5450,1.00000,0.99969,0.99969,-0.00072,0.00072,1.57486,0.00000,-0.00250,-0.00250,-0.00574,0.00574,0.03253,0.00000,0.00000,0.00000,0.00000,0.00000,0.00000,-1.00000,-0.99969,-0.99969,0.00072,-0.00072,-1.57486,"[0.000, 0.000, 0.000, 0.000, 0.000, 0.000]",0.000,0.000,0.000,0.000,0.000,0.000,0.000,0.000,0.000,0.000,0.000,0.000
0.5500,1.00000,0.99967,0.99967,-0.00075,0.00075,1.57505,0.00000,-0.00275,-0.00275,-0.00734,0.00734,0.04159,0.00000,0.00000,0.00000,0.00000,0.00000,0.00000,-1.00000,-0.99967,-0.99967,0.00075,-0.00075,-1.57505,"[0.998, 0.000, 0.000, 0.000, 0.998, 0.000]",0.998,0.998,0.000,0.000,0.000,0.000,0.000,0.000,0.998,0.998,0.000,0.000
0.5550,1.00000,0.99966,0.99966,-0.00079,0.00079,1.57528,0.00000,-0.00300,-0.00300,-0.00895,0.00894,0.05065,0.00000,0.00000,0.00000,0.00000,0.00000,0.00000,-1.00000,-0.99966,-0.99966,0.00079,-0.00079,-1.57528,"[0.998, 0.000, 0.000, 0.000, 0.998, 0.000]",0.998,0.998,0.000,0.000,0.000,0.000,0.000,0.000,0.998,0.998,0.000,0.000
0.5600,1.00000,0.99964,0.99964,-0.00084,0.00084,1.57555,0.00000,-0.00325,-0.00325,-0.01055,0.01054,0.05972,0.00000,0.00000,0.00000,0.00000,0.00000,0.00000,-1.00000,-0.99964,-0.99964,0.00084,-0.00084,-1.57555,"[0.998, 0.000, 0.000, 0.000, 0.998, 0.000]",0.998,0.998,0.000,0.000,0.000,0.000,0.000,0.000,0.998,0.998,0.000,0.000
0.5650,1.00000,0.99963,0.99963,-0.00089,0.00090,1.57587,0.00001,-0.00350,-0.00350,-0.01215,0.01214,0.06878,0.00000,0.00000,0.00000,0.00000,0.00000,0.00000,-1.00000,-0.99963,-0.99963,0.00089,-0.00090,-1.57587,"[0.998, 0.000, 0.000, 0.000, 0.998, 0.000]",0.998,0.998,0.000,0.000,0.000,0.000,0.000,0.000,0.998,0.998,0.000,0.000
0.5700,1.00000,0.99961,0.99961,-0.00096,0.00096,1.57624,0.00001,-0.00375,-0.00375,-0.01375,0.01374,0.07785,0.00000,0.00000,0.00000,0.00000,0.00000,0.00000,-1.00000,-0.99961,-0.99961,0.00096,-0.00096,-1.57624,"[0.998, 0.000, 0.000, 0.000, 0.998, 0.000]",0.998,0.998,0.000,0.000,0.000,0.000,0.000,0.000,0.998,0.998,0.000,0.000
0.5750,1.00000,0.99959,0.99959,-0.00103,0.00104,1.57665,0.00001,-0.00400,-0.00400,-0.01535,0.01534,0.08691,0.00000,0.00000,0.00000,0.00000,0.00000,0.00000,-1.00000,-0.99959,-0.99959,0.00103,-0.00104,-1.57665,"[0.998, 0.000, 0.000, 0.000, 0.998, 0.000]",0.998,0.998,0.000,0.000,0.000,0.000,0.000,0.000,0.998,0.998,0.000,0.000
0.5800,1.00000,0.99957,0.99957,-0.00111,0.00112,1.57711,0.00001,-0.00425,-0.00425,-0.01695,0.01694,0.09598,0.00000,0.00000,0.00000,0.00000,0.00000,0.00000,-1.00000,-0.99957,-0.99957,0.00111,-0.00112,-1.57711,"[0.998, 0.000, 0.000, 0.000, 0.998, 0.000]",0.998,0.998,0.000,0.000,0.000,0.000,0.000,0.000,0.998,0.998,0.000,0.000
0.5850,1.00000,0.99955,0.99955,-0.00120,0.00121,1.57761,0.00001,-0.00450,-0.00450,-0.01855,0.01854,0.10504,0.00000,0.00000,0.00000,0.00000,0.00000,0.00000,-1.00000,-0.99955,-0.99955,0.00120,-0.00121,-1.57761,"[0.998, 0.000, 0.000, 0.000, 0.998, 0.000]",0.998,0.998,0.000,0.000,0.000,0.000,0.000,0.000,0.998,0.998,0.000,0.000
0.5900,1.00000,0.99952,0.99952,-0.00130,0.00130,1.57816,0.00001,-0.00475,-0.00475,-0.02015,0.02014,0.11410,0.00000,0.00000,0.00000,0.00000,0.00000,0.00000,-1.00000,-0.99952,-0.99952,0.00130,-0.00130,-1.57816,"[0.998, 0.000, 0.000, 0.000, 0.998, 0.000]",0.998,0.998,0.000,0.000,0.000,0.000,0.000,0.000,0.998,0.998,0.000,0.000
0.5950,1.00000,0.99950,0.99950,-0.00140,0.00141,1.57875,0.00002,-0.00500,-0.00500,-0.02176,0.02173,0.12317,0.00000,0.00000,0.00000,0.00000,0.00000,0.00000,-1.00000,-0.99950,-0.99950,0.00140,-0.00141,-1.57875,"[0.998, 0.000, 0.000, 0.000, 0.998, 0.000]",0.998,0.998,0.000,0.000,0.000,0.000,0.000,0.000,0.998,0.998,0.000,0.000
0.6000,1.00000,0.99947,0.99948,-0.00151,0.00152,1.57937,0.00002,-0.00500,-0.00500,-0.02176,0.02173,0.12317,0.00000,0.00000,0.00000,0.00000,0.00000,0.00000,-1.00000,-0.99947,-0.99948,0.00151,-0.00152,-1.57937,"[0.000, 0.000, 0.000, 0.000, 0.000, 0.000]",0.000,0.000,0.000,0.000,0.000,0.000,0.000,0.000,0.000,0.000,0.000,0.000
0.6050,1.00000,0.99945,0.99945,-0.00162,0.00163,1.57998,0.00002,-0.00500,-0.00500,-0.02176,0.02173,0.12317,0.00000,0.00000,0.00000,0.00000,0.00000,0.00000,-1.00000,-0.99945,-0.99945,0.00162,-0.00163,-1.57998,"[0.000, 0.000, 0.000, 0.000, 0.000, 0.000]",0.000,0.000,0.000,0.000,0.000,0.000,0.000,0.000,0.000,0.000,0.000,0.000
0.6100,1.00000,0.99942,0.99943,-0.00172,0.00174,1.58060,0.00002,-0.00500,-0.00500,-0.02176,0.02173,0.12317,0.00000,0.00000,0.00000,0.00000,0.00000,0.00000,-1.00000,-0.99942,-0.99943,0.00172,-0.00174,-1.58060,"[0.000, 0.000, 0.000, 0.000, 0.000, 0.000]",0.000,0.000,0.000,0.000,0.000,0.000,0.000,0.000,0.000,0.000,0.000,0.000
0.6150,1.00000,0.99940,0.99940,-0.00183,0.00185,1.58122,0.00002,-0.00500,-0.00500,-0.02176,0.02173,0.12317,0.00000,0.00000,0.00000,0.00000,0.00000,0.00000,-1.00000,-0.99940,-0.99940,0.00183,-0.00185,-1.58122,"[0.000, 0.000, 0.000, 0.000, 0.000, 0.000]",0.000,0.000,0.000,0.000,0.000,0.000,0.000,0.000,0.000,0.000,0.000,0.000
0.6200,1.00000,0.99937,0.99938,-0.00194,0.00196,1.58183,0.00002,-0.00500,-0.00500,-0.02176,0.02173,0.12317,0.00000,0.00000,0.00000,0.00000,0.00000,0.00000,-1.00000,-0.99937,-0.99938,0.00194,-0.00196,-1.58183,"[0.000, 0.000, 0.000, 0.000, 0.000, 0.000]",0.000,0.000,0.000,0.000,0.000,0.000,0.000,0.000,0.000,0.000,0.000,0.000
0.6250,1.00000,0.99935,0.99935,-0.00205,0.00207,1.58245,0.00002,-0.00500,-0.00500,-0.02176,0.02173,0.12317,0.00000,0.00000,0.00000,0.00000,0.00000,0.00000,-1.00000,-0.99935,-0.99935,0.00205,-0.00207,-1.58245,"[0.000, 0.000, 0.000, 0.000, 0.000, 0.000]",0.000,0.000,0.000,0.000,0.000,0.000,0.000,0.000,0.000,0.000,0.000,0.000
0.6300,1.00000,0.99932,0.99933,-0.00215,0.00218,1.58306,0.00002,-0.00500,-0.00500,-0.02176,0.02173,0.12317,0.00000,0.00000,0.00000,0.00000,0.00000,0.00000,-1.00000,-0.99932,-0.99933,0.00215,-0.00218,-1.58306,"[0.000, 0.000, 0.000, 0.000, 0.000, 0.000]",0.000,0.000,0.000,0.000,0.000,0.000,0.000,0.000,0.000,0.000,0.000,0.000
0.6350,1.00000,0.99930,0.99930,-0.00226,0.00229,1.58368,0.00002,-0.00500,-0.00500,-0.02176,0.02173,0.12317,0.00000,0.00000,0.00000,0.00000,0.00000,0.00000,-1.00000,-0.99930,-0.99930,0.00226,-0.00229,-1.58368,"[0.000, 0.000, 0.000, 0.000, 0.000, 0.000]",0.000,0.000,0.000,0.000,0.000,0.000,0.000,0.000,0.000,0.000,0.000,0.000
0.6400,1.00000,0.99927,0.99928,-0.00237,0.00240,1.58429,0.00002,-0.00500,-0.00500,-0.02176,0.02173,0.12317,0.00000,0.00000,0.00000,0.00000,0.00000,0.00000,-1.00000,-0.99927,-0.99928,0.00237,-0.00240,-1.58429,"[0.000, 0.000, 0.000, 0.000, 0.000, 0.000]",0.000,0.000,0.000,0.000,0.000,0.000,0.000,0.000,0.000,0.000,0.000,0.000
0.6450,1.00000,0.99925,0.99925,-0.00248,0.00251,1.58491,0.00002,-0.00500,-0.00500,-0.02176,0.02173,0.12317,0.00000,0.00000,0.00000,0.00000,0.00000,0.00000,-1.00000,-0.99925,-0.99925,0.00248,-0.00251,-1.58491,"[0.000, 0.000, 0.000, 0.000, 0.000, 0.000]",0.000,0.000,0.000,0.000,0.000,0.000,0.000,0.000,0.000,0.000,0.000,0.000
0.6500,1.00000,0.99922,0.99923,-0.00258,0.00262,1.58553,0.00002,-0.00500,-0.00500,-0.02176,0.02173,0.12317,0.00000,0.00000,0.00000,0.00000,0.00000,0.00000,-1.00000,-0.99922,-0.99923,0.00258,-0.00262,-1.58553,"[0.000, 0.000, 0.000, 0.000, 0.000, 0.000]",0.000,0.000,0.000,0.000,0.000,0.000,0.000,0.000,0.000,0.000,0.000,0.000
0.6550,1.00000,0.99920,0.99920,-0.00269,0.00273,1.58614,0.00002,-0.00500,-0.00500,-0.02176,0.02173,0.12317,0.00000,0.00000,0.00000,0.00000,0.00000,0.00000,-1.00000,-0.99920,-0.99920,0.00269,-0.00273,-1.58614,"[0.000, 0.000, 0.000, 0.000, 0.000, 0.000]",0.000,0.000,0.000,0.000,0.000,0.000,0.000,0.000,0.000,0.000,0.000,0.000
0.6600,1.00000,0.99917,0.99918,-0.00280,0.00284,1.58676,0.00002,-0.00500,-0.00500,-0.02176,0.02173,0.12317,0.00000,0.00000,0.00000,0.00000,0.00000,0.00000,-1.00000,-0.99917,-0.99918,0.00280,-0.00284,-1.58676,"[0.000, 0.000, 0.000, 0.000, 0.000, 0.000]",0.000,0.000,0.000,0.000,0.000,0.000,0.000,0.000,0.000,0.000,0.000,0.000
0.6650,1.00000,0.99915,0.99915,-0.00290,0.00295,1.58737,0.00002,-0.00500,-0.00500,-0.02176,0.02173,0.12317,0.00000,0.00000,0.00000,0.00000,0.00000,0.00000,-1.00000,-0.99915,-0.99915,0.00290,-0.00295,-1.58737,"[0.000, 0.000, 0.000, 0.000, 0.000, 0.000]",0.000,0.000,0.000,0.000,0.000,0.000,0.000,0.000,0.000,0.000,0.000,0.000
0.6700,1.00000,0.99912,0.99913,-0.00301,0.00306,1.58799,0.00002,-0.00500,-0.00500,-0.02176,0.02173,0.12317,0.00000,0.00000,0.00000,0.00000,0.00000,0.00000,-1.00000,-0.99912,-0.99913,0.00301,-0.00306,-1.58799,"[0.000, 0.000, 0.000, 0.000, 0.000, 0.000]",0.000,0.000,0.000,0.000,0.000,0.000,0.000,0.000,0.000,0.000,0.000,0.000
0.6750,1.00000,0.99910,0.99910,-0.00312,0.00317,1.58860,0.00002,-0.00500,-0.00500,-0.02176,0.02173,0.12317,0.00000,0.00000,0.00000,0.00000,0.00000,0.00000,-1.00000,-0.99910,-0.99910,0.00312,-0.00317,-1.58860,"[0.000, 0.000, 0.000, 0.000, 0.000, 0.000]",0.000,0.000,0.000,0.000,0.000,0.000,0.000,0.000,0.000,0.000,0.000,0.000
0.6800,1.00000,0.99907,0.99908,-0.00322,0.00328,1.58922,0.00002,-0.00500,-0.00500,-0.02176,0.02173,0.12317,0.00000,0.00000,0.00000,0.00000,0.00000,0.00000,-1.00000,-0.99907,-0.99908,0.00322,-0.00328,-1.58922,"[0.000, 0.000, 0.000, 0.000, 0.000, 0.000]",0.000,0.000,0.000,0.000,0.000,0.000,0.000,0.000,0.000,0.000,0.000,0.000
0.6850,1.00000,0.99905,0.99905,-0.00333,0.00339,1.58983,0.00002,-0.00500,-0.00500,-0.02176,0.02173,0.12317,0.00000,0.00000,0.00000,0.00000,0.00000,0.00000,-1.00000,-0.99905,-0.99905,0.00333,-0.00339,-1.58983,"[0.000, 0.000, 0.000, 0.000, 0.000, 0.000]",0.000,0.000,0.000,0.000,0.000,0.000,0.000,0.000,0.000,0.000,0.000,0.000
0.6900,1.00000,0.99902,0.99903,-0.00344,0.00350,1.59045,0.00002,-0.00500,-0.00500,-0.02176,0.02173,0.12317,0.00000,0.00000,0.00000,0.00000,0.00000,0.00000,-1.00000,-0.99902,-0.99903,0.00344,-0.00350,-1.59045,"[0.000, 0.000, 0.000, 0.000, 0.000, 0.000]",0.000,0.000,0.000,0.000,0.000,0.000,0.000,0.000,0.000,0.000,0.000,0.000
0.6950,1.00000,0.99900,0.99900,-0.00354,0.00361,1.59106,0.00002,-0.00500,-0.00500,-0.02176,0.02173,0.12317,0.00000,0.00000,0.00000,0.00000,0.00000,0.00000,-1.00000,-0.99900,-0.99900,0.00354,-0.00361,-1.59106,"[0.000, 0.000, 0.000, 0.000, 0.000, 0.000]",0.000,0.000,0.000,0.000,0.000,0.000,0.000,0.000,0.000,0.000,0.000,0.000
0.7000,1.00000,0.99897,0.99897,-0.00366,0.00374,1.59174,0.00002,-0.00525,-0.00525,-0.02623,0.02619,0.14844,0.00000,0.00000,0.00000,0.00000,0.00000,0.00000,-1.00000,-0.99897,-0.99897,0.00366,-0.00374,-1.59174,"[0.998, 0.000, 0.000, 0.000, 0.998, 0.000]",0.998,0.998,0.000,0.000,0.000,0.000,0.000,0.000,0.998,0.998,0.000,0.000
0.7050,1.00000,0.99895,0.99895,-0.00380,0.00388,1.59255,0.00003,-0.00550,-0.00550,-0.03069,0.03064,0.17371,0.00000,0.00000,0.00000,0.00000,0.00000,0.00000,-1.00000,-0.99895,-0.99895,0.00380,-0.00388,-1.59255,"[0.998, 0.000, 0.000, 0.000, 0.998, 0.000]",0.998,0.998,0.000,0.000,0.000,0.000,0.000,0.000,0.998,0.998,0.000,0.000
0.7100,1.00000,0.99892,0.99892,-0.00396,0.00405,1.59348,0.00004,-0.00576,-0.00574,-0.03516,0.03510,0.19897,0.00000,0.00000,0.00000,0.00000,0.00000,0.00000,-1.00000,-0.99892,-0.99892,0.00396,-0.00405,-1.59348,"[0.998, 0.000, 0.000, 0.000, 0.998, 0.000]",0.998,0.998,0.000,0.000,0.000,0.000,0.000,0.000,0.998,0.998,0.000,0.000
0.7150,1.00000,0.99889,0.99889,-0.00414,0.00424,1.59454,0.00004,-0.00601,-0.00599,-0.03963,0.03955,0.22424,0.00000,0.00000,0.00000,0.00000,0.00000,0.00000,-1.00000,-0.99889,-0.99889,0.00414,-0.00424,-1.59454,"[0.998, 0.000, 0.000, 0.000, 0.998, 0.000]",0.998,0.998,0.000,0.000,0.000,0.000,0.000,0.000,0.998,0.998,0.000,0.000
0.7200,1.00000,0.99886,0.99886,-0.00435,0.00445,1.59572,0.00005,-0.00626,-0.00624,-0.04410,0.04400,0.24951,0.00000,0.00000,0.00000,0.00000,0.00000,0.00000,-1.00000,-0.99886,-0.99886,0.00435,-0.00445,-1.59572,"[0.998, 0.000, 0.000, 0.000, 0.998, 0.000]",0.998,0.998,0.000,0.000,0.000,0.000,0.000,0.000,0.998,0.998,0.000,0.000
0.7250,1.00000,0.99883,0.99883,-0.00457,0.00469,1.59703,0.00006,-0.00651,-0.00649,-0.04857,0.04846,0.27478,0.00000,0.00000,0.00000,0.00000,0.00000,0.00000,-1.00000,-0.99883,-0.99883,0.00457,-0.00469,-1.59703,"[0.998, 0.000, 0.000, 0.000, 0.998, 0.000]",0.998,0.998,0.000,0.000,0.000,0.000,0.000,0.000,0.998,0.998,0.000,0.000
0.7300,1.00000,0.99879,0.99879,-0.00482,0.00495,1.59847,0.00006,-0.00676,-0.00674,-0.05304,0.05291,0.30005,0.00000,0.00000,0.00000,0.00000,0.00000,0.00000,-1.00000,-0.99879,-0.99879,0.00482,-0.00495,-1.59847,"[0.998, 0.000, 0.000, 0.000, 0.998, 0.000]",0.998,0.998,0.000,0.000,0.000,0.000,0.000,0.000,0.998,0.998,0.000,0.000
0.7350,1.00000,0.99876,0.99876,-0.00509,0.00523,1.60003,0.00007,-0.00701,-0.00699,-0.05751,0.05736,0.32532,0.00000,0.00000,0.00000,0.00000,0.00000,0.00000,-1.00000,-0.99876,-0.99876,0.00509,-0.00523,-1.60003,"[0.998, 0.000, 0.000, 0.000, 0.998, 0.000]",0.998,0.998,0.000,0.000,0.000,0.000,0.000,0.000,0.998,0.998,0.000,0.000
0.7400,1.00000,0.99872,0.99873,-0.00538,0.00554,1.60172,0.00008,-0.00726,-0.00724,-0.06198,0.06182,0.35059,0.00000,0.00000,0.00000,0.00000,0.00000,0.00000,-1.00000,-0.99872,-0.99873,0.00538,-0.00554,-1.60172,"[0.998, 0.000, 0.000, 0.000, 0.998, 0.000]",0.998,0.998,0.000,0.000,0.000,0.000,0.000,0.000,0.998,0.998,0.000,0.000
0.7450,1.00000,0.99869,0.99869,-0.00569,0.00587,1.60353,0.00009,-0.00751,-0.00749,-0.06644,0.06627,0.37586,0.00000,0.00000,0.00000,0.00000,0.00000,0.00000,-1.00000,-0.99869,-0.99869,0.00569,-0.00587,-1.60353,"[0.998, 0.000, 0.000, 0.000, 0.998, 0.000]",0.998,0.998,0.000,0.000,0.000,0.000,0.000,0.000,0.998,0.998,0.000,0.000
0.7500,1.00001,0.99865,0.99865,-0.00601,0.00621,1.60541,0.00009,-0.00751,-0.00749,-0.06644,0.06627,0.37586,0.00000,0.00000,0.00000,0.00000,0.00000,0.00000,-1.00001,-0.99865,-0.99865,0.00601,-0.00621,-1.60541,"[0.000, 0.000, 0.000, 0.000, 0.000, 0.000]",0.000,0.000,0.000,0.000,0.000,0.000,0.000,0.000,0.000,0.000,0.000,0.000
0.7550,1.00001,0.99861,0.99861,-0.00633,0.00656,1.60728,0.00009,-0.00751,-0.00749,-0.06644,0.06627,0.37586,0.00000,0.00000,0.00000,0.00000,0.00000,0.00000,-1.00001,-0.99861,-0.99861,0.00633,-0.00656,-1.60728,"[0.000, 0.000, 0.000, 0.000, 0.000, 0.000]",0.000,0.000,0.000,0.000,0.000,0.000,0.000,0.000,0.000,0.000,0.000,0.000
0.7600,1.00001,0.99857,0.99858,-0.00665,0.00690,1.60916,0.00009,-0.00751,-0.00749,-0.06644,0.06627,0.37586,0.00000,0.00000,0.00000,0.00000,0.00000,0.00000,-1.00001,-0.99857,-0.99858,0.00665,-0.00690,-1.60916,"[0.000, 0.000, 0.000, 0.000, 0.000, 0.000]",0.000,0.000,0.000,0.000,0.000,0.000,0.000,0.000,0.000,0.000,0.000,0.000
0.7650,1.00001,0.99854,0.99854,-0.00697,0.00724,1.61104,0.00009,-0.00751,-0.00749,-0.06644,0.06627,0.37586,0.00000,0.00000,0.00000,0.00000,0.00000,0.00000,-1.00001,-0.99854,-0.99854,0.00697,-0.00724,-1.61104,"[0.000, 0.000, 0.000, 0.000, 0.000, 0.000]",0.000,0.000,0.000,0.000,0.000,0.000,0.000,0.000,0.000,0.000,0.000,0.000
0.7700,1.00001,0.99850,0.99850,-0.00729,0.00759,1.61292,0.00009,-0.00751,-0.00749,-0.06644,0.06627,0.37586,0.00000,0.00000,0.00000,0.00000,0.00000,0.00000,-1.00001,-0.99850,-0.99850,0.00729,-0.00759,-1.61292,"[0.000, 0.000, 0.000, 0.000, 0.000, 0.000]",0.000,0.000,0.000,0.000,0.000,0.000,0.000,0.000,0.000,0.000,0.000,0.000
0.7750,1.00001,0.99846,0.99846,-0.00761,0.00793,1.61479,0.00009,-0.00751,-0.00749,-0.06644,0.06627,0.37586,0.00000,0.00000,0.00000,0.00000,0.00000,0.00000,-1.00001,-0.99846,-0.99846,0.00761,-0.00793,-1.61479,"[0.000, 0.000, 0.000, 0.000, 0.000, 0.000]",0.000,0.000,0.000,0.000,0.000,0.000,0.000,0.000,0.000,0.000,0.000,0.000
0.7800,1.00001,0.99842,0.99843,-0.00792,0.00828,1.61667,0.00009,-0.00751,-0.00749,-0.06644,0.06627,0.37586,0.00000,0.00000,0.00000,0.00000,0.00000,0.00000,-1.00001,-0.99842,-0.99843,0.00792,-0.00828,-1.61667,"[0.000, 0.000, 0.000, 0.000, 0.000, 0.000]",0.000,0.000,0.000,0.000,0.000,0.000,0.000,0.000,0.000,0.000,0.000,0.000
0.7850,1.00001,0.99839,0.99839,-0.00824,0.00863,1.61855,0.00009,-0.00751,-0.00749,-0.06644,0.06627,0.37586,0.00000,0.00000,0.00000,0.00000,0.00000,0.00000,-1.00001,-0.99839,-0.99839,0.00824,-0.00863,-1.61855,"[0.000, 0.000, 0.000, 0.000, 0.000, 0.000]",0.000,0.000,0.000,0.000,0.000,0.000,0.000,0.000,0.000,0.000,0.000,0.000
0.7900,1.00001,0.99835,0.99835,-0.00856,0.00897,1.62042,0.00009,-0.00751,-0.00749,-0.06644,0.06627,0.37586,0.00000,0.00000,0.00000,0.00000,0.00000,0.00000,-1.00001,-0.99835,-0.99835,0.00856,-0.00897,-1.62042,"[0.000, 0.000, 0.000, 0.000, 0.000, 0.000]",0.000,0.000,0.000,0.000,0.000,0.000,0.000,0.000,0.000,0.000,0.000,0.000
0.7950,1.00001,0.99831,0.99831,-0.00887,0.00932,1.62230,0.00009,-0.00751,-0.00749,-0.06644,0.06627,0.37586,0.00000,0.00000,0.00000,0.00000,0.00000,0.00000,-1.00001,-0.99831,-0.99831,0.00887,-0.00932,-1.62230,"[0.000, 0.000, 0.000, 0.000, 0.000, 0.000]",0.000,0.000,0.000,0.000,0.000,0.000,0.000,0.000,0.000,0.000,0.000,0.000
0.8000,1.00001,0.99827,0.99828,-0.00918,0.00967,1.62418,0.00009,-0.00751,-0.00749,-0.06644,0.06627,0.37586,0.00000,0.00000,0.00000,0.00000,0.00000,0.00000,-1.00001,-0.99827,-0.99828,0.00918,-0.00967,-1.62418,"[0.000, 0.000, 0.000, 0.000, 0.000, 0.000]",0.000,0.000,0.000,0.000,0.000,0.000,0.000,0.000,0.000,0.000,0.000,0.000
0.8050,1.00001,0.99824,0.99824,-0.00950,0.01002,1.62605,0.00009,-0.00751,-0.00749,-0.06644,0.06627,0.37586,0.00000,0.00000,0.00000,0.00000,0.00000,0.00000,-1.00001,-0.99824,-0.99824,0.00950,-0.01002,-1.62605,"[0.000, 0.000, 0.000, 0.000, 0.000, 0.000]",0.000,0.000,0.000,0.000,0.000,0.000,0.000,0.000,0.000,0.000,0.000,0.000
0.8100,1.00001,0.99820,0.99820,-0.00981,0.01037,1.62793,0.00009,-0.00751,-0.00749,-0.06644,0.06627,0.37586,0.00000,0.00000,0.00000,0.00000,0.00000,0.00000,-1.00001,-0.99820,-0.99820,0.00981,-0.01037,-1.62793,"[0.000, 0.000, 0.000, 0.000, 0.000, 0.000]",0.000,0.000,0.000,0.000,0.000,0.000,0.000,0.000,0.000,0.000,0.000,0.000
0.8150,1.00001,0.99816,0.99816,-0.01012,0.01072,1.62980,0.00009,-0.00751,-0.00749,-0.06644,0.06627,0.37586,0.00000,0.00000,0.00000,0.00000,0.00000,0.00000,-1.00001,-0.99816,-0.99816,0.01012,-0.01072,-1.62980,"[0.000, 0.000, 0.000, 0.000, 0.000, 0.000]",0.000,0.000,0.000,0.000,0.000,0.000,0.000,0.000,0.000,0.000,0.000,0.000
0.8200,1.00001,0.99812,0.99813,-0.01044,0.01107,1.63168,0.00009,-0.00751,-0.00749,-0.06644,0.06627,0.37586,0.00000,0.00000,0.00000,0.00000,0.00000,0.00000,-1.00001,-0.99812,-0.99813,0.01044,-0.01107,-1.63168,"[0.000, 0.000, 0.000, 0.000, 0.000, 0.000]",0.000,0.000,0.000,0.000,0.000,0.000,0.000,0.000,0.000,0.000,0.000,0.000
0.8250,1.00001,0.99809,0.99809,-0.01075,0.01142,1.63356,0.00009,-0.00751,-0.00749,-0.06644,0.06627,0.37586,0.00000,0.00000,0.00000,0.00000,0.00000,0.00000,-1.00001,-0.99809,-0.99809,0.01075,-0.01142,-1.63356,"[0.000, 0.000, 0.000, 0.000, 0.000, 0.000]",0.000,0.000,0.000,0.000,0.000,0.000,0.000,0.000,0.000,0.000,0.000,0.000
0.8300,1.00001,0.99805,0.99805,-0.01106,0.01177,1.63543,0.00009,-0.00751,-0.00749,-0.06644,0.06627,0.37586,0.00000,0.00000,0.00000,0.00000,0.00000,0.00000,-1.00001,-0.99805,-0.99805,0.01106,-0.01177,-1.63543,"[0.000, 0.000, 0.000, 0.000, 0.000, 0.000]",0.000,0.000,0.000,0.000,0.000,0.000,0.000,0.000,0.000,0.000,0.000,0.000
0.8350,1.00001,0.99801,0.99801,-0.01137,0.01213,1.63731,0.00009,-0.00751,-0.00749,-0.06644,0.06627,0.37586,0.00000,0.00000,0.00000,0.00000,0.00000,0.00000,-1.00001,-0.99801,-0.99801,0.01137,-0.01213,-1.63731,"[0.000, 0.000, 0.000, 0.000, 0.000, 0.000]",0.000,0.000,0.000,0.000,0.000,0.000,0.000,0.000,0.000,0.000,0.000,0.000
0.8400,1.00001,0.99797,0.99798,-0.01168,0.01248,1.63918,0.00009,-0.00751,-0.00749,-0.06644,0.06627,0.37586,0.00000,0.00000,0.00000,0.00000,0.00000,0.00000,-1.00001,-0.99797,-0.99798,0.01168,-0.01248,-1.63918,"[0.000, 0.000, 0.000, 0.000, 0.000, 0.000]",0.000,0.000,0.000,0.000,0.000,0.000,0.000,0.000,0.000,0.000,0.000,0.000
0.8450,1.00001,0.99794,0.99794,-0.01198,0.01283,1.64106,0.00009,-0.00751,-0.00749,-0.06644,0.06627,0.37586,0.00000,0.00000,0.00000,0.00000,0.00000,0.00000,-1.00001,-0.99794,-0.99794,0.01198,-0.01283,-1.64106,"[0.000, 0.000, 0.000, 0.000, 0.000, 0.000]",0.000,0.000,0.000,0.000,0.000,0.000,0.000,0.000,0.000,0.000,0.000,0.000
0.8500,1.00001,0.99790,0.99790,-0.01229,0.01319,1.64293,0.00009,-0.00751,-0.00749,-0.06644,0.06627,0.37586,0.00000,0.00000,0.00000,0.00000,0.00000,0.00000,-1.00001,-0.99790,-0.99790,0.01229,-0.01319,-1.64293,"[0.000, 0.000, 0.000, 0.000, 0.000, 0.000]",0.000,0.000,0.000,0.000,0.000,0.000,0.000,0.000,0.000,0.000,0.000,0.000
0.8550,1.00001,0.99786,0.99786,-0.01260,0.01354,1.64481,0.00009,-0.00751,-0.00749,-0.06644,0.06627,0.37586,0.00000,0.00000,0.00000,0.00000,0.00000,0.00000,-1.00001,-0.99786,-0.99786,0.01260,-0.01354,-1.64481,"[0.000, 0.000, 0.000, 0.000, 0.000, 0.000]",0.000,0.000,0.000,0.000,0.000,0.000,0.000,0.000,0.000,0.000,0.000,0.000
0.8600,1.00001,0.99782,0.99783,-0.01291,0.01390,1.64668,0.00009,-0.00751,-0.00749,-0.06644,0.06627,0.37586,0.00000,0.00000,0.00000,0.00000,0.00000,0.00000,-1.00001,-0.99782,-0.99783,0.01291,-0.01390,-1.64668,"[0.000, 0.000, 0.000, 0.000, 0.000, 0.000]",0.000,0.000,0.000,0.000,0.000,0.000,0.000,0.000,0.000,0.000,0.000,0.000
0.8650,1.00002,0.99779,0.99779,-0.01321,0.01425,1.64856,0.00009,-0.00751,-0.00749,-0.06644,0.06627,0.37586,0.00000,0.00000,0.00000,0.00000,0.00000,0.00000,-1.00002,-0.99779,-0.99779,0.01321,-0.01425,-1.64856,"[0.000, 0.000, 0.000, 0.000, 0.000, 0.000]",0.000,0.000,0.000,0.000,0.000,0.000,0.000,0.000,0.000,0.000,0.000,0.000
0.8700,1.00002,0.99775,0.99775,-0.01352,0.01461,1.65043,0.00009,-0.00751,-0.00749,-0.06644,0.06627,0.37586,0.00000,0.00000,0.00000,0.00000,0.00000,0.00000,-1.00002,-0.99775,-0.99775,0.01352,-0.01461,-1.65043,"[0.000, 0.000, 0.000, 0.000, 0.000, 0.000]",0.000,0.000,0.000,0.000,0.000,0.000,0.000,0.000,0.000,0.000,0.000,0.000
0.8750,1.00002,0.99771,0.99771,-0.01382,0.01497,1.65231,0.00009,-0.00751,-0.00749,-0.06644,0.06627,0.37586,0.00000,0.00000,0.00000,0.00000,0.00000,0.00000,-1.00002,-0.99771,-0.99771,0.01382,-0.01497,-1.65231,"[0.000, 0.000, 0.000, 0.000, 0.000, 0.000]",0.000,0.000,0.000,0.000,0.000,0.000,0.000,0.000,0.000,0.000,0.000,0.000
0.8800,1.00002,0.99767,0.99768,-0.01413,0.01532,1.65418,0.00009,-0.00751,-0.00749,-0.06644,0.06627,0.37586,0.00000,0.00000,0.00000,0.00000,0.00000,0.00000,-1.00002,-0.99767,-0.99768,0.01413,-0.01532,-1.65418,"[0.000, 0.000, 0.000, 0.000, 0.000, 0.000]",0.000,0.000,0.000,0.000,0.000,0.000,0.000,0.000,0.000,0.000,0.000,0.000
0.8850,1.00002,0.99764,0.99764,-0.01443,0.01568,1.65606,0.00009,-0.00751,-0.00749,-0.06644,0.06627,0.37586,0.00000,0.00000,0.00000,0.00000,0.00000,0.00000,-1.00002,-0.99764,-0.99764,0.01443,-0.01568,-1.65606,"[0.000, 0.000, 0.000, 0.000, 0.000, 0.000]",0.000,0.000,0.000,0.000,0.000,0.000,0.000,0.000,0.000,0.000,0.000,0.000
0.8900,1.00002,0.99760,0.99760,-0.01473,0.01604,1.65793,0.00009,-0.00751,-0.00749,-0.06644,0.06627,0.37586,0.00000,0.00000,0.00000,0.00000,0.00000,0.00000,-1.00002,-0.99760,-0.99760,0.01473,-0.01604,-1.65793,"[0.000, 0.000, 0.000, 0.000, 0.000, 0.000]",0.000,0.000,0.000,0.000,0.000,0.000,0.000,0.000,0.000,0.000,0.000,0.000
0.8950,1.00002,0.99756,0.99757,-0.01503,0.01640,1.65981,0.00009,-0.00751,-0.00749,-0.06644,0.06627,0.37586,0.00000,0.00000,0.00000,0.00000,0.00000,0.00000,-1.00002,-0.99756,-0.99757,0.01503,-0.01640,-1.65981,"[0.000, 0.000, 0.000, 0.000, 0.000, 0.000]",0.000,0.000,0.000,0.000,0.000,0.000,0.000,0.000,0.000,0.000,0.000,0.000
0.9000,1.00002,0.99752,0.99753,-0.01536,0.01679,1.66186,0.00012,-0.00777,-0.00773,-0.07893,0.07867,0.44633,0.00000,0.00000,0.00000,0.00000,0.00000,0.00000,-1.00002,-0.99752,-0.99753,0.01536,-0.01679,-1.66186,"[0.998, 0.000, 0.000, 0.000, 0.998, 0.000]",0.998,0.998,0.000,0.000,0.000,0.000,0.000,0.000,0.998,0.998,0.000,0.000
0.9050,1.00002,0.99748,0.99749,-0.01575,0.01725,1.66426,0.00014,-0.00802,-0.00798,-0.09141,0.09108,0.51681,0.00000,0.00000,0.00000,0.00000,0.00000,0.00000,-1.00002,-0.99748,-0.99749,0.01575,-0.01725,-1.66426,"[0.998, 0.000, 0.000, 0.000, 0.998, 0.000]",0.998,0.998,0.000,0.000,0.000,0.000,0.000,0.000,0.998,0.998,0.000,0.000
0.9100,1.00002,0.99744,0.99745,-0.01619,0.01778,1.66701,0.00017,-0.00827,-0.00822,-0.10390,0.10348,0.58729,0.00000,0.00000,0.00000,0.00000,0.00000,0.00000,-1.00002,-0.99744,-0.99745,0.01619,-0.01778,-1.66701,"[0.998, 0.000, 0.000, 0.000, 0.998, 0.000]",0.998,0.998,0.000,0.000,0.000,0.000,0.000,0.000,0.998,0.998,0.000,0.000
0.9150,1.00002,0.99740,0.99741,-0.01668,0.01838,1.67011,0.00020,-0.00852,-0.00847,-0.11638,0.11588,0.65777,0.00000,0.00000,0.00000,0.00000,0.00000,0.00000,-1.00002,-0.99740,-0.99741,0.01668,-0.01838,-1.67011,"[0.998, 0.000, 0.000, 0.000, 0.998, 0.000]",0.998,0.998,0.000,0.000,0.000,0.000,0.000,0.000,0.998,0.998,0.000,0.000
