Step,MPC_Start_Time,Control_Time,Actual_Time_Interval,CONTROL_DT,Mission_Phase,Waypoint_Number,Telemetry_X_mm,Telemetry_Y_mm,Telemetry_Z_mm,Telemetry_Roll_deg,Telemetry_Pitch_deg,Telemetry_Yaw_deg,Current_X,Current_Y,Current_Z,Current_Roll,Current_Pitch,Current_Yaw,Current_VX,Current_VY,Current_VZ,Current_WX,Current_WY,Current_WZ,Target_X,Target_Y,Target_Z,Target_Roll,Target_Pitch,Target_Yaw,Target_VX,Target_VY,Target_VZ,Target_WX,Target_WY,Target_WZ,Error_X,Error_Y,Error_Z,Error_Roll,Error_Pitch,Error_Yaw,Error_VX,Error_VY,Error_VZ,Error_WX,Error_WY,Error_WZ,MPC_Computation_Time,MPC_Status,MPC_Solver,MPC_Solver_Time_Limit,MPC_Solve_Time,MPC_Time_Limit_Exceeded,MPC_Fallback_Used,MPC_Objective,MPC_Iterations,MPC_Optimality_Gap,Command_Vector,Command_Hex,Command_Sent_Time,Total_Active_Thrusters,Thruster_Switches,RW_Torque_X,RW_Torque_Y,RW_Torque_Z,Total_MPC_Loop_Time,Timing_Violation
0,0.0450,0.0450,0.0500,0.050,APPROACHING,0,1000.00,1000.00,1000.00,0.00,0.00,90.00,1.00000,1.00000,1.00000,0.00000,0.00000,1.57080,0.00000,0.00000,0.00000,0.00000,0.00000,0.00000,0.00000,0.00000,0.00000,0.00000,0.00000,0.00000,0.00000,0.00000,0.00000,0.00000,0.00000,0.00000,1.00000,1.00000,1.00000,0.00000,0.00000,-1.57080,0.00000,0.00000,0.00000,0.00000,0.00000,0.00000,0.0000,,,,0.0263,,,,,,"[1.000, 0.000, 0.000, 0.000, 1.000, 0.000]",0x100010,0.0450,2,0,0.323761,-0.323761,-0.500000,0.0000,NO
1,0.0950,0.0950,0.0500,0.050,APPROACHING,0,1000.00,999.94,999.94,0.28,-0.27,89.57,1.00000,0.99994,0.99994,0.00483,-0.00479,1.56335,-0.00001,-0.00250,-0.00250,0.19249,-0.19249,-0.29727,0.00000,0.00000,0.00000,0.00000,0.00000,0.00000,0.00000,0.00000,0.00000,0.00000,0.00000,0.00000,1.00000,0.99994,0.99994,-0.00483,0.00479,-1.56335,0.00001,0.00250,0.00250,-0.19249,0.19249,0.29727,0.0000,,,,0.0082,,,,,,"[1.000, 0.000, 0.000, 0.000, 1.000, 0.000]",0x100010,0.0950,2,0,-0.273459,0.264421,-0.499106,0.0000,NO
2,0.1450,0.1450,0.0500,0.050,APPROACHING,0,1000.00,999.75,999.75,0.61,-0.59,88.29,1.00000,0.99975,0.99975,0.01057,-0.01030,1.54103,-0.00007,-0.00498,-0.00502,0.02965,-0.03554,-0.59400,0.00000,0.00000,0.00000,0.00000,0.00000,0.00000,0.00000,0.00000,0.00000,0.00000,0.00000,0.00000,1.00000,0.99975,0.99975,-0.01057,0.01030,-1.54103,0.00007,0.00498,0.00502,-0.02965,0.03554,0.59400,0.0000,,,,0.0031,,,,,,"[0.998, 0.000, 0.000, 0.000, 0.998, 0.000]",0x100010,0.1450,2,0,0.213567,-0.215153,0.009390,0.0000,NO
3,0.1950,0.1950,0.0500,0.050,APPROACHING,0,999.99,999.44,999.44,0.89,-0.85,86.60,0.99999,0.99944,0.99944,0.01559,-0.01490,1.51140,-0.00021,-0.00744,-0.00755,0.15681,-0.16327,-0.58841,0.00000,0.00000,0.00000,0.00000,0.00000,0.00000,0.00000,0.00000,0.00000,0.00000,0.00000,0.00000,0.99999,0.99944,0.99944,-0.01559,0.01490,-1.51140,0.00021,0.00744,0.00755,-0.15681,0.16327,0.58841,0.0000,,,,0.0030,,,,,,"[0.998, 0.000, 0.000, 0.000, 0.998, 0.000]",0x100010,0.1950,2,0,-0.184078,0.175262,0.020701,0.0000,NO
4,0.2450,0.2450,0.0500,0.050,APPROACHING,0,999.98,999.01,998.99,1.22,-1.14,84.92,0.99998,0.99901,0.99899,0.02121,-0.01991,1.48219,-0.00043,-0.00989,-0.01010,0.04722,-0.05923,-0.57610,0.00000,0.00000,0.00000,0.00000,0.00000,0.00000,0.00000,0.00000,0.00000,0.00000,0.00000,0.00000,0.99998,0.99901,0.99899,-0.02121,0.01991,-1.48219,0.00043,0.00989,0.01010,-0.04722,0.05923,0.57610,0.0000,,,,0.0032,,,,,,"[0.998, 0.000, 0.000, 0.000, 0.998, 0.000]",0x100010,0.2450,2,0,0.140757,-0.142447,0.011437,0.0000,NO
5,0.2950,0.2950,0.0500,0.050,APPROACHING,0,999.95,998.45,998.43,1.51,-1.39,83.28,0.99995,0.99845,0.99843,0.02630,-0.02432,1.45343,-0.00074,-0.01231,-0.01265,0.13103,-0.14379,-0.56931,0.00000,0.00000,0.00000,0.00000,0.00000,0.00000,0.00000,0.00000,0.00000,0.00000,0.00000,0.00000,0.99995,0.99845,0.99843,-0.02630,0.02432,-1.45343,0.00074,0.01231,0.01265,-0.13103,0.14379,0.56931,0.0000,,,,0.0070,,,,,,"[1.000, 0.000, 0.000, 0.000, 1.000, 0.000]",0x100010,0.2950,2,0,-0.132129,0.132970,0.006136,0.0000,NO
6,0.3450,0.3450,0.0500,0.050,APPROACHING,0,999.90,997.78,997.73,1.81,-1.64,81.64,0.99990,0.99778,0.99773,0.03165,-0.02870,1.42491,-0.00112,-0.01472,-0.01521,0.05236,-0.06485,-0.56566,0.00000,0.00000,0.00000,0.00000,0.00000,0.00000,0.00000,0.00000,0.00000,0.00000,0.00000,0.00000,0.99990,0.99778,0.99773,-0.03165,0.02870,-1.42491,0.00112,0.01472,0.01521,-0.05236,0.06485,0.56566,0.0000,,,,0.0031,,,,,,"[1.000, 0.000, 0.000, 0.000, 1.000, 0.000]",0x100010,0.3450,2,0,0.067905,-0.079094,0.024526,0.0000,NO
7,0.3950,0.3950,0.0500,0.050,APPROACHING,0,999.83,996.98,996.90,2.07,-1.84,80.03,0.99983,0.99698,0.99690,0.03613,-0.03217,1.39684,-0.00159,-0.01710,-0.01779,0.09280,-0.11182,-0.55107,0.00000,0.00000,0.00000,0.00000,0.00000,0.00000,0.00000,0.00000,0.00000,0.00000,0.00000,0.00000,0.99983,0.99698,0.99690,-0.03613,0.03217,-1.39684,0.00159,0.01710,0.01779,-0.09280,0.11182,0.55107,0.0000,,,,0.0031,,,,,,"[1.000, 0.000, 0.000, 0.000, 1.000, 0.000]",0x100010,0.3950,2,0,-0.020129,0.016771,0.015667,0.0000,NO
8,0.4450,0.4450,0.0500,0.050,APPROACHING,0,999.74,996.07,995.95,2.37,-2.09,78.46,0.99974,0.99607,0.99595,0.04141,-0.03645,1.36932,-0.00213,-0.01945,-0.02037,0.08082,-0.10186,-0.54176,0.00000,0.00000,0.00000,0.00000,0.00000,0.00000,0.00000,0.00000,0.00000,0.00000,0.00000,0.00000,0.99974,0.99607,0.99595,-0.04141,0.03645,-1.36932,0.00213,0.01945,0.02037,-0.08082,0.10186,0.54176,0.0000,,,,0.0032,,,,,,"[1.000, 0.000, 0.000, 0.000, 1.000, 0.000]",0x100010,0.4450,2,0,0.000345,-0.005932,0.016675,0.0000,NO
9,0.4950,0.4950,0.0500,0.050,APPROACHING,0,999.62,995.04,994.87,2.66,-2.32,76.91,0.99962,0.99504,0.99487,0.04650,-0.04045,1.34226,-0.00275,-0.02178,-0.02296,0.08104,-0.10538,-0.53184,0.00000,0.00000,0.00000,0.00000,0.00000,0.00000,0.00000,0.00000,0.00000,0.00000,0.00000,0.00000,0.99962,0.99504,0.99487,-0.04650,0.04045,-1.34226,0.00275,0.02178,0.02296,-0.08104,0.10538,0.53184,0.0000,,,,0.0040,,,,,,"[1.000, 0.000, 0.000, 0.000, 1.000, 0.000]",0x100010,0.4950,2,0,-0.006236,0.001981,0.015539,0.0000,NO
10,0.5450,0.5450,0.0500,0.050,APPROACHING,0,999.46,993.89,993.65,2.96,-2.54,75.38,0.99946,0.99389,0.99365,0.05159,-0.04439,1.31565,-0.00344,-0.02407,-0.02556,0.07733,-0.10421,-0.52261,0.00000,0.00000,0.00000,0.00000,0.00000,0.00000,0.00000,0.00000,0.00000,0.00000,0.00000,0.00000,0.99946,0.99389,0.99365,-0.05159,0.04439,-1.31565,0.00344,0.02407,0.02556,-0.07733,0.10421,0.52261,0.0000,,,,0.0032,,,,,,"[1.000, 0.000, 0.000, 0.000, 1.000, 0.000]",0x100010,0.5450,2,0,-0.004511,0.000144,0.015380,0.0000,NO
11,0.5950,0.5950,0.0500,0.050,APPROACHING,0,999.27,992.63,992.31,3.24,-2.76,73.88,0.99927,0.99263,0.99231,0.05660,-0.04819,1.28948,-0.00419,-0.02633,-0.02817,0.07465,-0.10412,-0.51346,0.00000,0.00000,0.00000,0.00000,0.00000,0.00000,0.00000,0.00000,0.00000,0.00000,0.00000,0.00000,0.99927,0.99263,0.99231,-0.05660,0.04819,-1.28948,0.00419,0.02633,0.02817,-0.07465,0.10412,0.51346,0.0000,,,,0.0031,,,,,,"[1.000, 0.000, 0.000, 0.000, 1.000, 0.000]",0x100010,0.5950,2,0,-0.004960,0.000918,0.015111,0.0000,NO
12,0.6450,0.6450,0.0500,0.050,APPROACHING,0,999.04,991.26,990.84,3.53,-2.97,72.41,0.99904,0.99126,0.99084,0.06154,-0.05187,1.26373,-0.00502,-0.02856,-0.03079,0.07170,-0.10358,-0.50448,0.00000,0.00000,0.00000,0.00000,0.00000,0.00000,0.00000,0.00000,0.00000,0.00000,0.00000,0.00000,0.99904,0.99126,0.99084,-0.06154,0.05187,-1.26373,0.00502,0.02856,0.03079,-0.07170,0.10358,0.50448,0.0000,,,,0.0032,,,,,,"[1.000, 0.000, 0.000, 0.000, 1.000, 0.000]",0x100010,0.6450,2,0,-0.004749,0.000849,0.014956,0.0000,NO
13,0.6950,0.6950,0.0500,0.050,APPROACHING,0,998.77,989.77,989.23,3.81,-3.18,70.96,0.99877,0.98977,0.98923,0.06642,-0.05543,1.23842,-0.00591,-0.03076,-0.03341,0.06888,-0.10308,-0.49558,0.00000,0.00000,0.00000,0.00000,0.00000,0.00000,0.00000,0.00000,0.00000,0.00000,0.00000,0.00000,0.99877,0.98977,0.98923,-0.06642,0.05543,-1.23842,0.00591,0.03076,0.03341,-0.06888,0.10308,0.49558,0.0000,,,,0.0040,,,,,,"[1.000, 0.000, 0.000, 0.000, 1.000, 0.000]",0x100010,0.6950,2,0,-0.004709,0.000992,0.014802,0.0000,NO
14,0.7450,0.7450,0.0500,0.050,APPROACHING,0,998.45,988.18,987.50,4.08,-3.37,69.53,0.99845,0.98818,0.98750,0.07121,-0.05887,1.21352,-0.00686,-0.03291,-0.03604,0.06608,-0.10249,-0.48678,0.00000,0.00000,0.00000,0.00000,0.00000,0.00000,0.00000,0.00000,0.00000,0.00000,0.00000,0.00000,0.99845,0.98818,0.98750,-0.07121,0.05887,-1.21352,0.00686,0.03291,0.03604,-0.06608,0.10249,0.48678,0.0000,,,,0.0031,,,,,,"[1.000, 0.000, 0.000, 0.000, 1.000, 0.000]",0x100010,0.7450,2,0,-0.004617,0.001057,0.014659,0.0000,NO
15,0.7950,0.7950,0.0500,0.050,APPROACHING,0,998.08,986.48,985.63,4.35,-3.56,68.13,0.99808,0.98648,0.98563,0.07593,-0.06219,1.18904,-0.00788,-0.03504,-0.03868,0.06334,-0.10186,-0.47807,0.00000,0.00000,0.00000,0.00000,0.00000,0.00000,0.00000,0.00000,0.00000,0.00000,0.00000,0.00000,0.99808,0.98648,0.98563,-0.07593,0.06219,-1.18904,0.00788,0.03504,0.03868,-0.06334,0.10186,0.47807,0.0000,,,,0.0033,,,,,,"[1.000, 0.000, 0.000, 0.000, 1.000, 0.000]",0x100010,0.7950,2,0,-0.004538,0.001136,0.014514,0.0000,NO
16,0.8450,0.8450,0.0500,0.050,APPROACHING,0,997.66,984.68,983.63,4.62,-3.75,66.75,0.99766,0.98468,0.98363,0.08056,-0.06540,1.16498,-0.00895,-0.03712,-0.04133,0.06064,-0.10119,-0.46944,0.00000,0.00000,0.00000,0.00000,0.00000,0.00000,0.00000,0.00000,0.00000,0.00000,0.00000,0.00000,0.99766,0.98468,0.98363,-0.08056,0.06540,-1.16498,0.00895,0.03712,0.04133,-0.06064,0.10119,0.46944,0.0000,,,,0.0034,,,,,,"[1.000, 0.000, 0.000, 0.000, 1.000, 0.000]",0x100010,0.8450,2,0,-0.004455,0.001205,0.014366,0.0000,NO
17,0.8950,0.8950,0.0500,0.050,APPROACHING,0,997.19,982.77,981.49,4.88,-3.92,65.39,0.99719,0.98277,0.98149,0.08511,-0.06850,1.14133,-0.01008,-0.03917,-0.04398,0.05800,-0.10048,-0.46090,0.00000,0.00000,0.00000,0.00000,0.00000,0.00000,0.00000,0.00000,0.00000,0.00000,0.00000,0.00000,0.99719,0.98277,0.98149,-0.08511,0.06850,-1.14133,0.01008,0.03917,0.04398,-0.05800,0.10048,0.46090,0.0000,,,,0.0033,,,,,,"[1.000, 0.000, 0.000, 0.000, 1.000, 0.000]",0x100010,0.8950,2,0,-0.004374,0.001272,0.014213,0.0000,NO
18,0.9450,0.9450,0.0500,0.050,APPROACHING,0,996.65,980.76,979.23,5.13,-4.10,64.06,0.99665,0.98076,0.97923,0.08957,-0.07149,1.11809,-0.01127,-0.04117,-0.04664,0.05540,-0.09972,-0.45245,0.00000,0.00000,0.00000,0.00000,0.00000,0.00000,0.00000,0.00000,0.00000,0.00000,0.00000,0.00000,0.99665,0.98076,0.97923,-0.08957,0.07149,-1.11809,0.01127,0.04117,0.04664,-0.05540,0.09972,0.45245,0.0000,,,,0.0043,,,,,,"[1.000, 0.000, 0.000, 0.000, 1.000, 0.000]",0x100010,0.9450,2,0,-0.004292,0.001336,0.014055,0.0000,NO
19,0.9950,0.9950,0.0500,0.050,APPROACHING,0,996.06,978.66,976.83,5.38,-4.26,62.75,0.99606,0.97866,0.97683,0.09394,-0.07438,1.09526,-0.01251,-0.04314,-0.04931,0.05285,-0.09893,-0.44409,0.00000,0.00000,0.00000,0.00000,0.00000,0.00000,0.00000,0.00000,0.00000,0.00000,0.00000,0.00000,0.99606,0.97866,0.97683,-0.09394,0.07438,-1.09526,0.01251,0.04314,0.04931,-0.05285,0.09893,0.44409,0.0000,,,,0.0033,,,,,,"[1.000, 0.000, 0.000, 0.000, 1.000, 0.000]",0x100010,0.9950,2,0,-0.004211,0.001398,0.013892,0.0000,NO
20,1.0450,1.0450,0.0500,0.050,APPROACHING,0,995.40,976.45,974.30,5.63,-4.42,61.47,0.99540,0.97645,0.97430,0.09822,-0.07718,1.07283,-0.01379,-0.04506,-0.05198,0.05034,-0.09810,-0.43583,0.00000,0.00000,0.00000,0.00000,0.00000,0.00000,0.00000,0.00000,0.00000,0.00000,0.00000,0.00000,0.99540,0.97645,0.97430,-0.09822,0.07718,-1.07283,0.01379,0.04506,0.05198,-0.05034,0.09810,0.43583,0.0000,,,,0.0032,,,,,,"[1.000, 0.000, 0.000, 0.000, 1.000, 0.000]",0x100010,1.0450,2,0,-0.004129,0.001457,0.013726,0.0000,NO
21,1.0950,1.0950,0.0500,0.050,APPROACHING,0,994.68,974.15,971.63,5.87,-4.58,60.21,0.99468,0.97415,0.97163,0.10240,-0.07987,1.05079,-0.01513,-0.04695,-0.05465,0.04789,-0.09723,-0.42767,0.00000,0.00000,0.00000,0.00000,0.00000,0.00000,0.00000,0.00000,0.00000,0.00000,0.00000,0.00000,0.99468,0.97415,0.97163,-0.10240,0.07987,-1.05079,0.01513,0.04695,0.05465,-0.04789,0.09723,0.42767,0.0000,,,,0.0033,,,,,,"[1.000, 0.000, 0.000, 0.000, 1.000, 0.000]",0x100010,1.0950,2,0,-0.004048,0.001515,0.013555,0.0000,NO
22,1.1450,1.1450,0.0500,0.050,APPROACHING,0,993.89,971.76,968.83,6.10,-4.73,58.97,0.99389,0.97176,0.96883,0.10649,-0.08248,1.02915,-0.01651,-0.04880,-0.05733,0.04548,-0.09634,-0.41961,0.00000,0.00000,0.00000,0.00000,0.00000,0.00000,0.00000,0.00000,0.00000,0.00000,0.00000,0.00000,0.99389,0.97176,0.96883,-0.10649,0.08248,-1.02915,0.01651,0.04880,0.05733,-0.04548,0.09634,0.41961,0.0000,,,,0.0033,,,,,,"[1.000, 0.000, 0.000, 0.000, 1.000, 0.000]",0x100010,1.1450,2,0,-0.003966,0.001570,0.013381,0.0000,NO
23,1.1950,1.1950,0.0500,0.050,APPROACHING,0,993.03,969.27,965.90,6.33,-4.87,57.75,0.99303,0.96927,0.96590,0.11049,-0.08499,1.00790,-0.01794,-0.05060,-0.06002,0.04313,-0.09540,-0.41165,0.00000,0.00000,0.00000,0.00000,0.00000,0.00000,0.00000,0.00000,0.00000,0.00000,0.00000,0.00000,0.99303,0.96927,0.96590,-0.11049,0.08499,-1.00790,0.01794,0.05060,0.06002,-0.04313,0.09540,0.41165,0.0000,,,,0.0041,,,,,,"[1.000, 0.000, 0.000, 0.000, 1.000, 0.000]",0x100010,1.1950,2,0,-0.003885,0.001623,0.013204,0.0000,NO
24,1.2450,1.2450,0.0500,0.050,APPROACHING,0,992.09,966.70,962.83,6.55,-5.01,56.55,0.99209,0.96670,0.96283,0.11438,-0.08742,0.98703,-0.01941,-0.05236,-0.06271,0.04082,-0.09444,-0.40380,0.00000,0.00000,0.00000,0.00000,0.00000,0.00000,0.00000,0.00000,0.00000,0.00000,0.00000,0.00000,0.99209,0.96670,0.96283,-0.11438,0.08742,-0.98703,0.01941,0.05236,0.06271,-0.04082,0.09444,0.40380,0.0000,,,,0.0033,,,,,,"[1.000, 0.000, 0.000, 0.000, 1.000, 0.000]",0x100010,1.2450,2,0,-0.003805,0.001674,0.013024,0.0000,NO
25,1.2950,1.2950,0.0500,0.050,APPROACHING,0,991.09,964.03,959.63,6.77,-5.14,55.38,0.99109,0.96403,0.95963,0.11818,-0.08977,0.96654,-0.02092,-0.05408,-0.06540,0.03856,-0.09345,-0.39606,0.00000,0.00000,0.00000,0.00000,0.00000,0.00000,0.00000,0.00000,0.00000,0.00000,0.00000,0.00000,0.99109,0.96403,0.95963,-0.11818,0.08977,-0.96654,0.02092,0.05408,0.06540,-0.03856,0.09345,0.39606,0.0000,,,,0.0033,,,,,,"[1.000, 0.000, 0.000, 0.000, 1.000, 0.000]",0x100010,1.2950,2,0,-0.003725,0.001723,0.012842,0.0000,NO
26,1.3450,1.3450,0.0500,0.050,APPROACHING,0,990.00,961.29,956.29,6.98,-5.27,54.23,0.99000,0.96129,0.95629,0.12188,-0.09203,0.94643,-0.02246,-0.05576,-0.06810,0.03634,-0.09242,-0.38842,0.00000,0.00000,0.00000,0.00000,0.00000,0.00000,0.00000,0.00000,0.00000,0.00000,0.00000,0.00000,0.99000,0.96129,0.95629,-0.12188,0.09203,-0.94643,0.02246,0.05576,0.06810,-0.03634,0.09242,0.38842,0.0000,,,,0.0032,,,,,,"[1.000, 0.000, 0.000, 0.000, 1.000, 0.000]",0x100010,1.3450,2,0,-0.003646,0.001770,0.012658,0.0000,NO
27,1.3950,1.3950,0.0500,0.050,APPROACHING,0,988.84,958.46,952.82,7.19,-5.40,53.10,0.98884,0.95846,0.95282,0.12547,-0.09422,0.92669,-0.02405,-0.05740,-0.07080,0.03418,-0.09137,-0.38090,0.00000,0.00000,0.00000,0.00000,0.00000,0.00000,0.00000,0.00000,0.00000,0.00000,0.00000,0.00000,0.98884,0.95846,0.95282,-0.12547,0.09422,-0.92669,0.02405,0.05740,0.07080,-0.03418,0.09137,0.38090,0.0000,,,,0.0032,,,,,,"[1.000, 0.000, 0.000, 0.000, 1.000, 0.000]",0x100010,1.3950,2,0,-0.003567,0.001815,0.012472,0.0000,NO
28,1.4450,1.4450,0.0500,0.050,APPROACHING,0,987.60,955.55,949.21,7.39,-5.52,51.99,0.98760,0.95555,0.94921,0.12897,-0.09633,0.90732,-0.02567,-0.05900,-0.07351,0.03206,-0.09030,-0.37348,0.00000,0.00000,0.00000,0.00000,0.00000,0.00000,0.00000,0.00000,0.00000,0.00000,0.00000,0.00000,0.98760,0.95555,0.94921,-0.12897,0.09633,-0.90732,0.02567,0.05900,0.07351,-0.03206,0.09030,0.37348,0.0000,,,,0.0042,,,,,,"[1.000, 0.000, 0.000, 0.000, 1.000, 0.000]",0x100010,1.4450,2,0,-0.003489,0.001857,0.012285,0.0000,NO
29,1.4950,1.4950,0.0500,0.050,APPROACHING,0,986.27,952.56,945.47,7.58,-5.64,50.90,0.98627,0.95256,0.94547,0.13237,-0.09837,0.88831,-0.02732,-0.06056,-0.07622,0.02998,-0.08919,-0.36618,0.00000,0.00000,0.00000,0.00000,0.00000,0.00000,0.00000,0.00000,0.00000,0.00000,0.00000,0.00000,0.98627,0.95256,0.94547,-0.13237,0.09837,-0.88831,0.02732,0.06056,0.07622,-0.02998,0.08919,0.36618,0.0000,,,,0.0035,,,,,,"[1.000, 0.000, 0.000, 0.000, 1.000, 0.000]",0x100010,1.4950,2,0,-0.003412,0.001899,0.012096,0.0000,NO
30,1.5450,1.5450,0.0500,0.050,APPROACHING,0,984.86,949.49,941.59,7.77,-5.75,49.83,0.98486,0.94949,0.94159,0.13567,-0.10034,0.86966,-0.02901,-0.06207,-0.07893,0.02795,-0.08807,-0.35899,0.00000,0.00000,0.00000,0.00000,0.00000,0.00000,0.00000,0.00000,0.00000,0.00000,0.00000,0.00000,0.98486,0.94949,0.94159,-0.13567,0.10034,-0.86966,0.02901,0.06207,0.07893,-0.02795,0.08807,0.35899,0.0000,,,,0.0033,,,,,,"[1.000, 0.000, 0.000, 0.000, 1.000, 0.000]",0x100010,1.5450,2,0,-0.003335,0.001938,0.011908,0.0000,NO
31,1.5950,1.5950,0.0500,0.050,APPROACHING,0,983.37,946.35,937.57,7.96,-5.86,48.78,0.98337,0.94635,0.93757,0.13887,-0.10224,0.85136,-0.03072,-0.06355,-0.08165,0.02597,-0.08691,-0.35190,0.00000,0.00000,0.00000,0.00000,0.00000,0.00000,0.00000,0.00000,0.00000,0.00000,0.00000,0.00000,0.98337,0.94635,0.93757,-0.13887,0.10224,-0.85136,0.03072,0.06355,0.08165,-0.02597,0.08691,0.35190,0.0000,,,,0.0033,,,,,,"[1.000, 0.000, 0.000, 0.000, 1.000, 0.000]",0x100010,1.5950,2,0,-0.003260,0.001976,0.011719,0.0000,NO
32,1.6450,1.6450,0.0500,0.050,APPROACHING,0,981.79,943.14,933.42,8.13,-5.96,47.75,0.98179,0.94314,0.93342,0.14197,-0.10408,0.83342,-0.03247,-0.06498,-0.08437,0.02403,-0.08574,-0.34494,0.00000,0.00000,0.00000,0.00000,0.00000,0.00000,0.00000,0.00000,0.00000,0.00000,0.00000,0.00000,0.98179,0.94314,0.93342,-0.14197,0.10408,-0.83342,0.03247,0.06498,0.08437,-0.02403,0.08574,0.34494,0.0000,,,,0.0032,,,,,,"[1.000, 0.000, 0.000, 0.000, 1.000, 0.000]",0x100010,1.6450,2,0,-0.003185,0.002012,0.011529,0.0000,NO
33,1.6950,1.6950,0.0500,0.050,APPROACHING,0,980.12,939.86,929.14,8.31,-6.06,46.74,0.98012,0.93986,0.92914,0.14497,-0.10585,0.81581,-0.03424,-0.06637,-0.08709,0.02214,-0.08455,-0.33808,0.00000,0.00000,0.00000,0.00000,0.00000,0.00000,0.00000,0.00000,0.00000,0.00000,0.00000,0.00000,0.98012,0.93986,0.92914,-0.14497,0.10585,-0.81581,0.03424,0.06637,0.08709,-0.02214,0.08455,0.33808,0.0000,,,,0.0033,,,,,,"[1.000, 0.000, 0.000, 0.000, 1.000, 0.000]",0x100010,1.6950,2,0,-0.003112,0.002046,0.011340,0.0000,NO
34,1.7450,1.7450,0.0500,0.050,APPROACHING,0,978.37,936.50,924.72,8.47,-6.16,45.75,0.97837,0.93650,0.92472,0.14787,-0.10756,0.79854,-0.03604,-0.06773,-0.08982,0.02029,-0.08333,-0.33134,0.00000,0.00000,0.00000,0.00000,0.00000,0.00000,0.00000,0.00000,0.00000,0.00000,0.00000,0.00000,0.97837,0.93650,0.92472,-0.14787,0.10756,-0.79854,0.03604,0.06773,0.08982,-0.02029,0.08333,0.33134,0.0000,,,,0.0042,,,,,,"[1.000, 0.000, 0.000, 0.000, 1.000, 0.000]",0x100010,1.7450,2,0,-0.003039,0.002078,0.011151,0.0000,NO
35,1.7950,1.7950,0.0500,0.050,APPROACHING,0,976.52,933.08,920.16,8.63,-6.26,44.78,0.97652,0.93308,0.92016,0.15067,-0.10921,0.78161,-0.03787,-0.06904,-0.09254,0.01849,-0.08210,-0.32471,0.00000,0.00000,0.00000,0.00000,0.00000,0.00000,0.00000,0.00000,0.00000,0.00000,0.00000,0.00000,0.97652,0.93308,0.92016,-0.15067,0.10921,-0.78161,0.03787,0.06904,0.09254,-0.01849,0.08210,0.32471,0.0000,,,,0.0032,,,,,,"[1.000, 0.000, 0.000, 0.000, 1.000, 0.000]",0x100010,1.7950,2,0,-0.002969,0.002110,0.010961,0.0000,NO
36,1.8450,1.8450,0.0500,0.050,APPROACHING,0,974.58,929.60,915.46,8.79,-6.35,43.83,0.97458,0.92960,0.91546,0.15337,-0.11080,0.76501,-0.03971,-0.07032,-0.09527,0.01672,-0.08084,-0.31819,0.00000,0.00000,0.00000,0.00000,0.00000,0.00000,0.00000,0.00000,0.00000,0.00000,0.00000,0.00000,0.97458,0.92960,0.91546,-0.15337,0.11080,-0.76501,0.03971,0.07032,0.09527,-0.01672,0.08084,0.31819,0.0000,,,,0.0032,,,,,,"[1.000, 0.000, 0.000, 0.000, 1.000, 0.000]",0x100010,1.8450,2,0,-0.002898,0.002139,0.010774,0.0000,NO
37,1.8950,1.8950,0.0500,0.050,APPROACHING,0,972.55,926.05,910.63,8.94,-6.44,42.90,0.97255,0.92605,0.91063,0.15598,-0.11234,0.74872,-0.04158,-0.07156,-0.09801,0.01500,-0.07957,-0.31179,0.00000,0.00000,0.00000,0.00000,0.00000,0.00000,0.00000,0.00000,0.00000,0.00000,0.00000,0.00000,0.97255,0.92605,0.91063,-0.15598,0.11234,-0.74872,0.04158,0.07156,0.09801,-0.01500,0.07957,0.31179,0.0000,,,,0.0030,,,,,,"[1.000, 0.000, 0.000, 0.000, 1.000, 0.000]",0x100010,1.8950,2,0,-0.002829,0.002167,0.010587,0.0000,NO
38,1.9450,1.9450,0.0500,0.050,APPROACHING,0,970.42,922.44,905.66,9.08,-6.52,41.98,0.97042,0.92244,0.90566,0.15849,-0.11382,0.73276,-0.04347,-0.07276,-0.10074,0.01332,-0.07828,-0.30549,0.00000,0.00000,0.00000,0.00000,0.00000,0.00000,0.00000,0.00000,0.00000,0.00000,0.00000,0.00000,0.97042,0.92244,0.90566,-0.15849,0.11382,-0.73276,0.04347,0.07276,0.10074,-0.01332,0.07828,0.30549,0.0000,,,,0.0032,,,,,,"[1.000, 0.000, 0.000, 0.000, 1.000, 0.000]",0x100010,1.9450,2,0,-0.002761,0.002193,0.010400,0.0000,NO
39,1.9950,1.9950,0.0500,0.050,APPROACHING,0,968.20,918.78,900.55,9.22,-6.60,41.09,0.96820,0.91878,0.90055,0.16090,-0.11525,0.71712,-0.04538,-0.07393,-0.10348,0.01167,-0.07698,-0.29931,0.00000,0.00000,0.00000,0.00000,0.00000,0.00000,0.00000,0.00000,0.00000,0.00000,0.00000,0.00000,0.96820,0.91878,0.90055,-0.16090,0.11525,-0.71712,0.04538,0.07393,0.10348,-0.01167,0.07698,0.29931,0.0000,,,,0.0032,,,,,,"[1.000, 0.000, 0.000, 0.000, 1.000, 0.000]",0x100010,1.9950,2,0,-0.002695,0.002218,0.010215,0.0000,NO
40,2.0450,2.0450,0.0500,0.050,APPROACHING,0,965.88,915.05,895.31,9.35,-6.68,40.21,0.96588,0.91505,0.89531,0.16322,-0.11662,0.70178,-0.04731,-0.07505,-0.10622,0.01007,-0.07566,-0.29324,0.00000,0.00000,0.00000,0.00000,0.00000,0.00000,0.00000,0.00000,0.00000,0.00000,0.00000,0.00000,0.96588,0.91505,0.89531,-0.16322,0.11662,-0.70178,0.04731,0.07505,0.10622,-0.01007,0.07566,0.29324,0.0000,,,,0.0032,,,,,,"[1.000, 0.000, 0.000, 0.000, 1.000, 0.000]",0x100010,2.0450,2,0,-0.002629,0.002242,0.010031,0.0000,NO
41,2.0950,2.0950,0.0500,0.050,APPROACHING,0,963.47,911.27,889.93,9.48,-6.76,39.35,0.96347,0.91127,0.88993,0.16544,-0.11795,0.68674,-0.04926,-0.07614,-0.10896,0.00851,-0.07433,-0.28727,0.00000,0.00000,0.00000,0.00000,0.00000,0.00000,0.00000,0.00000,0.00000,0.00000,0.00000,0.00000,0.96347,0.91127,0.88993,-0.16544,0.11795,-0.68674,0.04926,0.07614,0.10896,-0.00851,0.07433,0.28727,0.0000,,,,0.0075,,,,,,"[1.000, 0.000, 1.000, 0.000, 1.000, 0.000]",0x101010,2.0950,3,1,-0.002983,0.002625,0.010011,0.0000,NO
42,2.1450,2.1450,0.0500,0.050,APPROACHING,0,961.00,907.39,884.41,9.60,-6.83,38.50,0.96100,0.90739,0.88441,0.16756,-0.11922,0.67201,-0.04964,-0.07909,-0.11212,0.00674,-0.07277,-0.28132,0.00000,0.00000,0.00000,0.00000,0.00000,0.00000,0.00000,0.00000,0.00000,0.00000,0.00000,0.00000,0.96100,0.90739,0.88441,-0.16756,0.11922,-0.67201,0.04964,0.07909,0.11212,-0.00674,0.07277,0.28132,0.0000,,,,0.0021,,,,,,"[1.000, 0.000, 1.000, 0.000, 1.000, 0.000]",0x101010,2.1450,3,0,-0.002172,0.001986,0.009520,0.0000,NO
43,2.1950,2.1950,0.0500,0.050,APPROACHING,0,958.50,903.36,878.72,9.72,-6.90,37.68,0.95850,0.90336,0.87872,0.16959,-0.12044,0.65758,-0.05005,-0.08202,-0.11528,0.00545,-0.07159,-0.27566,0.00000,0.00000,0.00000,0.00000,0.00000,0.00000,0.00000,0.00000,0.00000,0.00000,0.00000,0.00000,0.95850,0.90336,0.87872,-0.16959,0.12044,-0.65758,0.05005,0.08202,0.11528,-0.00545,0.07159,0.27566,0.0000,,,,0.0032,,,,,,"[1.000, 0.000, 1.000, 0.000, 1.000, 0.000]",0x101010,2.1950,3,0,-0.002754,0.002525,0.009600,0.0000,NO
44,2.2450,2.2450,0.0500,0.050,APPROACHING,0,955.99,899.19,872.88,9.83,-6.97,36.87,0.95599,0.89919,0.87288,0.17153,-0.12162,0.64343,-0.05051,-0.08493,-0.11845,0.00381,-0.07009,-0.26995,0.00000,0.00000,0.00000,0.00000,0.00000,0.00000,0.00000,0.00000,0.00000,0.00000,0.00000,0.00000,0.95599,0.89919,0.87288,-0.17153,0.12162,-0.64343,0.05051,0.08493,0.11845,-0.00381,0.07009,0.26995,0.0000,,,,0.0021,,,,,,"[1.000, 0.000, 1.000, 0.000, 1.000, 0.000]",0x101010,2.2450,3,0,-0.002198,0.002098,0.009202,0.0000,NO
45,2.2950,2.2950,0.0500,0.050,APPROACHING,0,953.45,894.87,866.88,9.93,-7.03,36.07,0.95345,0.89487,0.86688,0.17338,-0.12275,0.62957,-0.05102,-0.08783,-0.12162,0.00250,-0.06885,-0.26448,0.00000,0.00000,0.00000,0.00000,0.00000,0.00000,0.00000,0.00000,0.00000,0.00000,0.00000,0.00000,0.95345,0.89487,0.86688,-0.17338,0.12275,-0.62957,0.05102,0.08783,0.12162,-0.00250,0.06885,0.26448,0.0000,,,,0.0021,,,,,,"[1.000, 0.000, 1.000, 0.000, 1.000, 0.000]",0x101010,2.2950,3,0,-0.002560,0.002448,0.009200,0.0000,NO
46,2.3450,2.3450,0.0500,0.050,APPROACHING,0,950.89,890.41,860.72,10.03,-7.10,35.29,0.95089,0.89041,0.86072,0.17514,-0.12383,0.61598,-0.05156,-0.09072,-0.12480,0.00098,-0.06739,-0.25901,0.00000,0.00000,0.00000,0.00000,0.00000,0.00000,0.00000,0.00000,0.00000,0.00000,0.00000,0.00000,0.95089,0.89041,0.86072,-0.17514,0.12383,-0.61598,0.05156,0.09072,0.12480,-0.00098,0.06739,0.25901,0.0000,,,,0.0033,,,,,,"[1.000, 0.000, 1.000, 0.000, 1.000, 0.000]",0x101010,2.3450,3,0,-0.002241,0.002219,0.008907,0.0000,NO
47,2.3950,2.3950,0.0500,0.050,APPROACHING,0,948.29,885.80,854.40,10.13,-7.15,34.53,0.94829,0.88580,0.85440,0.17680,-0.12487,0.60268,-0.05214,-0.09359,-0.12799,-0.00035,-0.06607,-0.25372,0.00000,0.00000,0.00000,0.00000,0.00000,0.00000,0.00000,0.00000,0.00000,0.00000,0.00000,0.00000,0.94829,0.88580,0.85440,-0.17680,0.12487,-0.60268,0.05214,0.09359,0.12799,0.00035,0.06607,0.25372,0.0000,,,,0.0021,,,,,,"[1.000, 0.000, 1.000, 0.000, 1.000, 0.000]",0x101010,2.3950,3,0,-0.002375,0.002374,0.008806,0.0000,NO
48,2.4450,2.4450,0.0500,0.050,APPROACHING,0,945.67,881.05,847.92,10.22,-7.21,33.78,0.94567,0.88105,0.84792,0.17838,-0.12587,0.58964,-0.05275,-0.09645,-0.13118,-0.00176,-0.06466,-0.24848,0.00000,0.00000,0.00000,0.00000,0.00000,0.00000,0.00000,0.00000,0.00000,0.00000,0.00000,0.00000,0.94567,0.88105,0.84792,-0.17838,0.12587,-0.58964,0.05275,0.09645,0.13118,0.00176,0.06466,0.24848,0.0000,,,,0.0021,,,,,,"[1.000, 0.000, 1.000, 0.000, 1.000, 0.000]",0x101010,2.4450,3,0,-0.002224,0.002285,0.008591,0.0000,NO
49,2.4950,2.4950,0.0500,0.050,APPROACHING,0,943.02,876.15,841.28,10.31,-7.27,33.05,0.94302,0.87615,0.84128,0.17987,-0.12683,0.57687,-0.05341,-0.09930,-0.13438,-0.00309,-0.06331,-0.24337,0.00000,0.00000,0.00000,0.00000,0.00000,0.00000,0.00000,0.00000,0.00000,0.00000,0.00000,0.00000,0.94302,0.87615,0.84128,-0.17987,0.12683,-0.57687,0.05341,0.09930,0.13438,0.00309,0.06331,0.24337,0.0000,,,,0.0051,,,,,,"[1.000, 0.000, 1.000, 0.000, 1.000, 0.000]",0x101010,2.4950,3,0,-0.002294,0.002382,0.008467,0.0000,NO
50,2.5450,2.5450,0.0500,0.050,APPROACHING,0,940.33,871.12,834.48,10.39,-7.32,32.34,0.94033,0.87112,0.83448,0.18127,-0.12775,0.56436,-0.05409,-0.10213,-0.13758,-0.00445,-0.06189,-0.23834,0.00000,0.00000,0.00000,0.00000,0.00000,0.00000,0.00000,0.00000,0.00000,0.00000,0.00000,0.00000,0.94033,0.87112,0.83448,-0.18127,0.12775,-0.56436,0.05409,0.10213,0.13758,0.00445,0.06189,0.23834,0.0000,,,,0.0021,,,,,,"[1.000, 0.000, 1.000, 0.000, 1.000, 0.000]",0x101010,2.5450,3,0,-0.002128,0.002279,0.008247,0.0000,NO
51,2.5950,2.5950,0.0500,0.050,APPROACHING,0,937.61,865.94,827.52,10.46,-7.37,31.63,0.93761,0.86594,0.82752,0.18258,-0.12862,0.55210,-0.05482,-0.10495,-0.14079,-0.00572,-0.06054,-0.23343,0.00000,0.00000,0.00000,0.00000,0.00000,0.00000,0.00000,0.00000,0.00000,0.00000,0.00000,0.00000,0.93761,0.86594,0.82752,-0.18258,0.12862,-0.55210,0.05482,0.10495,0.14079,0.00572,0.06054,0.23343,0.0000,,,,0.0034,,,,,,"[1.000, 0.000, 1.000, 0.000, 1.000, 0.000]",0x101010,2.5950,3,0,-0.002234,0.002403,0.008142,0.0000,NO
52,2.6450,2.6450,0.0500,0.050,APPROACHING,0,934.85,860.62,820.40,10.53,-7.42,30.95,0.93485,0.86062,0.82040,0.18381,-0.12946,0.54010,-0.05557,-0.10776,-0.14400,-0.00704,-0.05911,-0.22859,0.00000,0.00000,0.00000,0.00000,0.00000,0.00000,0.00000,0.00000,0.00000,0.00000,0.00000,0.00000,0.93485,0.86062,0.82040,-0.18381,0.12946,-0.54010,0.05557,0.10776,0.14400,0.00704,0.05911,0.22859,0.0000,,,,0.0032,,,,,,"[1.000, 0.000, 1.000, 0.000, 1.000, 0.000]",0x101010,2.6450,3,0,-0.002066,0.002296,0.007926,0.0000,NO
53,2.6950,2.6950,0.0500,0.050,APPROACHING,0,932.05,855.17,813.12,10.60,-7.46,30.27,0.93205,0.85517,0.81312,0.18495,-0.13026,0.52835,-0.05636,-0.11055,-0.14721,-0.00827,-0.05774,-0.22388,0.00000,0.00000,0.00000,0.00000,0.00000,0.00000,0.00000,0.00000,0.00000,0.00000,0.00000,0.00000,0.93205,0.85517,0.81312,-0.18495,0.13026,-0.52835,0.05636,0.11055,0.14721,0.00827,0.05774,0.22388,0.0000,,,,0.0022,,,,,,"[1.000, 0.000, 1.000, 0.000, 1.000, 0.000]",0x101010,2.6950,3,0,-0.002114,0.002370,0.007803,0.0000,NO
54,2.7450,2.7450,0.0500,0.050,APPROACHING,0,929.21,849.57,805.68,10.66,-7.51,29.61,0.92921,0.84957,0.80568,0.18600,-0.13102,0.51684,-0.05718,-0.11333,-0.15043,-0.00953,-0.05634,-0.21924,0.00000,0.00000,0.00000,0.00000,0.00000,0.00000,0.00000,0.00000,0.00000,0.00000,0.00000,0.00000,0.92921,0.84957,0.80568,-0.18600,0.13102,-0.51684,0.05718,0.11333,0.15043,0.00953,0.05634,0.21924,0.0000,,,,0.0022,,,,,,"[1.000, 0.000, 1.000, 0.000, 1.000, 0.000]",0x101010,2.7450,3,0,-0.002038,0.002338,0.007627,0.0000,NO
55,2.7950,2.7950,0.0500,0.050,APPROACHING,0,926.33,843.83,798.08,10.71,-7.55,28.97,0.92633,0.84383,0.79808,0.18697,-0.13174,0.50556,-0.05804,-0.11609,-0.15365,-0.01074,-0.05495,-0.21471,0.00000,0.00000,0.00000,0.00000,0.00000,0.00000,0.00000,0.00000,0.00000,0.00000,0.00000,0.00000,0.92633,0.84383,0.79808,-0.18697,0.13174,-0.50556,0.05804,0.11609,0.15365,0.01074,0.05495,0.21471,0.0000,,,,0.0022,,,,,,"[1.000, 0.000, 1.000, 0.000, 1.000, 0.000]",0x101010,2.7950,3,0,-0.002037,0.002368,0.007487,0.0000,NO
56,2.8450,2.8450,0.0500,0.050,APPROACHING,0,923.41,837.96,790.31,10.76,-7.59,28.33,0.92341,0.83796,0.79031,0.18786,-0.13242,0.49452,-0.05892,-0.11884,-0.15688,-0.01195,-0.05354,-0.21026,0.00000,0.00000,0.00000,0.00000,0.00000,0.00000,0.00000,0.00000,0.00000,0.00000,0.00000,0.00000,0.92341,0.83796,0.79031,-0.18786,0.13242,-0.49452,0.05892,0.11884,0.15688,0.01195,0.05354,0.21026,0.0000,,,,0.0032,,,,,,"[1.000, 0.000, 1.000, 0.000, 1.000, 0.000]",0x101010,2.8450,3,0,-0.002006,0.002372,0.007331,0.0000,NO
57,2.8950,2.8950,0.0500,0.050,APPROACHING,0,920.44,831.95,782.39,10.81,-7.62,27.71,0.92044,0.83195,0.78239,0.18866,-0.13307,0.48371,-0.05983,-0.12158,-0.16011,-0.01314,-0.05213,-0.20590,0.00000,0.00000,0.00000,0.00000,0.00000,0.00000,0.00000,0.00000,0.00000,0.00000,0.00000,0.00000,0.92044,0.83195,0.78239,-0.18866,0.13307,-0.48371,0.05983,0.12158,0.16011,0.01314,0.05213,0.20590,0.0000,,,,0.0021,,,,,,"[1.000, 0.000, 1.000, 0.000, 1.000, 0.000]",0x101010,2.8950,3,0,-0.001925,0.002335,0.007171,0.0000,NO
58,2.9450,2.9450,0.0500,0.050,APPROACHING,0,917.42,825.80,774.30,10.85,-7.66,27.11,0.91742,0.82580,0.77430,0.18938,-0.13368,0.47313,-0.06077,-0.12430,-0.16334,-0.01429,-0.05074,-0.20163,0.00000,0.00000,0.00000,0.00000,0.00000,0.00000,0.00000,0.00000,0.00000,0.00000,0.00000,0.00000,0.91742,0.82580,0.77430,-0.18938,0.13368,-0.47313,0.06077,0.12430,0.16334,0.01429,0.05074,0.20163,0.0000,,,,0.0041,,,,,,"[1.000, 0.000, 1.000, 0.000, 1.000, 0.000]",0x101010,2.9450,3,0,-0.001980,0.002408,0.007045,0.0000,NO
59,2.9950,2.9950,0.0500,0.050,APPROACHING,0,914.36,819.52,766.05,10.89,-7.69,26.51,0.91436,0.81952,0.76605,0.19002,-0.13426,0.46277,-0.06173,-0.12702,-0.16657,-0.01547,-0.04931,-0.19744,0.00000,0.00000,0.00000,0.00000,0.00000,0.00000,0.00000,0.00000,0.00000,0.00000,0.00000,0.00000,0.91436,0.81952,0.76605,-0.19002,0.13426,-0.46277,0.06173,0.12702,0.16657,0.01547,0.04931,0.19744,0.0000,,,,0.0031,,,,,,"[1.000, 0.000, 1.000, 0.000, 1.000, 0.000]",0x101010,2.9950,3,0,-0.001857,0.002334,0.006878,0.0000,NO
60,3.0450,3.0450,0.0500,0.050,APPROACHING,0,911.25,813.10,757.64,10.92,-7.72,25.93,0.91125,0.81310,0.75764,0.19058,-0.13480,0.45262,-0.06273,-0.12972,-0.16981,-0.01657,-0.04792,-0.19336,0.00000,0.00000,0.00000,0.00000,0.00000,0.00000,0.00000,0.00000,0.00000,0.00000,0.00000,0.00000,0.91125,0.81310,0.75764,-0.19058,0.13480,-0.45262,0.06273,0.12972,0.16981,0.01657,0.04792,0.19336,0.0000,,,,0.0022,,,,,,"[1.000, 0.000, 1.000, 0.000, 1.000, 0.000]",0x101010,3.0450,3,0,-0.001876,0.002376,0.006748,0.0000,NO
61,3.0950,3.0950,0.0500,0.050,APPROACHING,0,908.09,806.55,749.07,10.95,-7.75,25.36,0.90809,0.80655,0.74907,0.19106,-0.13530,0.44269,-0.06374,-0.13240,-0.17305,-0.01769,-0.04651,-0.18934,0.00000,0.00000,0.00000,0.00000,0.00000,0.00000,0.00000,0.00000,0.00000,0.00000,0.00000,0.00000,0.90809,0.80655,0.74907,-0.19106,0.13530,-0.44269,0.06374,0.13240,0.17305,0.01769,0.04651,0.18934,0.0000,,,,0.0032,,,,,,"[1.000, 0.000, 1.000, 0.000, 1.000, 0.000]",0x101010,3.0950,3,0,-0.001861,0.002389,0.006610,0.0000,NO
62,3.1450,3.1450,0.0500,0.050,APPROACHING,0,904.88,799.86,740.34,10.97,-7.78,24.81,0.90488,0.79986,0.74034,0.19147,-0.13577,0.43297,-0.06479,-0.13508,-0.17629,-0.01879,-0.04509,-0.18541,0.00000,0.00000,0.00000,0.00000,0.00000,0.00000,0.00000,0.00000,0.00000,0.00000,0.00000,0.00000,0.90488,0.79986,0.74034,-0.19147,0.13577,-0.43297,0.06479,0.13508,0.17629,0.01879,0.04509,0.18541,0.0000,,,,0.0021,,,,,,"[1.000, 0.000, 1.000, 0.000, 1.000, 0.000]",0x101010,3.1450,3,0,-0.001770,0.002339,0.006461,0.0000,NO
63,3.1950,3.1950,0.0500,0.050,APPROACHING,0,901.61,793.04,731.44,10.99,-7.80,24.26,0.90161,0.79304,0.73144,0.19179,-0.13620,0.42345,-0.06586,-0.13774,-0.17953,-0.01985,-0.04370,-0.18157,0.00000,0.00000,0.00000,0.00000,0.00000,0.00000,0.00000,0.00000,0.00000,0.00000,0.00000,0.00000,0.90161,0.79304,0.73144,-0.19179,0.13620,-0.42345,0.06586,0.13774,0.17953,0.01985,0.04370,0.18157,0.0000,,,,0.0021,,,,,,"[1.000, 0.000, 1.000, 0.000, 1.000, 0.000]",0x101010,3.1950,3,0,-0.001813,0.002399,0.006340,0.0000,NO
64,3.2450,3.2450,0.0500,0.050,APPROACHING,0,898.29,786.09,722.39,11.00,-7.83,23.73,0.89829,0.78609,0.72239,0.19204,-0.13660,0.41413,-0.06695,-0.14039,-0.18278,-0.02092,-0.04228,-0.17780,0.00000,0.00000,0.00000,0.00000,0.00000,0.00000,0.00000,0.00000,0.00000,0.00000,0.00000,0.00000,0.89829,0.78609,0.72239,-0.19204,0.13660,-0.41413,0.06695,0.14039,0.18278,0.02092,0.04228,0.17780,0.0000,,,,0.0033,,,,,,"[1.000, 0.000, 1.000, 0.000, 1.000, 0.000]",0x101010,3.2450,3,0,-0.001762,0.002382,0.006203,0.0000,NO
65,3.2950,3.2950,0.0500,0.050,APPROACHING,0,894.91,779.00,713.17,11.01,-7.85,23.21,0.89491,0.77900,0.71317,0.19221,-0.13696,0.40502,-0.06807,-0.14304,-0.18602,-0.02197,-0.04086,-0.17411,0.00000,0.00000,0.00000,0.00000,0.00000,0.00000,0.00000,0.00000,0.00000,0.00000,0.00000,0.00000,0.89491,0.77900,0.71317,-0.19221,0.13696,-0.40502,0.06807,0.14304,0.18602,0.02197,0.04086,0.17411,0.0000,,,,0.0021,,,,,,"[1.000, 0.000, 1.000, 0.000, 1.000, 0.000]",0x101010,3.2950,3,0,-0.001699,0.002352,0.006068,0.0000,NO
66,3.3450,3.3450,0.0500,0.050,APPROACHING,0,891.48,771.78,703.78,11.02,-7.87,22.69,0.89148,0.77178,0.70378,0.19230,-0.13728,0.39609,-0.06921,-0.14567,-0.18927,-0.02298,-0.03946,-0.17051,0.00000,0.00000,0.00000,0.00000,0.00000,0.00000,0.00000,0.00000,0.00000,0.00000,0.00000,0.00000,0.89148,0.77178,0.70378,-0.19230,0.13728,-0.39609,0.06921,0.14567,0.18927,0.02298,0.03946,0.17051,0.0000,,,,0.0022,,,,,,"[1.000, 0.000, 1.000, 0.000, 1.000, 0.000]",0x101010,3.3450,3,0,-0.001725,0.002397,0.005949,0.0000,NO
67,3.3950,3.3950,0.0500,0.050,APPROACHING,0,887.99,764.43,694.24,11.02,-7.88,22.19,0.88799,0.76443,0.69424,0.19233,-0.13757,0.38736,-0.07037,-0.14828,-0.19251,-0.02401,-0.03804,-0.16697,0.00000,0.00000,0.00000,0.00000,0.00000,0.00000,0.00000,0.00000,0.00000,0.00000,0.00000,0.00000,0.88799,0.76443,0.69424,-0.19233,0.13757,-0.38736,0.07037,0.14828,0.19251,0.02401,0.03804,0.16697,0.0000,,,,0.0032,,,,,,"[1.000, 0.000, 1.000, 0.000, 1.000, 0.000]",0x101010,3.3950,3,0,-0.001690,0.002391,0.005822,0.0000,NO
68,3.4450,3.4450,0.0500,0.050,APPROACHING,0,884.45,756.95,684.53,11.02,-7.90,21.70,0.88445,0.75695,0.68453,0.19227,-0.13782,0.37881,-0.07155,-0.15089,-0.19576,-0.02501,-0.03662,-0.16351,0.00000,0.00000,0.00000,0.00000,0.00000,0.00000,0.00000,0.00000,0.00000,0.00000,0.00000,0.00000,0.88445,0.75695,0.68453,-0.19227,0.13782,-0.37881,0.07155,0.15089,0.19576,0.02501,0.03662,0.16351,0.0000,,,,0.0021,,,,,,"[1.000, 0.000, 0.982, 0.000, 1.000, 0.000]",0x101010,3.4450,3,1,-0.001615,0.002349,0.005693,0.0000,NO
69,3.4950,3.4950,0.0500,0.050,APPROACHING,0,880.84,749.34,674.66,11.01,-7.91,21.22,0.88084,0.74934,0.67466,0.19215,-0.13804,0.37045,-0.07276,-0.15349,-0.19901,-0.02597,-0.03522,-0.16012,0.00000,0.00000,0.00000,0.00000,0.00000,0.00000,0.00000,0.00000,0.00000,0.00000,0.00000,0.00000,0.88084,0.74934,0.67466,-0.19215,0.13804,-0.37045,0.07276,0.15349,0.19901,0.02597,0.03522,0.16012,0.0000,,,,0.0042,,,,,,"[1.000, 0.000, 1.000, 0.000, 1.000, 0.000]",0x101010,3.4950,3,1,-0.001685,0.002431,0.005586,0.0000,NO
70,3.5450,3.5450,0.0500,0.050,APPROACHING,0,877.17,741.61,664.63,11.00,-7.92,20.76,0.87717,0.74161,0.66463,0.19195,-0.13822,0.36226,-0.07399,-0.15608,-0.20225,-0.02698,-0.03378,-0.15680,0.00000,0.00000,0.00000,0.00000,0.00000,0.00000,0.00000,0.00000,0.00000,0.00000,0.00000,0.00000,0.87717,0.74161,0.66463,-0.19195,0.13822,-0.36226,0.07399,0.15608,0.20225,0.02698,0.03378,0.15680,0.0000,,,,0.0032,,,,,,"[1.000, 0.000, 1.000, 0.000, 1.000, 0.000]",0x101010,3.5450,3,0,-0.001557,0.002344,0.005454,0.0000,NO
71,3.5950,3.5950,0.0500,0.050,APPROACHING,0,873.44,733.74,654.44,10.98,-7.93,20.30,0.87344,0.73374,0.65444,0.19169,-0.13837,0.35425,-0.07523,-0.15866,-0.20550,-0.02790,-0.03239,-0.15356,0.00000,0.00000,0.00000,0.00000,0.00000,0.00000,0.00000,0.00000,0.00000,0.00000,0.00000,0.00000,0.87344,0.73374,0.65444,-0.19169,0.13837,-0.35425,0.07523,0.15866,0.20550,0.02790,0.03239,0.15356,0.0000,,,,0.0021,,,,,,"[1.000, 0.000, 1.000, 0.000, 0.628, 0.000]",0x101010,3.5950,3,1,-0.001586,0.002389,0.005347,0.0000,NO
72,3.6450,3.6450,0.0500,0.050,APPROACHING,0,869.65,725.74,644.08,10.96,-7.93,19.85,0.86965,0.72574,0.64408,0.19135,-0.13847,0.34642,-0.07650,-0.16123,-0.20875,-0.02884,-0.03097,-0.15038,0.00000,0.00000,0.00000,0.00000,0.00000,0.00000,0.00000,0.00000,0.00000,0.00000,0.00000,0.00000,0.86965,0.72574,0.64408,-0.19135,0.13847,-0.34642,0.07650,0.16123,0.20875,0.02884,0.03097,0.15038,0.0000,,,,0.0032,,,,,,"[1.000, 0.000, 1.000, 0.000, 0.000, 0.000]",0x101000,3.6450,2,1,-0.001580,0.002407,0.005234,0.0000,NO
73,3.6950,3.6950,0.0500,0.050,APPROACHING,0,865.78,717.60,633.62,10.94,-7.94,19.41,0.86578,0.71760,0.63362,0.19094,-0.13855,0.33875,-0.07794,-0.16435,-0.20956,-0.02978,-0.02953,-0.14727,0.00000,0.00000,0.00000,0.00000,0.00000,0.00000,0.00000,0.00000,0.00000,0.00000,0.00000,0.00000,0.86578,0.71760,0.63362,-0.19094,0.13855,-0.33875,0.07794,0.16435,0.20956,0.02978,0.02953,0.14727,0.0000,,,,0.0021,,,,,,"[1.000, 0.000, 1.000, 0.000, 0.000, 0.000]",0x101000,3.6950,2,0,-0.001467,0.002321,0.005120,0.0000,NO
74,3.7450,3.7450,0.0500,0.050,APPROACHING,0,861.85,709.30,623.13,10.91,-7.94,18.98,0.86185,0.70930,0.62313,0.19047,-0.13858,0.33125,-0.07941,-0.16746,-0.21038,-0.03066,-0.02816,-0.14422,0.00000,0.00000,0.00000,0.00000,0.00000,0.00000,0.00000,0.00000,0.00000,0.00000,0.00000,0.00000,0.86185,0.70930,0.62313,-0.19047,0.13858,-0.33125,0.07941,0.16746,0.21038,0.03066,0.02816,0.14422,0.0000,,,,0.0023,,,,,,"[1.000, 0.000, 0.856, 0.000, 0.000, 0.000]",0x101000,3.7450,2,1,-0.001508,0.002368,0.005023,0.0000,NO
75,3.7950,3.7950,0.0500,0.050,APPROACHING,0,857.84,700.85,612.59,10.88,-7.94,18.56,0.85784,0.70085,0.61259,0.18992,-0.13858,0.32391,-0.08090,-0.17056,-0.21119,-0.03155,-0.02675,-0.14124,0.00000,0.00000,0.00000,0.00000,0.00000,0.00000,0.00000,0.00000,0.00000,0.00000,0.00000,0.00000,0.85784,0.70085,0.61259,-0.18992,0.13858,-0.32391,0.08090,0.17056,0.21119,0.03155,0.02675,0.14124,0.0000,,,,0.0021,,,,,,"[1.000, 0.000, 0.346, 0.000, 0.000, 0.000]",0x100000,3.7950,2,1,-0.001411,0.002294,0.004914,0.0000,NO
76,3.8450,3.8450,0.0500,0.050,APPROACHING,0,853.76,692.25,602.01,10.85,-7.94,18.15,0.85376,0.69225,0.60201,0.18932,-0.13854,0.31673,-0.08242,-0.17365,-0.21201,-0.03239,-0.02538,-0.13832,0.00000,0.00000,0.00000,0.00000,0.00000,0.00000,0.00000,0.00000,0.00000,0.00000,0.00000,0.00000,0.85376,0.69225,0.60201,-0.18932,0.13854,-0.31673,0.08242,0.17365,0.21201,0.03239,0.02538,0.13832,0.0000,,,,0.0021,,,,,,"[1.000, 0.000, 0.000, 0.000, 0.000, 0.000]",0x100000,3.8450,1,1,-0.001415,0.002308,0.004817,0.0000,NO
77,3.8950,3.8950,0.0500,0.050,APPROACHING,0,849.58,683.55,591.40,10.81,-7.93,17.75,0.84958,0.68355,0.59140,0.18865,-0.13847,0.30971,-0.08477,-0.17442,-0.21235,-0.03323,-0.02401,-0.13545,0.00000,0.00000,0.00000,0.00000,0.00000,0.00000,0.00000,0.00000,0.00000,0.00000,0.00000,0.00000,0.84958,0.68355,0.59140,-0.18865,0.13847,-0.30971,0.08477,0.17442,0.21235,0.03323,0.02401,0.13545,0.0000,,,,0.0022,,,,,,"[1.000, 0.000, 0.000, 0.000, 0.000, 0.000]",0x100000,3.8950,1,0,-0.001331,0.002263,0.004716,0.0000,NO
78,3.9450,3.9450,0.0500,0.050,APPROACHING,0,845.28,674.81,580.77,10.77,-7.93,17.35,0.84528,0.67481,0.58077,0.18791,-0.13836,0.30284,-0.08713,-0.17516,-0.21270,-0.03403,-0.02267,-0.13265,0.00000,0.00000,0.00000,0.00000,0.00000,0.00000,0.00000,0.00000,0.00000,0.00000,0.00000,0.00000,0.84528,0.67481,0.58077,-0.18791,0.13836,-0.30284,0.08713,0.17516,0.21270,0.03403,0.02267,0.13265,0.0000,,,,0.0021,,,,,,"[1.000, 0.000, 0.000, 0.000, 0.000, 0.000]",0x100000,3.9450,1,0,-0.001300,0.002266,0.004622,0.0000,NO
79,3.9950,3.9950,0.0500,0.050,APPROACHING,0,840.87,666.03,570.13,10.72,-7.92,16.97,0.84087,0.66603,0.57013,0.18712,-0.13822,0.29613,-0.08950,-0.17589,-0.21304,-0.03480,-0.02132,-0.12990,0.00000,0.00000,0.00000,0.00000,0.00000,0.00000,0.00000,0.00000,0.00000,0.00000,0.00000,0.00000,0.84087,0.66603,0.57013,-0.18712,0.13822,-0.29613,0.08950,0.17589,0.21304,0.03480,0.02132,0.12990,0.0000,,,,0.0021,,,,,,"[1.000, 0.000, 0.000, 0.000, 0.000, 0.000]",0x100000,3.9950,1,0,-0.001233,0.002234,0.004526,0.0000,NO
80,4.0450,4.0450,0.0500,0.050,APPROACHING,0,836.33,657.22,559.47,10.67,-7.91,16.59,0.83633,0.65722,0.55947,0.18626,-0.13804,0.28956,-0.09187,-0.17661,-0.21338,-0.03553,-0.01999,-0.12721,0.00000,0.00000,0.00000,0.00000,0.00000,0.00000,0.00000,0.00000,0.00000,0.00000,0.00000,0.00000,0.83633,0.65722,0.55947,-0.18626,0.13804,-0.28956,0.09187,0.17661,0.21338,0.03553,0.01999,0.12721,0.0000,,,,0.0021,,,,,,"[1.000, 0.000, 0.000, 0.000, 0.000, 0.000]",0x100000,4.0450,1,0,-0.001194,0.002227,0.004434,0.0000,NO
81,4.0950,4.0950,0.0500,0.050,APPROACHING,0,831.68,648.37,548.79,10.62,-7.90,16.22,0.83168,0.64837,0.54879,0.18535,-0.13783,0.28313,-0.09424,-0.17731,-0.21373,-0.03624,-0.01867,-0.12457,0.00000,0.00000,0.00000,0.00000,0.00000,0.00000,0.00000,0.00000,0.00000,0.00000,0.00000,0.00000,0.83168,0.64837,0.54879,-0.18535,0.13783,-0.28313,0.09424,0.17731,0.21373,0.03624,0.01867,0.12457,0.0000,,,,0.0022,,,,,,"[1.000, 0.000, 0.000, 0.000, 0.000, 0.000]",0x100000,4.0950,1,0,-0.001137,0.002201,0.004343,0.0000,NO
82,4.1450,4.1450,0.0500,0.050,APPROACHING,0,826.91,639.49,538.09,10.56,-7.88,15.86,0.82691,0.63949,0.53809,0.18439,-0.13758,0.27685,-0.09662,-0.17800,-0.21407,-0.03692,-0.01736,-0.12199,0.00000,0.00000,0.00000,0.00000,0.00000,0.00000,0.00000,0.00000,0.00000,0.00000,0.00000,0.00000,0.82691,0.63949,0.53809,-0.18439,0.13758,-0.27685,0.09662,0.17800,0.21407,0.03692,0.01736,0.12199,0.0000,,,,0.0022,,,,,,"[1.000, 0.000, 0.000, 0.000, 0.000, 0.000]",0x100000,4.1450,1,0,-0.001096,0.002189,0.004255,0.0000,NO
83,4.1950,4.1950,0.0500,0.050,APPROACHING,0,822.02,630.57,527.38,10.51,-7.87,15.51,0.82202,0.63057,0.52738,0.18337,-0.13730,0.27070,-0.09901,-0.17867,-0.21441,-0.03757,-0.01606,-0.11946,0.00000,0.00000,0.00000,0.00000,0.00000,0.00000,0.00000,0.00000,0.00000,0.00000,0.00000,0.00000,0.82202,0.63057,0.52738,-0.18337,0.13730,-0.27070,0.09901,0.17867,0.21441,0.03757,0.01606,0.11946,0.0000,,,,0.0030,,,,,,"[1.000, 0.000, 0.000, 0.000, 0.000, 0.000]",0x100000,4.1950,1,0,-0.001045,0.002166,0.004167,0.0000,NO
84,4.2450,4.2450,0.0500,0.050,APPROACHING,0,817.01,621.62,516.65,10.44,-7.85,15.17,0.81701,0.62162,0.51665,0.18229,-0.13698,0.26469,-0.10140,-0.17932,-0.21476,-0.03819,-0.01477,-0.11698,0.00000,0.00000,0.00000,0.00000,0.00000,0.00000,0.00000,0.00000,0.00000,0.00000,0.00000,0.00000,0.81701,0.62162,0.51665,-0.18229,0.13698,-0.26469,0.10140,0.17932,0.21476,0.03819,0.01477,0.11698,0.0000,,,,0.0022,,,,,,"[1.000, 0.000, 0.000, 0.000, 0.000, 0.000]",0x100000,4.2450,1,0,-0.001004,0.002152,0.004083,0.0000,NO
85,4.2950,4.2950,0.0500,0.050,APPROACHING,0,811.88,612.64,505.91,10.38,-7.83,14.83,0.81188,0.61264,0.50591,0.18117,-0.13663,0.25882,-0.10379,-0.17996,-0.21510,-0.03879,-0.01350,-0.11456,0.00000,0.00000,0.00000,0.00000,0.00000,0.00000,0.00000,0.00000,0.00000,0.00000,0.00000,0.00000,0.81188,0.61264,0.50591,-0.18117,0.13663,-0.25882,0.10379,0.17996,0.21510,0.03879,0.01350,0.11456,0.0000,,,,0.0021,,,,,,"[1.000, 0.000, 0.000, 0.000, 0.000, 0.000]",0x100000,4.2950,1,0,-0.000957,0.002131,0.003998,0.0000,NO
86,4.3450,4.3450,0.0500,0.050,APPROACHING,0,806.63,603.63,495.14,10.31,-7.81,14.50,0.80663,0.60363,0.49514,0.18000,-0.13624,0.25307,-0.10618,-0.18059,-0.21544,-0.03936,-0.01223,-0.11218,0.00000,0.00000,0.00000,0.00000,0.00000,0.00000,0.00000,0.00000,0.00000,0.00000,0.00000,0.00000,0.80663,0.60363,0.49514,-0.18000,0.13624,-0.25307,0.10618,0.18059,0.21544,0.03936,0.01223,0.11218,0.0000,,,,0.0021,,,,,,"[1.000, 0.000, 0.000, 0.000, 0.000, 0.000]",0x100000,4.3450,1,0,-0.000916,0.002114,0.003917,0.0000,NO
87,4.3950,4.3950,0.0500,0.050,APPROACHING,0,801.26,594.58,484.36,10.24,-7.78,14.18,0.80126,0.59458,0.48436,0.17878,-0.13582,0.24745,-0.10858,-0.18120,-0.21578,-0.03990,-0.01097,-0.10985,0.00000,0.00000,0.00000,0.00000,0.00000,0.00000,0.00000,0.00000,0.00000,0.00000,0.00000,0.00000,0.80126,0.59458,0.48436,-0.17878,0.13582,-0.24745,0.10858,0.18120,0.21578,0.03990,0.01097,0.10985,0.0000,,,,0.0021,,,,,,"[1.000, 0.000, 0.000, 0.000, 0.000, 0.000]",0x100000,4.3950,1,0,-0.000873,0.002094,0.003836,0.0000,NO
88,4.4450,4.4450,0.0500,0.050,APPROACHING,0,795.77,585.50,473.57,10.17,-7.76,13.86,0.79577,0.58550,0.47357,0.17751,-0.13537,0.24196,-0.11099,-0.18181,-0.21611,-0.04042,-0.00973,-0.10757,0.00000,0.00000,0.00000,0.00000,0.00000,0.00000,0.00000,0.00000,0.00000,0.00000,0.00000,0.00000,0.79577,0.58550,0.47357,-0.17751,0.13537,-0.24196,0.11099,0.18181,0.21611,0.04042,0.00973,0.10757,0.0000,,,,0.0021,,,,,,"[1.000, 0.000, 0.000, 0.000, 0.000, 0.000]",0x100000,4.4450,1,0,-0.000833,0.002077,0.003758,0.0000,NO
89,4.4950,4.4950,0.0500,0.050,APPROACHING,0,790.16,576.40,462.75,10.10,-7.73,13.56,0.79016,0.57640,0.46275,0.17620,-0.13488,0.23659,-0.11339,-0.18239,-0.21645,-0.04092,-0.00849,-0.10534,0.00000,0.00000,0.00000,0.00000,0.00000,0.00000,0.00000,0.00000,0.00000,0.00000,0.00000,0.00000,0.79016,0.57640,0.46275,-0.17620,0.13488,-0.23659,0.11339,0.18239,0.21645,0.04092,0.00849,0.10534,0.0000,,,,0.0022,,,,,,"[1.000, 0.000, 0.000, 0.000, 0.000, 0.000]",0x100000,4.4950,1,0,-0.000793,0.002058,0.003681,0.0000,NO
90,4.5450,4.5450,0.0500,0.050,APPROACHING,0,784.43,567.27,451.92,10.02,-7.70,13.26,0.78443,0.56727,0.45192,0.17485,-0.13436,0.23134,-0.11580,-0.18297,-0.21679,-0.04139,-0.00727,-0.10315,0.00000,0.00000,0.00000,0.00000,0.00000,0.00000,0.00000,0.00000,0.00000,0.00000,0.00000,0.00000,0.78443,0.56727,0.45192,-0.17485,0.13436,-0.23134,0.11580,0.18297,0.21679,0.04139,0.00727,0.10315,0.0000,,,,0.0021,,,,,,"[1.000, 0.000, 0.000, 0.000, 0.000, 0.000]",0x100000,4.5450,1,0,-0.000754,0.002040,0.003606,0.0000,NO
91,4.5950,4.5950,0.0500,0.050,APPROACHING,0,778.58,558.10,441.07,9.94,-7.67,12.96,0.77858,0.55810,0.44107,0.17345,-0.13380,0.22621,-0.11822,-0.18353,-0.21712,-0.04184,-0.00606,-0.10100,0.00000,0.00000,0.00000,0.00000,0.00000,0.00000,0.00000,0.00000,0.00000,0.00000,0.00000,0.00000,0.77858,0.55810,0.44107,-0.17345,0.13380,-0.22621,0.11822,0.18353,0.21712,0.04184,0.00606,0.10100,0.0000,,,,0.0033,,,,,,"[1.000, 0.000, 0.000, 0.000, 0.000, 0.000]",0x100000,4.5950,1,0,-0.000744,0.002052,0.003534,0.0000,NO
92,4.6450,4.6450,0.0500,0.050,APPROACHING,0,772.61,548.91,430.21,9.86,-7.63,12.67,0.77261,0.54891,0.43021,0.17202,-0.13321,0.22120,-0.12063,-0.18408,-0.21745,-0.04228,-0.00484,-0.09890,0.00000,0.00000,0.00000,0.00000,0.00000,0.00000,0.00000,0.00000,0.00000,0.00000,0.00000,0.00000,0.77261,0.54891,0.43021,-0.17202,0.13321,-0.22120,0.12063,0.18408,0.21745,0.04228,0.00484,0.09890,0.0000,,,,0.0021,,,,,,"[1.000, 0.000, 0.000, 0.000, 0.000, 0.000]",0x100000,4.6450,1,0,-0.000631,0.001951,0.003456,0.0000,NO
93,4.6950,4.6950,0.0500,0.050,APPROACHING,0,766.52,539.70,419.33,9.77,-7.60,12.39,0.76652,0.53970,0.41933,0.17054,-0.13259,0.21630,-0.12305,-0.18462,-0.21778,-0.04266,-0.00368,-0.09685,0.00000,0.00000,0.00000,0.00000,0.00000,0.00000,0.00000,0.00000,0.00000,0.00000,0.00000,0.00000,0.76652,0.53970,0.41933,-0.17054,0.13259,-0.21630,0.12305,0.18462,0.21778,0.04266,0.00368,0.09685,0.0000,,,,0.0021,,,,,,"[1.000, 0.000, 0.000, 0.000, 0.000, 0.000]",0x100000,4.6950,1,0,-0.000677,0.002022,0.003392,0.0000,NO
94,4.7450,4.7450,0.0500,0.050,APPROACHING,0,760.30,530.45,408.43,9.68,-7.56,12.12,0.76030,0.53045,0.40843,0.16903,-0.13193,0.21151,-0.12547,-0.18515,-0.21811,-0.04306,-0.00248,-0.09483,0.00000,0.00000,0.00000,0.00000,0.00000,0.00000,0.00000,0.00000,0.00000,0.00000,0.00000,0.00000,0.76030,0.53045,0.40843,-0.16903,0.13193,-0.21151,0.12547,0.18515,0.21811,0.04306,0.00248,0.09483,0.0000,,,,0.0022,,,,,,"[1.000, 0.000, 0.000, 0.000, 0.000, 0.000]",0x100000,4.7450,1,0,-0.000582,0.001939,0.003318,0.0000,NO
95,4.7950,4.7950,0.0500,0.050,APPROACHING,0,753.97,521.18,397.52,9.60,-7.52,11.85,0.75397,0.52118,0.39752,0.16749,-0.13124,0.20682,-0.12790,-0.18566,-0.21844,-0.04341,-0.00132,-0.09286,0.00000,0.00000,0.00000,0.00000,0.00000,0.00000,0.00000,0.00000,0.00000,0.00000,0.00000,0.00000,0.75397,0.52118,0.39752,-0.16749,0.13124,-0.20682,0.12790,0.18566,0.21844,0.04341,0.00132,0.09286,0.0000,,,,0.0033,,,,,,"[1.000, 0.000, 0.000, 0.000, 0.000, 0.000]",0x100000,4.7950,1,0,-0.000620,0.002001,0.003256,0.0000,NO
96,4.8450,4.8450,0.0500,0.050,APPROACHING,0,747.51,511.89,386.59,9.51,-7.48,11.59,0.74751,0.51189,0.38659,0.16590,-0.13051,0.20225,-0.13032,-0.18616,-0.21877,-0.04377,-0.00014,-0.09092,0.00000,0.00000,0.00000,0.00000,0.00000,0.00000,0.00000,0.00000,0.00000,0.00000,0.00000,0.00000,0.74751,0.51189,0.38659,-0.16590,0.13051,-0.20225,0.13032,0.18616,0.21877,0.04377,0.00014,0.09092,0.0000,,,,0.0021,,,,,,"[1.000, 0.000, 0.000, 0.000, 0.000, 0.000]",0x100000,4.8450,1,0,-0.000477,0.001861,0.003181,0.0000,NO
97,4.8950,4.8950,0.0500,0.050,APPROACHING,0,740.94,502.56,375.64,9.41,-7.43,11.33,0.74094,0.50256,0.37564,0.16429,-0.12975,0.19778,-0.13275,-0.18666,-0.21909,-0.04406,0.00097,-0.08903,0.00000,0.00000,0.00000,0.00000,0.00000,0.00000,0.00000,0.00000,0.00000,0.00000,0.00000,0.00000,0.74094,0.50256,0.37564,-0.16429,0.12975,-0.19778,0.13275,0.18666,0.21909,0.04406,-0.00097,0.08903,0.0000,,,,0.0032,,,,,,"[1.000, 0.000, 0.000, 0.000, 0.000, 0.000]",0x100000,4.8950,1,0,-0.000579,0.001996,0.003126,0.0000,NO
98,4.9450,4.9450,0.0500,0.050,APPROACHING,0,734.24,493.22,364.68,9.32,-7.39,11.08,0.73424,0.49322,0.36468,0.16264,-0.12896,0.19341,-0.13518,-0.18714,-0.21942,-0.04440,0.00216,-0.08717,0.00000,0.00000,0.00000,0.00000,0.00000,0.00000,0.00000,0.00000,0.00000,0.00000,0.00000,0.00000,0.73424,0.49322,0.36468,-0.16264,0.12896,-0.19341,0.13518,0.18714,0.21942,0.04440,-0.00216,0.08717,0.0000,,,,0.0021,,,,,,"[1.000, 0.000, 0.000, 0.000, 0.000, 0.000]",0x100000,4.9450,1,0,-0.000392,0.001800,0.003051,0.0000,NO
99,4.9950,4.9950,0.0500,0.050,APPROACHING,0,727.42,483.85,353.70,9.22,-7.34,10.84,0.72742,0.48385,0.35370,0.16096,-0.12813,0.18914,-0.13762,-0.18761,-0.21974,-0.04464,0.00323,-0.08536,0.00000,0.00000,0.00000,0.00000,0.00000,0.00000,0.00000,0.00000,0.00000,0.00000,0.00000,0.00000,0.72742,0.48385,0.35370,-0.16096,0.12813,-0.18914,0.13762,0.18761,0.21974,0.04464,-0.00323,0.08536,0.0000,,,,0.0032,,,,,,"[1.000, 0.000, 0.000, 0.000, 0.000, 0.000]",0x100000,4.9950,1,0,-0.000529,0.001979,0.003002,0.0000,NO
100,5.0450,5.0450,0.0500,0.050,APPROACHING,0,720.48,474.46,342.70,9.12,-7.29,10.60,0.72048,0.47446,0.34270,0.15925,-0.12727,0.18496,-0.14005,-0.18807,-0.22006,-0.04495,0.00440,-0.08357,0.00000,0.00000,0.00000,0.00000,0.00000,0.00000,0.00000,0.00000,0.00000,0.00000,0.00000,0.00000,0.72048,0.47446,0.34270,-0.15925,0.12727,-0.18496,0.14005,0.18807,0.22006,0.04495,-0.00440,0.08357,0.0000,,,,0.0022,,,,,,"[1.000, 0.000, 0.000, 0.000, 0.000, 0.000]",0x100000,5.0450,1,0,-0.000318,0.001750,0.002927,0.0000,NO
101,5.0950,5.0950,0.0500,0.050,APPROACHING,0,713.41,465.04,331.69,9.03,-7.24,10.36,0.71341,0.46504,0.33169,0.15752,-0.12637,0.18089,-0.14249,-0.18853,-0.22037,-0.04514,0.00544,-0.08183,0.00000,0.00000,0.00000,0.00000,0.00000,0.00000,0.00000,0.00000,0.00000,0.00000,0.00000,0.00000,0.71341,0.46504,0.33169,-0.15752,0.12637,-0.18089,0.14249,0.18853,0.22037,0.04514,-0.00544,0.08183,0.0000,,,,0.0032,,,,,,"[1.000, 0.000, 0.000, 0.000, 0.000, 0.000]",0x100000,5.0950,1,0,-0.000476,0.001956,0.002882,0.0000,NO
102,5.1450,5.1450,0.0500,0.050,APPROACHING,0,706.23,455.61,320.67,8.92,-7.19,10.14,0.70623,0.45561,0.32067,0.15575,-0.12544,0.17690,-0.14493,-0.18897,-0.22069,-0.04542,0.00661,-0.08012,0.00000,0.00000,0.00000,0.00000,0.00000,0.00000,0.00000,0.00000,0.00000,0.00000,0.00000,0.00000,0.70623,0.45561,0.32067,-0.15575,0.12544,-0.17690,0.14493,0.18897,0.22069,0.04542,-0.00661,0.08012,0.0000,,,,0.0030,,,,,,"[1.000, 0.000, 0.000, 0.000, 0.000, 0.000]",0x100000,5.1450,1,0,-0.000252,0.001705,0.002809,0.0000,NO
103,5.1950,5.1950,0.0500,0.050,APPROACHING,0,698.92,446.15,309.62,8.82,-7.13,9.91,0.69892,0.44615,0.30962,0.15396,-0.12448,0.17301,-0.14738,-0.18940,-0.22100,-0.04557,0.00762,-0.07845,0.00000,0.00000,0.00000,0.00000,0.00000,0.00000,0.00000,0.00000,0.00000,0.00000,0.00000,0.00000,0.69892,0.44615,0.30962,-0.15396,0.12448,-0.17301,0.14738,0.18940,0.22100,0.04557,-0.00762,0.07845,0.0000,,,,0.0021,,,,,,"[1.000, 0.000, 0.000, 0.000, 0.000, 0.000]",0x100000,5.1950,1,0,-0.000391,0.001893,0.002765,0.0000,NO
104,5.2450,5.2450,0.0500,0.050,APPROACHING,0,691.49,436.67,298.57,8.72,-7.08,9.69,0.69149,0.43667,0.29857,0.15215,-0.12349,0.16921,-0.14982,-0.18982,-0.22131,-0.04581,0.00875,-0.07680,0.00000,0.00000,0.00000,0.00000,0.00000,0.00000,0.00000,0.00000,0.00000,0.00000,0.00000,0.00000,0.69149,0.43667,0.29857,-0.15215,0.12349,-0.16921,0.14982,0.18982,0.22131,0.04581,-0.00875,0.07680,0.0000,,,,0.0021,,,,,,"[1.000, 0.000, 0.000, 0.000, 0.000, 0.000]",0x100000,5.2450,1,0,-0.000240,0.001728,0.002699,0.0000,NO
105,5.2950,5.2950,0.0500,0.050,APPROACHING,0,683.94,427.16,287.49,8.61,-7.02,9.48,0.68394,0.42716,0.28749,0.15031,-0.12246,0.16549,-0.15227,-0.19024,-0.22161,-0.04595,0.00977,-0.07520,0.00000,0.00000,0.00000,0.00000,0.00000,0.00000,0.00000,0.00000,0.00000,0.00000,0.00000,0.00000,0.68394,0.42716,0.28749,-0.15031,0.12246,-0.16549,0.15227,0.19024,0.22161,0.04595,-0.00977,0.07520,0.0000,,,,0.0031,,,,,,"[1.000, 0.000, 0.000, 0.000, 0.000, 0.000]",0x100000,5.2950,1,0,-0.000327,0.001855,0.002654,0.0000,NO
106,5.3450,5.3450,0.0500,0.050,APPROACHING,0,676.26,417.64,276.40,8.51,-6.96,9.27,0.67626,0.41764,0.27640,0.14845,-0.12139,0.16186,-0.15471,-0.19064,-0.22192,-0.04615,0.01088,-0.07362,0.00000,0.00000,0.00000,0.00000,0.00000,0.00000,0.00000,0.00000,0.00000,0.00000,0.00000,0.00000,0.67626,0.41764,0.27640,-0.14845,0.12139,-0.16186,0.15471,0.19064,0.22192,0.04615,-0.01088,0.07362,0.0000,,,,0.0021,,,,,,"[1.000, 0.000, 0.000, 0.000, 0.000, 0.000]",0x100000,5.3450,1,0,-0.000161,0.001663,0.002590,0.0000,NO
107,5.3950,5.3950,0.0500,0.050,APPROACHING,0,668.47,408.10,265.30,8.40,-6.89,9.07,0.66847,0.40810,0.26530,0.14657,-0.12029,0.15832,-0.15716,-0.19104,-0.22222,-0.04624,0.01186,-0.07208,0.00000,0.00000,0.00000,0.00000,0.00000,0.00000,0.00000,0.00000,0.00000,0.00000,0.00000,0.00000,0.66847,0.40810,0.26530,-0.14657,0.12029,-0.15832,0.15716,0.19104,0.22222,0.04624,-0.01186,0.07208,0.0000,,,,0.0021,,,,,,"[1.000, 0.000, 0.000, 0.000, 0.000, 0.000]",0x100000,5.3950,1,0,-0.000259,0.001808,0.002547,0.0000,NO
108,5.4450,5.4450,0.0500,0.050,APPROACHING,0,660.55,398.54,254.18,8.29,-6.83,8.87,0.66055,0.39854,0.25418,0.14467,-0.11916,0.15485,-0.15962,-0.19142,-0.22252,-0.04640,0.01294,-0.07057,0.00000,0.00000,0.00000,0.00000,0.00000,0.00000,0.00000,0.00000,0.00000,0.00000,0.00000,0.00000,0.66055,0.39854,0.25418,-0.14467,0.11916,-0.15485,0.15962,0.19142,0.22252,0.04640,-0.01294,0.07057,0.0000,,,,0.0021,,,,,,"[1.000, 0.000, 0.000, 0.000, 0.000, 0.000]",0x100000,5.4450,1,0,-0.000141,0.001676,0.002489,0.0000,NO
109,5.4950,5.4950,0.0500,0.050,APPROACHING,0,652.51,388.96,243.05,8.18,-6.76,8.68,0.65251,0.38896,0.24305,0.14274,-0.11800,0.15147,-0.16207,-0.19180,-0.22281,-0.04648,0.01394,-0.06909,0.00000,0.00000,0.00000,0.00000,0.00000,0.00000,0.00000,0.00000,0.00000,0.00000,0.00000,0.00000,0.65251,0.38896,0.24305,-0.14274,0.11800,-0.15147,0.16207,0.19180,0.22281,0.04648,-0.01394,0.06909,0.0000,,,,0.0021,,,,,,"[1.000, 0.000, 0.000, 0.000, 0.000, 0.000]",0x100000,5.4950,1,0,-0.000180,0.001745,0.002444,0.0000,NO
110,5.5450,5.5450,0.0500,0.050,APPROACHING,0,644.34,379.36,231.90,8.07,-6.69,8.49,0.64434,0.37936,0.23190,0.14080,-0.11680,0.14817,-0.16452,-0.19217,-0.22311,-0.04659,0.01497,-0.06763,0.00000,0.00000,0.00000,0.00000,0.00000,0.00000,0.00000,0.00000,0.00000,0.00000,0.00000,0.00000,0.64434,0.37936,0.23190,-0.14080,0.11680,-0.14817,0.16452,0.19217,0.22311,0.04659,-0.01497,0.06763,0.0000,,,,0.0032,,,,,,"[1.000, 0.000, 0.000, 0.000, 0.000, 0.000]",0x100000,5.5450,1,0,-0.000127,0.001702,0.002393,0.0000,NO
111,5.5950,5.5950,0.0500,0.050,APPROACHING,0,636.05,369.74,220.74,7.96,-6.62,8.30,0.63605,0.36974,0.22074,0.13885,-0.11557,0.14494,-0.16698,-0.19254,-0.22340,-0.04666,0.01598,-0.06621,0.00000,0.00000,0.00000,0.00000,0.00000,0.00000,0.00000,0.00000,0.00000,0.00000,0.00000,0.00000,0.63605,0.36974,0.22074,-0.13885,0.11557,-0.14494,0.16698,0.19254,0.22340,0.04666,-0.01598,0.06621,0.0000,,,,0.0021,,,,,,"[1.000, 0.000, 0.000, 0.000, 0.000, 0.000]",0x100000,5.5950,1,0,-0.000073,0.001640,0.002343,0.0000,NO
112,5.6450,5.6450,0.0500,0.050,APPROACHING,0,627.64,360.11,209.56,7.84,-6.55,8.12,0.62764,0.36011,0.20956,0.13687,-0.11430,0.14179,-0.16944,-0.19289,-0.22368,-0.04671,0.01696,-0.06482,0.00000,0.00000,0.00000,0.00000,0.00000,0.00000,0.00000,0.00000,0.00000,0.00000,0.00000,0.00000,0.62764,0.36011,0.20956,-0.13687,0.11430,-0.14179,0.16944,0.19289,0.22368,0.04671,-0.01696,0.06482,0.0000,,,,0.0021,,,,,,"[1.000, 0.000, 0.000, 0.000, 0.000, 0.000]",0x100000,5.6450,1,0,-0.000088,0.001691,0.002299,0.0000,NO
113,5.6950,5.6950,0.0500,0.050,APPROACHING,0,619.11,350.45,198.37,7.73,-6.47,7.95,0.61911,0.35045,0.19837,0.13489,-0.11300,0.13871,-0.17190,-0.19324,-0.22397,-0.04676,0.01796,-0.06345,0.00000,0.00000,0.00000,0.00000,0.00000,0.00000,0.00000,0.00000,0.00000,0.00000,0.00000,0.00000,0.61911,0.35045,0.19837,-0.13489,0.11300,-0.13871,0.17190,0.19324,0.22397,0.04676,-0.01796,0.06345,0.0000,,,,0.0033,,,,,,"[1.000, 0.000, 0.000, 0.000, 0.000, 0.000]",0x100000,5.6950,1,0,-0.000053,0.001664,0.002253,0.0000,NO
114,5.7450,5.7450,0.0500,0.050,APPROACHING,0,610.45,340.78,187.17,7.61,-6.40,7.78,0.61045,0.34078,0.18717,0.13289,-0.11167,0.13570,-0.17436,-0.19358,-0.22425,-0.04679,0.01895,-0.06211,0.00000,0.00000,0.00000,0.00000,0.00000,0.00000,0.00000,0.00000,0.00000,0.00000,0.00000,0.00000,0.61045,0.34078,0.18717,-0.13289,0.11167,-0.13570,0.17436,0.19358,0.22425,0.04679,-0.01895,0.06211,0.0000,,,,0.0022,,,,,,"[1.000, 0.000, 0.000, 0.000, 0.000, 0.000]",0x100000,5.7450,1,0,0.000013,0.001590,0.002204,0.0000,NO
115,5.7950,5.7950,0.0500,0.050,APPROACHING,0,601.67,331.09,175.95,7.50,-6.32,7.61,0.60167,0.33109,0.17595,0.13087,-0.11030,0.13277,-0.17682,-0.19391,-0.22452,-0.04678,0.01990,-0.06080,0.00000,0.00000,0.00000,0.00000,0.00000,0.00000,0.00000,0.00000,0.00000,0.00000,0.00000,0.00000,0.60167,0.33109,0.17595,-0.13087,0.11030,-0.13277,0.17682,0.19391,0.22452,0.04678,-0.01990,0.06080,0.0000,,,,0.0021,,,,,,"[1.000, 0.000, 0.000, 0.000, 0.000, 0.000]",0x100000,5.7950,1,0,-0.000010,0.001653,0.002165,0.0000,NO
