Time,Current_X,Current_Y,Current_Z,Current_Roll,Current_Pitch,Current_Yaw,Current_VX,Current_VY,Current_VZ,Current_WX,Current_WY,Current_WZ,Target_X,Target_Y,Target_Z,Target_Roll,Target_Pitch,Target_Yaw,Error_X,Error_Y,Error_Z,Error_Roll,Error_Pitch,Error_Yaw,Command_Vector,Thruster_1_Cmd,Thruster_1_Val,Thruster_2_Cmd,Thruster_2_Val,Thruster_3_Cmd,Thruster_3_Val,Thruster_4_Cmd,Thruster_4_Val,Thruster_5_Cmd,Thruster_5_Val,Thruster_6_Cmd,Thruster_6_Val
0.0050,1.00000,1.00000,1.00000,0.00000,0.00000,1.57080,0.00000,0.00000,0.00000,0.00000,0.00000,0.00000,0.00000,0.00000,0.00000,0.00000,0.00000,1.57080,-1.00000,-1.00000,-1.00000,0.00000,0.00000,0.00000,"[0.000, 0.000, 0.000, 0.000, 0.000, 0.000]",0.000,0.000,0.000,0.000,0.000,0.000,0.000,0.000,0.000,0.000,0.000,0.000
0.0100,1.00000,1.00000,1.00000,0.00000,0.00000,1.57080,0.00000,0.00000,0.00000,0.00000,0.00000,0.00000,0.00000,0.00000,0.00000,0.00000,0.00000,1.57080,-1.00000,-1.00000,-1.00000,0.00000,0.00000,0.00000,"[0.000, 0.000, 0.000, 0.000, 0.000, 0.000]",0.000,0.000,0.000,0.000,0.000,0.000,0.000,0.000,0.000,0.000,0.000,0.000
0.0150,1.00000,1.00000,1.00000,0.00000,0.00000,1.57080,0.00000,0.00000,0.00000,0.00000,0.00000,0.00000,0.00000,0.00000,0.00000,0.00000,0.00000,1.57080,-1.00000,-1.00000,-1.00000,0.00000,0.00000,0.00000,"[0.000, 0.000, 0.000, 0.000, 0.000, 0.000]",0.000,0.000,0.000,0.000,0.000,0.000,0.000,0.000,0.000,0.000,0.000,0.000
0.0200,1.00000,1.00000,1.00000,0.00000,0.00000,1.57080,0.00000,0.00000,0.00000,0.00000,0.00000,0.00000,0.00000,0.00000,0.00000,0.00000,0.00000,1.57080,-1.00000,-1.00000,-1.00000,0.00000,0.00000,0.00000,"[0.000, 0.000, 0.000, 0.000, 0.000, 0.000]",0.000,0.000,0.000,0.000,0.000,0.000,0.000,0.000,0.000,0.000,0.000,0.000
0.0250,1.00000,1.00000,1.00000,0.00000,0.00000,1.57080,0.00000,0.00000,0.00000,0.00000,0.00000,0.00000,0.00000,0.00000,0.00000,0.00000,0.00000,1.57080,-1.00000,-1.00000,-1.00000,0.00000,0.00000,0.00000,"[0.000, 0.000, 0.000, 0.000, 0.000, 0.000]",0.000,0.000,0.000,0.000,0.000,0.000,0.000,0.000,0.000,0.000,0.000,0.000
0.0300,1.00000,1.00000,1.00000,0.00000,0.00000,1.57080,0.00000,0.00000,0.00000,0.00000,0.00000,0.00000,0.00000,0.00000,0.00000,0.00000,0.00000,1.57080,-1.00000,-1.00000,-1.00000,0.00000,0.00000,0.00000,"[0.000, 0.000, 0.000, 0.000, 0.000, 0.000]",0.000,0.000,0.000,0.000,0.000,0.000,0.000,0.000,0.000,0.000,0.000,0.000
0.0350,1.00000,1.00000,1.00000,0.00000,0.00000,1.57080,0.00000,0.00000,0.00000,0.00000,0.00000,0.00000,0.00000,0.00000,0.00000,0.00000,0.00000,1.57080,-1.00000,-1.00000,-1.00000,0.00000,0.00000,0.00000,"[0.000, 0.000, 0.000, 0.000, 0.000, 0.000]",0.000,0.000,0.000,0.000,0.000,0.000,0.000,0.000,0.000,0.000,0.000,0.000
0.0400,1.00000,1.00000,1.00000,0.00000,0.00000,1.57080,0.00000,0.00000,0.00000,0.00000,0.00000,0.00000,0.00000,0.00000,0.00000,0.00000,0.00000,1.57080,-1.00000,-1.00000,-1.00000,0.00000,0.00000,0.00000,"[0.000, 0.000, 0.000, 0.000, 0.000, 0.000]",0.000,0.000,0.000,0.000,0.000,0.000,0.000,0.000,0.000,0.000,0.000,0.000
0.0450,1.00000,1.00000,1.00000,0.00000,0.00000,1.57080,0.00000,0.00000,0.00000,0.00000,0.00000,0.00000,0.00000,0.00000,0.00000,0.00000,0.00000,1.57080,-1.00000,-1.00000,-1.00000,0.00000,0.00000,0.00000,"[0.000, 0.000, 0.000, 0.000, 0.000, 0.000]",0.000,0.000,0.000,0.000,0.000,0.000,0.000,0.000,0.000,0.000,0.000,0.000
0.0500,1.00000,1.00000,1.00000,0.00005,-0.00005,1.57072,-0.00000,-0.00025,-0.00025,0.01925,-0.01925,-0.02973,0.00000,0.00000,0.00000,0.00000,0.00000,0.00000,-1.00000,-1.00000,-1.00000,-0.00005,0.00005,-1.57072,"[1.000, 0.000, 0.000, 0.000, 1.000, 0.000]",1.000,1.000,0.000,0.000,0.000,0.000,0.000,0.000,1.000,1.000,0.000,0.000
0.0550,1.00000,1.00000,1.00000,0.00019,-0.00019,1.57050,-0.00000,-0.00050,-0.00050,0.03850,-0.03850,-0.05945,0.00000,0.00000,0.00000,0.00000,0.00000,0.00000,-1.00000,-1.00000,-1.00000,-0.00019,0.00019,-1.57050,"[1.000, 0.000, 0.000, 0.000, 1.000, 0.000]",1.000,1.000,0.000,0.000,0.000,0.000,0.000,0.000,1.000,1.000,0.000,0.000
0.0600,1.00000,0.99999,0.99999,0.00043,-0.00043,1.57013,-0.00000,-0.00075,-0.00075,0.05775,-0.05775,-0.08918,0.00000,0.00000,0.00000,0.00000,0.00000,0.00000,-1.00000,-0.99999,-0.99999,-0.00043,0.00043,-1.57013,"[1.000, 0.000, 0.000, 0.000, 1.000, 0.000]",1.000,1.000,0.000,0.000,0.000,0.000,0.000,0.000,1.000,1.000,0.000,0.000
0.0650,1.00000,0.99999,0.99999,0.00077,-0.00077,1.56961,-0.00000,-0.00100,-0.00100,0.07699,-0.07699,-0.11891,0.00000,0.00000,0.00000,0.00000,0.00000,0.00000,-1.00000,-0.99999,-0.99999,-0.00077,0.00077,-1.56961,"[1.000, 0.000, 0.000, 0.000, 1.000, 0.000]",1.000,1.000,0.000,0.000,0.000,0.000,0.000,0.000,1.000,1.000,0.000,0.000
0.0700,1.00000,0.99998,0.99998,0.00120,-0.00120,1.56894,-0.00000,-0.00125,-0.00125,0.09624,-0.09624,-0.14863,0.00000,0.00000,0.00000,0.00000,0.00000,0.00000,-1.00000,-0.99998,-0.99998,-0.00120,0.00120,-1.56894,"[1.000, 0.000, 0.000, 0.000, 1.000, 0.000]",1.000,1.000,0.000,0.000,0.000,0.000,0.000,0.000,1.000,1.000,0.000,0.000
0.0750,1.00000,0.99998,0.99998,0.00173,-0.00173,1.56812,-0.00000,-0.00150,-0.00150,0.11549,-0.11549,-0.17836,0.00000,0.00000,0.00000,0.00000,0.00000,0.00000,-1.00000,-0.99998,-0.99998,-0.00173,0.00173,-1.56812,"[1.000, 0.000, 0.000, 0.000, 1.000, 0.000]",1.000,1.000,0.000,0.000,0.000,0.000,0.000,0.000,1.000,1.000,0.000,0.000
0.0800,1.00000,0.99997,0.99997,0.00236,-0.00235,1.56715,-0.00000,-0.00175,-0.00175,0.13474,-0.13474,-0.20809,0.00000,0.00000,0.00000,0.00000,0.00000,0.00000,-1.00000,-0.99997,-0.99997,-0.00236,0.00235,-1.56715,"[1.000, 0.000, 0.000, 0.000, 1.000, 0.000]",1.000,1.000,0.000,0.000,0.000,0.000,0.000,0.000,1.000,1.000,0.000,0.000
0.0850,1.00000,0.99996,0.99996,0.00309,-0.00307,1.56604,-0.00000,-0.00200,-0.00200,0.15399,-0.15399,-0.23781,0.00000,0.00000,0.00000,0.00000,0.00000,0.00000,-1.00000,-0.99996,-0.99996,-0.00309,0.00307,-1.56604,"[1.000, 0.000, 0.000, 0.000, 1.000, 0.000]",1.000,1.000,0.000,0.000,0.000,0.000,0.000,0.000,1.000,1.000,0.000,0.000
0.0900,1.00000,0.99995,0.99995,0.00391,-0.00389,1.56477,-0.00001,-0.00225,-0.00225,0.17324,-0.17324,-0.26754,0.00000,0.00000,0.00000,0.00000,0.00000,0.00000,-1.00000,-0.99995,-0.99995,-0.00391,0.00389,-1.56477,"[1.000, 0.000, 0.000, 0.000, 1.000, 0.000]",1.000,1.000,0.000,0.000,0.000,0.000,0.000,0.000,1.000,1.000,0.000,0.000
0.0950,1.00000,0.99994,0.99994,0.00483,-0.00479,1.56335,-0.00001,-0.00250,-0.00250,0.19249,-0.19249,-0.29727,0.00000,0.00000,0.00000,0.00000,0.00000,0.00000,-1.00000,-0.99994,-0.99994,-0.00483,0.00479,-1.56335,"[1.000, 0.000, 0.000, 0.000, 1.000, 0.000]",1.000,1.000,0.000,0.000,0.000,0.000,0.000,0.000,1.000,1.000,0.000,0.000
0.1000,1.00000,0.99992,0.99992,0.00576,-0.00571,1.56179,-0.00001,-0.00275,-0.00275,0.17620,-0.17679,-0.32694,0.00000,0.00000,0.00000,0.00000,0.00000,0.00000,-1.00000,-0.99992,-0.99992,-0.00576,0.00571,-1.56179,"[1.000, 0.000, 0.000, 0.000, 1.000, 0.000]",1.000,1.000,0.000,0.000,0.000,0.000,0.000,0.000,1.000,1.000,0.000,0.000
0.1050,1.00000,0.99991,0.99991,0.00661,-0.00654,1.56007,-0.00002,-0.00299,-0.00301,0.15992,-0.16110,-0.35661,0.00000,0.00000,0.00000,0.00000,0.00000,0.00000,-1.00000,-0.99991,-0.99991,-0.00661,0.00654,-1.56007,"[1.000, 0.000, 0.000, 0.000, 1.000, 0.000]",1.000,1.000,0.000,0.000,0.000,0.000,0.000,0.000,1.000,1.000,0.000,0.000
0.1100,1.00000,0.99989,0.99989,0.00738,-0.00730,1.55821,-0.00002,-0.00324,-0.00326,0.14363,-0.14540,-0.38628,0.00000,0.00000,0.00000,0.00000,0.00000,0.00000,-1.00000,-0.99989,-0.99989,-0.00738,0.00730,-1.55821,"[1.000, 0.000, 0.000, 0.000, 1.000, 0.000]",1.000,1.000,0.000,0.000,0.000,0.000,0.000,0.000,1.000,1.000,0.000,0.000
0.1150,1.00000,0.99988,0.99988,0.00808,-0.00797,1.55620,-0.00002,-0.00349,-0.00351,0.12735,-0.12971,-0.41596,0.00000,0.00000,0.00000,0.00000,0.00000,0.00000,-1.00000,-0.99988,-0.99988,-0.00808,0.00797,-1.55620,"[1.000, 0.000, 0.000, 0.000, 1.000, 0.000]",1.000,1.000,0.000,0.000,0.000,0.000,0.000,0.000,1.000,1.000,0.000,0.000
0.1200,1.00000,0.99986,0.99986,0.00869,-0.00856,1.55404,-0.00003,-0.00374,-0.00376,0.11107,-0.11401,-0.44563,0.00000,0.00000,0.00000,0.00000,0.00000,0.00000,-1.00000,-0.99986,-0.99986,-0.00869,0.00856,-1.55404,"[1.000, 0.000, 0.000, 0.000, 1.000, 0.000]",1.000,1.000,0.000,0.000,0.000,0.000,0.000,0.000,1.000,1.000,0.000,0.000
0.1250,1.00000,0.99984,0.99984,0.00922,-0.00907,1.55173,-0.00004,-0.00399,-0.00401,0.09478,-0.09832,-0.47530,0.00000,0.00000,0.00000,0.00000,0.00000,0.00000,-1.00000,-0.99984,-0.99984,-0.00922,0.00907,-1.55173,"[1.000, 0.000, 0.000, 0.000, 1.000, 0.000]",1.000,1.000,0.000,0.000,0.000,0.000,0.000,0.000,1.000,1.000,0.000,0.000
0.1300,1.00000,0.99982,0.99982,0.00968,-0.00950,1.54928,-0.00004,-0.00423,-0.00427,0.07850,-0.08263,-0.50498,0.00000,0.00000,0.00000,0.00000,0.00000,0.00000,-1.00000,-0.99982,-0.99982,-0.00968,0.00950,-1.54928,"[1.000, 0.000, 0.000, 0.000, 1.000, 0.000]",1.000,1.000,0.000,0.000,0.000,0.000,0.000,0.000,1.000,1.000,0.000,0.000
0.1350,1.00000,0.99980,0.99980,0.01006,-0.00985,1.54668,-0.00005,-0.00448,-0.00452,0.06221,-0.06693,-0.53465,0.00000,0.00000,0.00000,0.00000,0.00000,0.00000,-1.00000,-0.99980,-0.99980,-0.01006,0.00985,-1.54668,"[1.000, 0.000, 0.000, 0.000, 1.000, 0.000]",1.000,1.000,0.000,0.000,0.000,0.000,0.000,0.000,1.000,1.000,0.000,0.000
0.1400,1.00000,0.99977,0.99977,0.01036,-0.01011,1.54393,-0.00006,-0.00473,-0.00477,0.04593,-0.05124,-0.56432,0.00000,0.00000,0.00000,0.00000,0.00000,0.00000,-1.00000,-0.99977,-0.99977,-0.01036,0.01011,-1.54393,"[1.000, 0.000, 0.000, 0.000, 1.000, 0.000]",1.000,1.000,0.000,0.000,0.000,0.000,0.000,0.000,1.000,1.000,0.000,0.000
0.1450,1.00000,0.99975,0.99975,0.01057,-0.01030,1.54103,-0.00007,-0.00498,-0.00502,0.02965,-0.03554,-0.59400,0.00000,0.00000,0.00000,0.00000,0.00000,0.00000,-1.00000,-0.99975,-0.99975,-0.01057,0.01030,-1.54103,"[1.000, 0.000, 0.000, 0.000, 1.000, 0.000]",1.000,1.000,0.000,0.000,0.000,0.000,0.000,0.000,1.000,1.000,0.000,0.000
0.1500,1.00000,0.99973,0.99972,0.01078,-0.01048,1.53806,-0.00008,-0.00522,-0.00528,0.04236,-0.04832,-0.59344,0.00000,0.00000,0.00000,0.00000,0.00000,0.00000,-1.00000,-0.99973,-0.99972,-0.01078,0.01048,-1.53806,"[0.998, 0.000, 0.000, 0.000, 0.998, 0.000]",0.998,0.998,0.000,0.000,0.000,0.000,0.000,0.000,0.998,0.998,0.000,0.000
0.1550,1.00000,0.99970,0.99970,0.01106,-0.01072,1.53509,-0.00009,-0.00547,-0.00553,0.05508,-0.06109,-0.59288,0.00000,0.00000,0.00000,0.00000,0.00000,0.00000,-1.00000,-0.99970,-0.99970,-0.01106,0.01072,-1.53509,"[0.998, 0.000, 0.000, 0.000, 0.998, 0.000]",0.998,0.998,0.000,0.000,0.000,0.000,0.000,0.000,0.998,0.998,0.000,0.000
0.1600,1.00000,0.99967,0.99967,0.01140,-0.01102,1.53212,-0.00010,-0.00572,-0.00578,0.06780,-0.07386,-0.59232,0.00000,0.00000,0.00000,0.00000,0.00000,0.00000,-1.00000,-0.99967,-0.99967,-0.01140,0.01102,-1.53212,"[0.998, 0.000, 0.000, 0.000, 0.998, 0.000]",0.998,0.998,0.000,0.000,0.000,0.000,0.000,0.000,0.998,0.998,0.000,0.000
0.1650,1.00000,0.99964,0.99964,0.01180,-0.01139,1.52916,-0.00011,-0.00596,-0.00603,0.08051,-0.08663,-0.59176,0.00000,0.00000,0.00000,0.00000,0.00000,0.00000,-1.00000,-0.99964,-0.99964,-0.01180,0.01139,-1.52916,"[0.998, 0.000, 0.000, 0.000, 0.998, 0.000]",0.998,0.998,0.000,0.000,0.000,0.000,0.000,0.000,0.998,0.998,0.000,0.000
0.1700,1.00000,0.99961,0.99961,0.01227,-0.01182,1.52619,-0.00013,-0.00621,-0.00629,0.09323,-0.09941,-0.59121,0.00000,0.00000,0.00000,0.00000,0.00000,0.00000,-1.00000,-0.99961,-0.99961,-0.01227,0.01182,-1.52619,"[0.998, 0.000, 0.000, 0.000, 0.998, 0.000]",0.998,0.998,0.000,0.000,0.000,0.000,0.000,0.000,0.998,0.998,0.000,0.000
0.1750,1.00000,0.99958,0.99958,0.01281,-0.01231,1.52323,-0.00014,-0.00646,-0.00654,0.10594,-0.11218,-0.59065,0.00000,0.00000,0.00000,0.00000,0.00000,0.00000,-1.00000,-0.99958,-0.99958,-0.01281,0.01231,-1.52323,"[0.998, 0.000, 0.000, 0.000, 0.998, 0.000]",0.998,0.998,0.000,0.000,0.000,0.000,0.000,0.000,0.998,0.998,0.000,0.000
0.1800,0.99999,0.99955,0.99954,0.01340,-0.01287,1.52027,-0.00016,-0.00670,-0.00679,0.11866,-0.12495,-0.59009,0.00000,0.00000,0.00000,0.00000,0.00000,0.00000,-0.99999,-0.99955,-0.99954,-0.01340,0.01287,-1.52027,"[0.998, 0.000, 0.000, 0.000, 0.998, 0.000]",0.998,0.998,0.000,0.000,0.000,0.000,0.000,0.000,0.998,0.998,0.000,0.000
0.1850,0.99999,0.99951,0.99951,0.01407,-0.01348,1.51731,-0.00017,-0.00695,-0.00705,0.13138,-0.13772,-0.58953,0.00000,0.00000,0.00000,0.00000,0.00000,0.00000,-0.99999,-0.99951,-0.99951,-0.01407,0.01348,-1.51731,"[0.998, 0.000, 0.000, 0.000, 0.998, 0.000]",0.998,0.998,0.000,0.000,0.000,0.000,0.000,0.000,0.998,0.998,0.000,0.000
0.1900,0.99999,0.99948,0.99947,0.01480,-0.01416,1.51436,-0.00019,-0.00720,-0.00730,0.14409,-0.15050,-0.58897,0.00000,0.00000,0.00000,0.00000,0.00000,0.00000,-0.99999,-0.99948,-0.99947,-0.01480,0.01416,-1.51436,"[0.998, 0.000, 0.000, 0.000, 0.998, 0.000]",0.998,0.998,0.000,0.000,0.000,0.000,0.000,0.000,0.998,0.998,0.000,0.000
0.1950,0.99999,0.99944,0.99944,0.01559,-0.01490,1.51140,-0.00021,-0.00744,-0.00755,0.15681,-0.16327,-0.58841,0.00000,0.00000,0.00000,0.00000,0.00000,0.00000,-0.99999,-0.99944,-0.99944,-0.01559,0.01490,-1.51140,"[0.998, 0.000, 0.000, 0.000, 0.998, 0.000]",0.998,0.998,0.000,0.000,0.000,0.000,0.000,0.000,0.998,0.998,0.000,0.000
0.2000,0.99999,0.99940,0.99940,0.01639,-0.01564,1.50845,-0.00022,-0.00769,-0.00781,0.14585,-0.15287,-0.58718,0.00000,0.00000,0.00000,0.00000,0.00000,0.00000,-0.99999,-0.99940,-0.99940,-0.01639,0.01564,-1.50845,"[0.998, 0.000, 0.000, 0.000, 0.998, 0.000]",0.998,0.998,0.000,0.000,0.000,0.000,0.000,0.000,0.998,0.998,0.000,0.000
0.2050,0.99999,0.99936,0.99936,0.01714,-0.01633,1.50551,-0.00024,-0.00793,-0.00806,0.13489,-0.14246,-0.58595,0.00000,0.00000,0.00000,0.00000,0.00000,0.00000,-0.99999,-0.99936,-0.99936,-0.01714,0.01633,-1.50551,"[0.998, 0.000, 0.000, 0.000, 0.998, 0.000]",0.998,0.998,0.000,0.000,0.000,0.000,0.000,0.000,0.998,0.998,0.000,0.000
0.2100,0.99999,0.99932,0.99932,0.01784,-0.01697,1.50257,-0.00026,-0.00818,-0.00831,0.12393,-0.13206,-0.58472,0.00000,0.00000,0.00000,0.00000,0.00000,0.00000,-0.99999,-0.99932,-0.99932,-0.01784,0.01697,-1.50257,"[0.998, 0.000, 0.000, 0.000, 0.998, 0.000]",0.998,0.998,0.000,0.000,0.000,0.000,0.000,0.000,0.998,0.998,0.000,0.000
0.2150,0.99999,0.99928,0.99927,0.01848,-0.01755,1.49964,-0.00029,-0.00842,-0.00857,0.11297,-0.12165,-0.58349,0.00000,0.00000,0.00000,0.00000,0.00000,0.00000,-0.99999,-0.99928,-0.99927,-0.01848,0.01755,-1.49964,"[0.998, 0.000, 0.000, 0.000, 0.998, 0.000]",0.998,0.998,0.000,0.000,0.000,0.000,0.000,0.000,0.998,0.998,0.000,0.000
0.2200,0.99999,0.99924,0.99923,0.01907,-0.01808,1.49671,-0.00031,-0.00867,-0.00882,0.10201,-0.11125,-0.58226,0.00000,0.00000,0.00000,0.00000,0.00000,0.00000,-0.99999,-0.99924,-0.99923,-0.01907,0.01808,-1.49671,"[0.998, 0.000, 0.000, 0.000, 0.998, 0.000]",0.998,0.998,0.000,0.000,0.000,0.000,0.000,0.000,0.998,0.998,0.000,0.000
0.2250,0.99998,0.99919,0.99919,0.01961,-0.01855,1.49379,-0.00033,-0.00891,-0.00908,0.09106,-0.10084,-0.58103,0.00000,0.00000,0.00000,0.00000,0.00000,0.00000,-0.99998,-0.99919,-0.99919,-0.01961,0.01855,-1.49379,"[0.998, 0.000, 0.000, 0.000, 0.998, 0.000]",0.998,0.998,0.000,0.000,0.000,0.000,0.000,0.000,0.998,0.998,0.000,0.000
0.2300,0.99998,0.99915,0.99914,0.02009,-0.01897,1.49088,-0.00035,-0.00916,-0.00933,0.08010,-0.09044,-0.57980,0.00000,0.00000,0.00000,0.00000,0.00000,0.00000,-0.99998,-0.99915,-0.99914,-0.02009,0.01897,-1.49088,"[0.998, 0.000, 0.000, 0.000, 0.998, 0.000]",0.998,0.998,0.000,0.000,0.000,0.000,0.000,0.000,0.998,0.998,0.000,0.000
0.2350,0.99998,0.99910,0.99909,0.02052,-0.01934,1.48798,-0.00038,-0.00940,-0.00959,0.06914,-0.08004,-0.57857,0.00000,0.00000,0.00000,0.00000,0.00000,0.00000,-0.99998,-0.99910,-0.99909,-0.02052,0.01934,-1.48798,"[0.998, 0.000, 0.000, 0.000, 0.998, 0.000]",0.998,0.998,0.000,0.000,0.000,0.000,0.000,0.000,0.998,0.998,0.000,0.000
0.2400,0.99998,0.99906,0.99904,0.02089,-0.01965,1.48508,-0.00040,-0.00964,-0.00984,0.05818,-0.06963,-0.57733,0.00000,0.00000,0.00000,0.00000,0.00000,0.00000,-0.99998,-0.99906,-0.99904,-0.02089,0.01965,-1.48508,"[0.998, 0.000, 0.000, 0.000, 0.998, 0.000]",0.998,0.998,0.000,0.000,0.000,0.000,0.000,0.000,0.998,0.998,0.000,0.000
0.2450,0.99998,0.99901,0.99899,0.02121,-0.01991,1.48219,-0.00043,-0.00989,-0.01010,0.04722,-0.05923,-0.57610,0.00000,0.00000,0.00000,0.00000,0.00000,0.00000,-0.99998,-0.99901,-0.99899,-0.02121,0.01991,-1.48219,"[0.998, 0.000, 0.000, 0.000, 0.998, 0.000]",0.998,0.998,0.000,0.000,0.000,0.000,0.000,0.000,0.998,0.998,0.000,0.000
0.2500,0.99997,0.99896,0.99894,0.02153,-0.02017,1.47930,-0.00046,-0.01013,-0.01035,0.05560,-0.06768,-0.57542,0.00000,0.00000,0.00000,0.00000,0.00000,0.00000,-0.99997,-0.99896,-0.99894,-0.02153,0.02017,-1.47930,"[0.998, 0.000, 0.000, 0.000, 0.998, 0.000]",0.998,0.998,0.000,0.000,0.000,0.000,0.000,0.000,0.998,0.998,0.000,0.000
0.2550,0.99997,0.99891,0.99889,0.02189,-0.02047,1.47642,-0.00049,-0.01037,-0.01061,0.06398,-0.07614,-0.57474,0.00000,0.00000,0.00000,0.00000,0.00000,0.00000,-0.99997,-0.99891,-0.99889,-0.02189,0.02047,-1.47642,"[0.998, 0.000, 0.000, 0.000, 0.998, 0.000]",0.998,0.998,0.000,0.000,0.000,0.000,0.000,0.000,0.998,0.998,0.000,0.000
0.2600,0.99997,0.99885,0.99884,0.02229,-0.02080,1.47354,-0.00051,-0.01062,-0.01086,0.07236,-0.08460,-0.57406,0.00000,0.00000,0.00000,0.00000,0.00000,0.00000,-0.99997,-0.99885,-0.99884,-0.02229,0.02080,-1.47354,"[0.998, 0.000, 0.000, 0.000, 0.998, 0.000]",0.998,0.998,0.000,0.000,0.000,0.000,0.000,0.000,0.998,0.998,0.000,0.000
0.2650,0.99997,0.99880,0.99878,0.02273,-0.02118,1.47066,-0.00054,-0.01086,-0.01112,0.08074,-0.09305,-0.57338,0.00000,0.00000,0.00000,0.00000,0.00000,0.00000,-0.99997,-0.99880,-0.99878,-0.02273,0.02118,-1.47066,"[0.998, 0.000, 0.000, 0.000, 0.998, 0.000]",0.998,0.998,0.000,0.000,0.000,0.000,0.000,0.000,0.998,0.998,0.000,0.000
0.2700,0.99996,0.99874,0.99873,0.02322,-0.02160,1.46778,-0.00057,-0.01110,-0.01137,0.08912,-0.10151,-0.57270,0.00000,0.00000,0.00000,0.00000,0.00000,0.00000,-0.99996,-0.99874,-0.99873,-0.02322,0.02160,-1.46778,"[0.998, 0.000, 0.000, 0.000, 0.998, 0.000]",0.998,0.998,0.000,0.000,0.000,0.000,0.000,0.000,0.998,0.998,0.000,0.000
0.2750,0.99996,0.99869,0.99867,0.02375,-0.02207,1.46491,-0.00060,-0.01135,-0.01163,0.09750,-0.10997,-0.57202,0.00000,0.00000,0.00000,0.00000,0.00000,0.00000,-0.99996,-0.99869,-0.99867,-0.02375,0.02207,-1.46491,"[0.998, 0.000, 0.000, 0.000, 0.998, 0.000]",0.998,0.998,0.000,0.000,0.000,0.000,0.000,0.000,0.998,0.998,0.000,0.000
0.2800,0.99996,0.99863,0.99861,0.02432,-0.02257,1.46204,-0.00064,-0.01159,-0.01188,0.10589,-0.11842,-0.57135,0.00000,0.00000,0.00000,0.00000,0.00000,0.00000,-0.99996,-0.99863,-0.99861,-0.02432,0.02257,-1.46204,"[0.998, 0.000, 0.000, 0.000, 0.998, 0.000]",0.998,0.998,0.000,0.000,0.000,0.000,0.000,0.000,0.998,0.998,0.000,0.000
0.2850,0.99995,0.99857,0.99855,0.02493,-0.02311,1.45917,-0.00067,-0.01183,-0.01214,0.11427,-0.12688,-0.57067,0.00000,0.00000,0.00000,0.00000,0.00000,0.00000,-0.99995,-0.99857,-0.99855,-0.02493,0.02311,-1.45917,"[0.998, 0.000, 0.000, 0.000, 0.998, 0.000]",0.998,0.998,0.000,0.000,0.000,0.000,0.000,0.000,0.998,0.998,0.000,0.000
0.2900,0.99995,0.99851,0.99849,0.02559,-0.02369,1.45630,-0.00070,-0.01207,-0.01239,0.12265,-0.13534,-0.56999,0.00000,0.00000,0.00000,0.00000,0.00000,0.00000,-0.99995,-0.99851,-0.99849,-0.02559,0.02369,-1.45630,"[0.998, 0.000, 0.000, 0.000, 0.998, 0.000]",0.998,0.998,0.000,0.000,0.000,0.000,0.000,0.000,0.998,0.998,0.000,0.000
0.2950,0.99995,0.99845,0.99843,0.02630,-0.02432,1.45343,-0.00074,-0.01231,-0.01265,0.13103,-0.14379,-0.56931,0.00000,0.00000,0.00000,0.00000,0.00000,0.00000,-0.99995,-0.99845,-0.99843,-0.02630,0.02432,-1.45343,"[0.998, 0.000, 0.000, 0.000, 0.998, 0.000]",0.998,0.998,0.000,0.000,0.000,0.000,0.000,0.000,0.998,0.998,0.000,0.000
0.3000,0.99994,0.99839,0.99836,0.02700,-0.02494,1.45057,-0.00077,-0.01256,-0.01290,0.12316,-0.13590,-0.56894,0.00000,0.00000,0.00000,0.00000,0.00000,0.00000,-0.99994,-0.99839,-0.99836,-0.02700,0.02494,-1.45057,"[1.000, 0.000, 0.000, 0.000, 1.000, 0.000]",1.000,1.000,0.000,0.000,0.000,0.000,0.000,0.000,1.000,1.000,0.000,0.000
0.3050,0.99994,0.99833,0.99830,0.02767,-0.02552,1.44771,-0.00081,-0.01280,-0.01316,0.11529,-0.12801,-0.56858,0.00000,0.00000,0.00000,0.00000,0.00000,0.00000,-0.99994,-0.99833,-0.99830,-0.02767,0.02552,-1.44771,"[1.000, 0.000, 0.000, 0.000, 1.000, 0.000]",1.000,1.000,0.000,0.000,0.000,0.000,0.000,0.000,1.000,1.000,0.000,0.000
0.3100,0.99994,0.99826,0.99823,0.02830,-0.02606,1.44485,-0.00084,-0.01304,-0.01342,0.10743,-0.12011,-0.56821,0.00000,0.00000,0.00000,0.00000,0.00000,0.00000,-0.99994,-0.99826,-0.99823,-0.02830,0.02606,-1.44485,"[1.000, 0.000, 0.000, 0.000, 1.000, 0.000]",1.000,1.000,0.000,0.000,0.000,0.000,0.000,0.000,1.000,1.000,0.000,0.000
0.3150,0.99993,0.99820,0.99816,0.02889,-0.02656,1.44199,-0.00088,-0.01328,-0.01367,0.09956,-0.11222,-0.56785,0.00000,0.00000,0.00000,0.00000,0.00000,0.00000,-0.99993,-0.99820,-0.99816,-0.02889,0.02656,-1.44199,"[1.000, 0.000, 0.000, 0.000, 1.000, 0.000]",1.000,1.000,0.000,0.000,0.000,0.000,0.000,0.000,1.000,1.000,0.000,0.000
0.3200,0.99993,0.99813,0.99809,0.02945,-0.02702,1.43914,-0.00092,-0.01352,-0.01393,0.09169,-0.10432,-0.56748,0.00000,0.00000,0.00000,0.00000,0.00000,0.00000,-0.99993,-0.99813,-0.99809,-0.02945,0.02702,-1.43914,"[1.000, 0.000, 0.000, 0.000, 1.000, 0.000]",1.000,1.000,0.000,0.000,0.000,0.000,0.000,0.000,1.000,1.000,0.000,0.000
0.3250,0.99992,0.99806,0.99802,0.02997,-0.02744,1.43629,-0.00096,-0.01376,-0.01419,0.08383,-0.09643,-0.56712,0.00000,0.00000,0.00000,0.00000,0.00000,0.00000,-0.99992,-0.99806,-0.99802,-0.02997,0.02744,-1.43629,"[1.000, 0.000, 0.000, 0.000, 1.000, 0.000]",1.000,1.000,0.000,0.000,0.000,0.000,0.000,0.000,1.000,1.000,0.000,0.000
0.3300,0.99992,0.99799,0.99795,0.03044,-0.02782,1.43344,-0.00100,-0.01400,-0.01444,0.07596,-0.08853,-0.56675,0.00000,0.00000,0.00000,0.00000,0.00000,0.00000,-0.99992,-0.99799,-0.99795,-0.03044,0.02782,-1.43344,"[1.000, 0.000, 0.000, 0.000, 1.000, 0.000]",1.000,1.000,0.000,0.000,0.000,0.000,0.000,0.000,1.000,1.000,0.000,0.000
0.3350,0.99991,0.99792,0.99788,0.03088,-0.02815,1.43059,-0.00104,-0.01424,-0.01470,0.06809,-0.08064,-0.56639,0.00000,0.00000,0.00000,0.00000,0.00000,0.00000,-0.99991,-0.99792,-0.99788,-0.03088,0.02815,-1.43059,"[1.000, 0.000, 0.000, 0.000, 1.000, 0.000]",1.000,1.000,0.000,0.000,0.000,0.000,0.000,0.000,1.000,1.000,0.000,0.000
0.3400,0.99991,0.99785,0.99780,0.03128,-0.02845,1.42775,-0.00108,-0.01448,-0.01496,0.06023,-0.07274,-0.56602,0.00000,0.00000,0.00000,0.00000,0.00000,0.00000,-0.99991,-0.99785,-0.99780,-0.03128,0.02845,-1.42775,"[1.000, 0.000, 0.000, 0.000, 1.000, 0.000]",1.000,1.000,0.000,0.000,0.000,0.000,0.000,0.000,1.000,1.000,0.000,0.000
0.3450,0.99990,0.99778,0.99773,0.03165,-0.02870,1.42491,-0.00112,-0.01472,-0.01521,0.05236,-0.06485,-0.56566,0.00000,0.00000,0.00000,0.00000,0.00000,0.00000,-0.99990,-0.99778,-0.99773,-0.03165,0.02870,-1.42491,"[1.000, 0.000, 0.000, 0.000, 1.000, 0.000]",1.000,1.000,0.000,0.000,0.000,0.000,0.000,0.000,1.000,1.000,0.000,0.000
0.3500,0.99990,0.99770,0.99765,0.03200,-0.02895,1.42207,-0.00117,-0.01496,-0.01547,0.05641,-0.06955,-0.56420,0.00000,0.00000,0.00000,0.00000,0.00000,0.00000,-0.99990,-0.99770,-0.99765,-0.03200,0.02895,-1.42207,"[1.000, 0.000, 0.000, 0.000, 1.000, 0.000]",1.000,1.000,0.000,0.000,0.000,0.000,0.000,0.000,1.000,1.000,0.000,0.000
0.3550,0.99989,0.99763,0.99757,0.03238,-0.02922,1.41925,-0.00121,-0.01520,-0.01573,0.06045,-0.07424,-0.56274,0.00000,0.00000,0.00000,0.00000,0.00000,0.00000,-0.99989,-0.99763,-0.99757,-0.03238,0.02922,-1.41925,"[1.000, 0.000, 0.000, 0.000, 1.000, 0.000]",1.000,1.000,0.000,0.000,0.000,0.000,0.000,0.000,1.000,1.000,0.000,0.000
0.3600,0.99988,0.99755,0.99749,0.03277,-0.02951,1.41642,-0.00126,-0.01543,-0.01598,0.06449,-0.07894,-0.56128,0.00000,0.00000,0.00000,0.00000,0.00000,0.00000,-0.99988,-0.99755,-0.99749,-0.03277,0.02951,-1.41642,"[1.000, 0.000, 0.000, 0.000, 1.000, 0.000]",1.000,1.000,0.000,0.000,0.000,0.000,0.000,0.000,1.000,1.000,0.000,0.000
0.3650,0.99988,0.99747,0.99741,0.03319,-0.02982,1.41361,-0.00130,-0.01567,-0.01624,0.06854,-0.08364,-0.55982,0.00000,0.00000,0.00000,0.00000,0.00000,0.00000,-0.99988,-0.99747,-0.99741,-0.03319,0.02982,-1.41361,"[1.000, 0.000, 0.000, 0.000, 1.000, 0.000]",1.000,1.000,0.000,0.000,0.000,0.000,0.000,0.000,1.000,1.000,0.000,0.000
0.3700,0.99987,0.99739,0.99733,0.03362,-0.03016,1.41080,-0.00135,-0.01591,-0.01650,0.07258,-0.08833,-0.55836,0.00000,0.00000,0.00000,0.00000,0.00000,0.00000,-0.99987,-0.99739,-0.99733,-0.03362,0.03016,-1.41080,"[1.000, 0.000, 0.000, 0.000, 1.000, 0.000]",1.000,1.000,0.000,0.000,0.000,0.000,0.000,0.000,1.000,1.000,0.000,0.000
0.3750,0.99986,0.99731,0.99725,0.03408,-0.03052,1.40800,-0.00139,-0.01615,-0.01676,0.07663,-0.09303,-0.55691,0.00000,0.00000,0.00000,0.00000,0.00000,0.00000,-0.99986,-0.99731,-0.99725,-0.03408,0.03052,-1.40800,"[1.000, 0.000, 0.000, 0.000, 1.000, 0.000]",1.000,1.000,0.000,0.000,0.000,0.000,0.000,0.000,1.000,1.000,0.000,0.000
0.3800,0.99986,0.99723,0.99716,0.03456,-0.03090,1.40520,-0.00144,-0.01639,-0.01701,0.08067,-0.09773,-0.55545,0.00000,0.00000,0.00000,0.00000,0.00000,0.00000,-0.99986,-0.99723,-0.99716,-0.03456,0.03090,-1.40520,"[1.000, 0.000, 0.000, 0.000, 1.000, 0.000]",1.000,1.000,0.000,0.000,0.000,0.000,0.000,0.000,1.000,1.000,0.000,0.000
0.3850,0.99985,0.99715,0.99708,0.03506,-0.03130,1.40241,-0.00149,-0.01662,-0.01727,0.08471,-0.10242,-0.55399,0.00000,0.00000,0.00000,0.00000,0.00000,0.00000,-0.99985,-0.99715,-0.99708,-0.03506,0.03130,-1.40241,"[1.000, 0.000, 0.000, 0.000, 1.000, 0.000]",1.000,1.000,0.000,0.000,0.000,0.000,0.000,0.000,1.000,1.000,0.000,0.000
0.3900,0.99984,0.99707,0.99699,0.03558,-0.03173,1.39962,-0.00154,-0.01686,-0.01753,0.08876,-0.10712,-0.55253,0.00000,0.00000,0.00000,0.00000,0.00000,0.00000,-0.99984,-0.99707,-0.99699,-0.03558,0.03173,-1.39962,"[1.000, 0.000, 0.000, 0.000, 1.000, 0.000]",1.000,1.000,0.000,0.000,0.000,0.000,0.000,0.000,1.000,1.000,0.000,0.000
0.3950,0.99983,0.99698,0.99690,0.03613,-0.03217,1.39684,-0.00159,-0.01710,-0.01779,0.09280,-0.11182,-0.55107,0.00000,0.00000,0.00000,0.00000,0.00000,0.00000,-0.99983,-0.99698,-0.99690,-0.03613,0.03217,-1.39684,"[1.000, 0.000, 0.000, 0.000, 1.000, 0.000]",1.000,1.000,0.000,0.000,0.000,0.000,0.000,0.000,1.000,1.000,0.000,0.000
0.4000,0.99983,0.99689,0.99681,0.03668,-0.03263,1.39407,-0.00164,-0.01733,-0.01804,0.09160,-0.11082,-0.55014,0.00000,0.00000,0.00000,0.00000,0.00000,0.00000,-0.99983,-0.99689,-0.99681,-0.03668,0.03263,-1.39407,"[1.000, 0.000, 0.000, 0.000, 1.000, 0.000]",1.000,1.000,0.000,0.000,0.000,0.000,0.000,0.000,1.000,1.000,0.000,0.000
0.4050,0.99982,0.99681,0.99672,0.03722,-0.03308,1.39130,-0.00169,-0.01757,-0.01830,0.09041,-0.10982,-0.54921,0.00000,0.00000,0.00000,0.00000,0.00000,0.00000,-0.99982,-0.99681,-0.99672,-0.03722,0.03308,-1.39130,"[1.000, 0.000, 0.000, 0.000, 1.000, 0.000]",1.000,1.000,0.000,0.000,0.000,0.000,0.000,0.000,1.000,1.000,0.000,0.000
0.4100,0.99981,0.99672,0.99663,0.03776,-0.03352,1.38854,-0.00174,-0.01781,-0.01856,0.08921,-0.10883,-0.54828,0.00000,0.00000,0.00000,0.00000,0.00000,0.00000,-0.99981,-0.99672,-0.99663,-0.03776,0.03352,-1.38854,"[1.000, 0.000, 0.000, 0.000, 1.000, 0.000]",1.000,1.000,0.000,0.000,0.000,0.000,0.000,0.000,1.000,1.000,0.000,0.000
0.4150,0.99980,0.99663,0.99654,0.03830,-0.03396,1.38578,-0.00180,-0.01804,-0.01882,0.08801,-0.10783,-0.54735,0.00000,0.00000,0.00000,0.00000,0.00000,0.00000,-0.99980,-0.99663,-0.99654,-0.03830,0.03396,-1.38578,"[1.000, 0.000, 0.000, 0.000, 1.000, 0.000]",1.000,1.000,0.000,0.000,0.000,0.000,0.000,0.000,1.000,1.000,0.000,0.000
0.4200,0.99979,0.99654,0.99644,0.03883,-0.03439,1.38303,-0.00185,-0.01828,-0.01908,0.08681,-0.10684,-0.54642,0.00000,0.00000,0.00000,0.00000,0.00000,0.00000,-0.99979,-0.99654,-0.99644,-0.03883,0.03439,-1.38303,"[1.000, 0.000, 0.000, 0.000, 1.000, 0.000]",1.000,1.000,0.000,0.000,0.000,0.000,0.000,0.000,1.000,1.000,0.000,0.000
0.4250,0.99978,0.99645,0.99635,0.03936,-0.03482,1.38028,-0.00191,-0.01851,-0.01933,0.08562,-0.10584,-0.54548,0.00000,0.00000,0.00000,0.00000,0.00000,0.00000,-0.99978,-0.99645,-0.99635,-0.03936,0.03482,-1.38028,"[1.000, 0.000, 0.000, 0.000, 1.000, 0.000]",1.000,1.000,0.000,0.000,0.000,0.000,0.000,0.000,1.000,1.000,0.000,0.000
0.4300,0.99977,0.99635,0.99625,0.03988,-0.03523,1.37753,-0.00196,-0.01875,-0.01959,0.08442,-0.10485,-0.54455,0.00000,0.00000,0.00000,0.00000,0.00000,0.00000,-0.99977,-0.99635,-0.99625,-0.03988,0.03523,-1.37753,"[1.000, 0.000, 0.000, 0.000, 1.000, 0.000]",1.000,1.000,0.000,0.000,0.000,0.000,0.000,0.000,1.000,1.000,0.000,0.000
0.4350,0.99976,0.99626,0.99615,0.04039,-0.03565,1.37479,-0.00202,-0.01898,-0.01985,0.08322,-0.10385,-0.54362,0.00000,0.00000,0.00000,0.00000,0.00000,0.00000,-0.99976,-0.99626,-0.99615,-0.04039,0.03565,-1.37479,"[1.000, 0.000, 0.000, 0.000, 1.000, 0.000]",1.000,1.000,0.000,0.000,0.000,0.000,0.000,0.000,1.000,1.000,0.000,0.000
0.4400,0.99975,0.99616,0.99605,0.04091,-0.03605,1.37205,-0.00207,-0.01922,-0.02011,0.08202,-0.10285,-0.54269,0.00000,0.00000,0.00000,0.00000,0.00000,0.00000,-0.99975,-0.99616,-0.99605,-0.04091,0.03605,-1.37205,"[1.000, 0.000, 0.000, 0.000, 1.000, 0.000]",1.000,1.000,0.000,0.000,0.000,0.000,0.000,0.000,1.000,1.000,0.000,0.000
0.4450,0.99974,0.99607,0.99595,0.04141,-0.03645,1.36932,-0.00213,-0.01945,-0.02037,0.08082,-0.10186,-0.54176,0.00000,0.00000,0.00000,0.00000,0.00000,0.00000,-0.99974,-0.99607,-0.99595,-0.04141,0.03645,-1.36932,"[1.000, 0.000, 0.000, 0.000, 1.000, 0.000]",1.000,1.000,0.000,0.000,0.000,0.000,0.000,0.000,1.000,1.000,0.000,0.000
0.4500,0.99973,0.99597,0.99585,0.04192,-0.03685,1.36659,-0.00219,-0.01968,-0.02063,0.08085,-0.10221,-0.54077,0.00000,0.00000,0.00000,0.00000,0.00000,0.00000,-0.99973,-0.99597,-0.99585,-0.04192,0.03685,-1.36659,"[1.000, 0.000, 0.000, 0.000, 1.000, 0.000]",1.000,1.000,0.000,0.000,0.000,0.000,0.000,0.000,1.000,1.000,0.000,0.000
0.4550,0.99972,0.99587,0.99574,0.04242,-0.03725,1.36387,-0.00225,-0.01992,-0.02089,0.08087,-0.10256,-0.53978,0.00000,0.00000,0.00000,0.00000,0.00000,0.00000,-0.99972,-0.99587,-0.99574,-0.04242,0.03725,-1.36387,"[1.000, 0.000, 0.000, 0.000, 1.000, 0.000]",1.000,1.000,0.000,0.000,0.000,0.000,0.000,0.000,1.000,1.000,0.000,0.000
0.4600,0.99971,0.99577,0.99564,0.04293,-0.03765,1.36115,-0.00231,-0.02015,-0.02114,0.08089,-0.10292,-0.53878,0.00000,0.00000,0.00000,0.00000,0.00000,0.00000,-0.99971,-0.99577,-0.99564,-0.04293,0.03765,-1.36115,"[1.000, 0.000, 0.000, 0.000, 1.000, 0.000]",1.000,1.000,0.000,0.000,0.000,0.000,0.000,0.000,1.000,1.000,0.000,0.000
0.4650,0.99970,0.99567,0.99553,0.04343,-0.03804,1.35844,-0.00237,-0.02038,-0.02140,0.08091,-0.10327,-0.53779,0.00000,0.00000,0.00000,0.00000,0.00000,0.00000,-0.99970,-0.99567,-0.99553,-0.04343,0.03804,-1.35844,"[1.000, 0.000, 0.000, 0.000, 1.000, 0.000]",1.000,1.000,0.000,0.000,0.000,0.000,0.000,0.000,1.000,1.000,0.000,0.000
0.4700,0.99968,0.99557,0.99542,0.04394,-0.03844,1.35573,-0.00243,-0.02062,-0.02166,0.08093,-0.10362,-0.53680,0.00000,0.00000,0.00000,0.00000,0.00000,0.00000,-0.99968,-0.99557,-0.99542,-0.04394,0.03844,-1.35573,"[1.000, 0.000, 0.000, 0.000, 1.000, 0.000]",1.000,1.000,0.000,0.000,0.000,0.000,0.000,0.000,1.000,1.000,0.000,0.000
0.4750,0.99967,0.99546,0.99532,0.04445,-0.03884,1.35303,-0.00249,-0.02085,-0.02192,0.08095,-0.10397,-0.53581,0.00000,0.00000,0.00000,0.00000,0.00000,0.00000,-0.99967,-0.99546,-0.99532,-0.04445,0.03884,-1.35303,"[1.000, 0.000, 0.000, 0.000, 1.000, 0.000]",1.000,1.000,0.000,0.000,0.000,0.000,0.000,0.000,1.000,1.000,0.000,0.000
0.4800,0.99966,0.99536,0.99521,0.04496,-0.03924,1.35033,-0.00255,-0.02108,-0.02218,0.08097,-0.10433,-0.53482,0.00000,0.00000,0.00000,0.00000,0.00000,0.00000,-0.99966,-0.99536,-0.99521,-0.04496,0.03924,-1.35033,"[1.000, 0.000, 0.000, 0.000, 1.000, 0.000]",1.000,1.000,0.000,0.000,0.000,0.000,0.000,0.000,1.000,1.000,0.000,0.000
0.4850,0.99965,0.99525,0.99509,0.04547,-0.03965,1.34763,-0.00262,-0.02131,-0.02244,0.08099,-0.10468,-0.53383,0.00000,0.00000,0.00000,0.00000,0.00000,0.00000,-0.99965,-0.99525,-0.99509,-0.04547,0.03965,-1.34763,"[1.000, 0.000, 0.000, 0.000, 1.000, 0.000]",1.000,1.000,0.000,0.000,0.000,0.000,0.000,0.000,1.000,1.000,0.000,0.000
0.4900,0.99963,0.99514,0.99498,0.04598,-0.04005,1.34494,-0.00268,-0.02154,-0.02270,0.08102,-0.10503,-0.53284,0.00000,0.00000,0.00000,0.00000,0.00000,0.00000,-0.99963,-0.99514,-0.99498,-0.04598,0.04005,-1.34494,"[1.000, 0.000, 0.000, 0.000, 1.000, 0.000]",1.000,1.000,0.000,0.000,0.000,0.000,0.000,0.000,1.000,1.000,0.000,0.000
0.4950,0.99962,0.99504,0.99487,0.04650,-0.04045,1.34226,-0.00275,-0.02178,-0.02296,0.08104,-0.10538,-0.53184,0.00000,0.00000,0.00000,0.00000,0.00000,0.00000,-0.99962,-0.99504,-0.99487,-0.04650,0.04045,-1.34226,"[1.000, 0.000, 0.000, 0.000, 1.000, 0.000]",1.000,1.000,0.000,0.000,0.000,0.000,0.000,0.000,1.000,1.000,0.000,0.000
0.5000,0.99961,0.99493,0.99475,0.04701,-0.04085,1.33958,-0.00281,-0.02201,-0.02322,0.08067,-0.10527,-0.53092,0.00000,0.00000,0.00000,0.00000,0.00000,0.00000,-0.99961,-0.99493,-0.99475,-0.04701,0.04085,-1.33958,"[1.000, 0.000, 0.000, 0.000, 1.000, 0.000]",1.000,1.000,0.000,0.000,0.000,0.000,0.000,0.000,1.000,1.000,0.000,0.000
0.5050,0.99959,0.99482,0.99463,0.04752,-0.04125,1.33690,-0.00288,-0.02224,-0.02348,0.08030,-0.10515,-0.53000,0.00000,0.00000,0.00000,0.00000,0.00000,0.00000,-0.99959,-0.99482,-0.99463,-0.04752,0.04125,-1.33690,"[1.000, 0.000, 0.000, 0.000, 1.000, 0.000]",1.000,1.000,0.000,0.000,0.000,0.000,0.000,0.000,1.000,1.000,0.000,0.000
0.5100,0.99958,0.99470,0.99452,0.04803,-0.04165,1.33423,-0.00295,-0.02247,-0.02374,0.07992,-0.10503,-0.52907,0.00000,0.00000,0.00000,0.00000,0.00000,0.00000,-0.99958,-0.99470,-0.99452,-0.04803,0.04165,-1.33423,"[1.000, 0.000, 0.000, 0.000, 1.000, 0.000]",1.000,1.000,0.000,0.000,0.000,0.000,0.000,0.000,1.000,1.000,0.000,0.000
0.5150,0.99956,0.99459,0.99440,0.04854,-0.04205,1.33156,-0.00301,-0.02270,-0.02400,0.07955,-0.10491,-0.52815,0.00000,0.00000,0.00000,0.00000,0.00000,0.00000,-0.99956,-0.99459,-0.99440,-0.04854,0.04205,-1.33156,"[1.000, 0.000, 0.000, 0.000, 1.000, 0.000]",1.000,1.000,0.000,0.000,0.000,0.000,0.000,0.000,1.000,1.000,0.000,0.000
0.5200,0.99955,0.99448,0.99428,0.04905,-0.04244,1.32890,-0.00308,-0.02293,-0.02426,0.07918,-0.10480,-0.52722,0.00000,0.00000,0.00000,0.00000,0.00000,0.00000,-0.99955,-0.99448,-0.99428,-0.04905,0.04244,-1.32890,"[1.000, 0.000, 0.000, 0.000, 1.000, 0.000]",1.000,1.000,0.000,0.000,0.000,0.000,0.000,0.000,1.000,1.000,0.000,0.000
0.5250,0.99953,0.99436,0.99415,0.04956,-0.04283,1.32624,-0.00315,-0.02316,-0.02452,0.07881,-0.10468,-0.52630,0.00000,0.00000,0.00000,0.00000,0.00000,0.00000,-0.99953,-0.99436,-0.99415,-0.04956,0.04283,-1.32624,"[1.000, 0.000, 0.000, 0.000, 1.000, 0.000]",1.000,1.000,0.000,0.000,0.000,0.000,0.000,0.000,1.000,1.000,0.000,0.000
0.5300,0.99951,0.99425,0.99403,0.05007,-0.04323,1.32359,-0.00322,-0.02339,-0.02478,0.07844,-0.10456,-0.52538,0.00000,0.00000,0.00000,0.00000,0.00000,0.00000,-0.99951,-0.99425,-0.99403,-0.05007,0.04323,-1.32359,"[1.000, 0.000, 0.000, 0.000, 1.000, 0.000]",1.000,1.000,0.000,0.000,0.000,0.000,0.000,0.000,1.000,1.000,0.000,0.000
0.5350,0.99950,0.99413,0.99391,0.05058,-0.04362,1.32094,-0.00329,-0.02361,-0.02504,0.07807,-0.10444,-0.52445,0.00000,0.00000,0.00000,0.00000,0.00000,0.00000,-0.99950,-0.99413,-0.99391,-0.05058,0.04362,-1.32094,"[1.000, 0.000, 0.000, 0.000, 1.000, 0.000]",1.000,1.000,0.000,0.000,0.000,0.000,0.000,0.000,1.000,1.000,0.000,0.000
0.5400,0.99948,0.99401,0.99378,0.05108,-0.04400,1.31829,-0.00336,-0.02384,-0.02530,0.07770,-0.10433,-0.52353,0.00000,0.00000,0.00000,0.00000,0.00000,0.00000,-0.99948,-0.99401,-0.99378,-0.05108,0.04400,-1.31829,"[1.000, 0.000, 0.000, 0.000, 1.000, 0.000]",1.000,1.000,0.000,0.000,0.000,0.000,0.000,0.000,1.000,1.000,0.000,0.000
0.5450,0.99946,0.99389,0.99365,0.05159,-0.04439,1.31565,-0.00344,-0.02407,-0.02556,0.07733,-0.10421,-0.52261,0.00000,0.00000,0.00000,0.00000,0.00000,0.00000,-0.99946,-0.99389,-0.99365,-0.05159,0.04439,-1.31565,"[1.000, 0.000, 0.000, 0.000, 1.000, 0.000]",1.000,1.000,0.000,0.000,0.000,0.000,0.000,0.000,1.000,1.000,0.000,0.000
0.5500,0.99945,0.99377,0.99353,0.05209,-0.04478,1.31301,-0.00351,-0.02430,-0.02582,0.07706,-0.10420,-0.52169,0.00000,0.00000,0.00000,0.00000,0.00000,0.00000,-0.99945,-0.99377,-0.99353,-0.05209,0.04478,-1.31301,"[1.000, 0.000, 0.000, 0.000, 1.000, 0.000]",1.000,1.000,0.000,0.000,0.000,0.000,0.000,0.000,1.000,1.000,0.000,0.000
0.5550,0.99943,0.99365,0.99340,0.05259,-0.04516,1.31038,-0.00358,-0.02453,-0.02608,0.07679,-0.10419,-0.52078,0.00000,0.00000,0.00000,0.00000,0.00000,0.00000,-0.99943,-0.99365,-0.99340,-0.05259,0.04516,-1.31038,"[1.000, 0.000, 0.000, 0.000, 1.000, 0.000]",1.000,1.000,0.000,0.000,0.000,0.000,0.000,0.000,1.000,1.000,0.000,0.000
0.5600,0.99941,0.99352,0.99326,0.05309,-0.04554,1.30775,-0.00366,-0.02475,-0.02634,0.07653,-0.10418,-0.51986,0.00000,0.00000,0.00000,0.00000,0.00000,0.00000,-0.99941,-0.99352,-0.99326,-0.05309,0.04554,-1.30775,"[1.000, 0.000, 0.000, 0.000, 1.000, 0.000]",1.000,1.000,0.000,0.000,0.000,0.000,0.000,0.000,1.000,1.000,0.000,0.000
0.5650,0.99939,0.99340,0.99313,0.05360,-0.04592,1.30513,-0.00373,-0.02498,-0.02660,0.07626,-0.10417,-0.51895,0.00000,0.00000,0.00000,0.00000,0.00000,0.00000,-0.99939,-0.99340,-0.99313,-0.05360,0.04592,-1.30513,"[1.000, 0.000, 0.000, 0.000, 1.000, 0.000]",1.000,1.000,0.000,0.000,0.000,0.000,0.000,0.000,1.000,1.000,0.000,0.000
0.5700,0.99937,0.99327,0.99300,0.05410,-0.04630,1.30251,-0.00381,-0.02521,-0.02686,0.07599,-0.10417,-0.51803,0.00000,0.00000,0.00000,0.00000,0.00000,0.00000,-0.99937,-0.99327,-0.99300,-0.05410,0.04630,-1.30251,"[1.000, 0.000, 0.000, 0.000, 1.000, 0.000]",1.000,1.000,0.000,0.000,0.000,0.000,0.000,0.000,1.000,1.000,0.000,0.000
0.5750,0.99936,0.99315,0.99286,0.05460,-0.04668,1.29989,-0.00388,-0.02543,-0.02712,0.07572,-0.10416,-0.51712,0.00000,0.00000,0.00000,0.00000,0.00000,0.00000,-0.99936,-0.99315,-0.99286,-0.05460,0.04668,-1.29989,"[1.000, 0.000, 0.000, 0.000, 1.000, 0.000]",1.000,1.000,0.000,0.000,0.000,0.000,0.000,0.000,1.000,1.000,0.000,0.000
0.5800,0.99934,0.99302,0.99273,0.05510,-0.04706,1.29728,-0.00396,-0.02566,-0.02738,0.07545,-0.10415,-0.51620,0.00000,0.00000,0.00000,0.00000,0.00000,0.00000,-0.99934,-0.99302,-0.99273,-0.05510,0.04706,-1.29728,"[1.000, 0.000, 0.000, 0.000, 1.000, 0.000]",1.000,1.000,0.000,0.000,0.000,0.000,0.000,0.000,1.000,1.000,0.000,0.000
0.5850,0.99932,0.99289,0.99259,0.05560,-0.04744,1.29468,-0.00404,-0.02588,-0.02765,0.07519,-0.10414,-0.51529,0.00000,0.00000,0.00000,0.00000,0.00000,0.00000,-0.99932,-0.99289,-0.99259,-0.05560,0.04744,-1.29468,"[1.000, 0.000, 0.000, 0.000, 1.000, 0.000]",1.000,1.000,0.000,0.000,0.000,0.000,0.000,0.000,1.000,1.000,0.000,0.000
0.5900,0.99930,0.99276,0.99245,0.05610,-0.04782,1.29207,-0.00411,-0.02611,-0.02791,0.07492,-0.10413,-0.51438,0.00000,0.00000,0.00000,0.00000,0.00000,0.00000,-0.99930,-0.99276,-0.99245,-0.05610,0.04782,-1.29207,"[1.000, 0.000, 0.000, 0.000, 1.000, 0.000]",1.000,1.000,0.000,0.000,0.000,0.000,0.000,0.000,1.000,1.000,0.000,0.000
0.5950,0.99927,0.99263,0.99231,0.05660,-0.04819,1.28948,-0.00419,-0.02633,-0.02817,0.07465,-0.10412,-0.51346,0.00000,0.00000,0.00000,0.00000,0.00000,0.00000,-0.99927,-0.99263,-0.99231,-0.05660,0.04819,-1.28948,"[1.000, 0.000, 0.000, 0.000, 1.000, 0.000]",1.000,1.000,0.000,0.000,0.000,0.000,0.000,0.000,1.000,1.000,0.000,0.000
0.6000,0.99925,0.99250,0.99217,0.05709,-0.04856,1.28688,-0.00427,-0.02656,-0.02843,0.07436,-0.10407,-0.51256,0.00000,0.00000,0.00000,0.00000,0.00000,0.00000,-0.99925,-0.99250,-0.99217,-0.05709,0.04856,-1.28688,"[1.000, 0.000, 0.000, 0.000, 1.000, 0.000]",1.000,1.000,0.000,0.000,0.000,0.000,0.000,0.000,1.000,1.000,0.000,0.000
0.6050,0.99923,0.99236,0.99203,0.05759,-0.04894,1.28429,-0.00435,-0.02678,-0.02869,0.07406,-0.10402,-0.51166,0.00000,0.00000,0.00000,0.00000,0.00000,0.00000,-0.99923,-0.99236,-0.99203,-0.05759,0.04894,-1.28429,"[1.000, 0.000, 0.000, 0.000, 1.000, 0.000]",1.000,1.000,0.000,0.000,0.000,0.000,0.000,0.000,1.000,1.000,0.000,0.000
0.6100,0.99921,0.99223,0.99188,0.05809,-0.04931,1.28171,-0.00443,-0.02700,-0.02895,0.07377,-0.10396,-0.51077,0.00000,0.00000,0.00000,0.00000,0.00000,0.00000,-0.99921,-0.99223,-0.99188,-0.05809,0.04931,-1.28171,"[1.000, 0.000, 0.000, 0.000, 1.000, 0.000]",1.000,1.000,0.000,0.000,0.000,0.000,0.000,0.000,1.000,1.000,0.000,0.000
0.6150,0.99919,0.99209,0.99174,0.05858,-0.04968,1.27913,-0.00452,-0.02723,-0.02921,0.07347,-0.10391,-0.50987,0.00000,0.00000,0.00000,0.00000,0.00000,0.00000,-0.99919,-0.99209,-0.99174,-0.05858,0.04968,-1.27913,"[1.000, 0.000, 0.000, 0.000, 1.000, 0.000]",1.000,1.000,0.000,0.000,0.000,0.000,0.000,0.000,1.000,1.000,0.000,0.000
0.6200,0.99916,0.99196,0.99159,0.05908,-0.05005,1.27655,-0.00460,-0.02745,-0.02948,0.07318,-0.10385,-0.50897,0.00000,0.00000,0.00000,0.00000,0.00000,0.00000,-0.99916,-0.99196,-0.99159,-0.05908,0.05005,-1.27655,"[1.000, 0.000, 0.000, 0.000, 1.000, 0.000]",1.000,1.000,0.000,0.000,0.000,0.000,0.000,0.000,1.000,1.000,0.000,0.000
0.6250,0.99914,0.99182,0.99144,0.05957,-0.05042,1.27398,-0.00468,-0.02767,-0.02974,0.07288,-0.10380,-0.50807,0.00000,0.00000,0.00000,0.00000,0.00000,0.00000,-0.99914,-0.99182,-0.99144,-0.05957,0.05042,-1.27398,"[1.000, 0.000, 0.000, 0.000, 1.000, 0.000]",1.000,1.000,0.000,0.000,0.000,0.000,0.000,0.000,1.000,1.000,0.000,0.000
0.6300,0.99912,0.99168,0.99129,0.06007,-0.05078,1.27141,-0.00476,-0.02790,-0.03000,0.07259,-0.10374,-0.50717,0.00000,0.00000,0.00000,0.00000,0.00000,0.00000,-0.99912,-0.99168,-0.99129,-0.06007,0.05078,-1.27141,"[1.000, 0.000, 0.000, 0.000, 1.000, 0.000]",1.000,1.000,0.000,0.000,0.000,0.000,0.000,0.000,1.000,1.000,0.000,0.000
0.6350,0.99909,0.99154,0.99114,0.06056,-0.05115,1.26885,-0.00485,-0.02812,-0.03026,0.07229,-0.10369,-0.50627,0.00000,0.00000,0.00000,0.00000,0.00000,0.00000,-0.99909,-0.99154,-0.99114,-0.06056,0.05115,-1.26885,"[1.000, 0.000, 0.000, 0.000, 1.000, 0.000]",1.000,1.000,0.000,0.000,0.000,0.000,0.000,0.000,1.000,1.000,0.000,0.000
0.6400,0.99907,0.99140,0.99099,0.06105,-0.05151,1.26629,-0.00493,-0.02834,-0.03052,0.07200,-0.10363,-0.50537,0.00000,0.00000,0.00000,0.00000,0.00000,0.00000,-0.99907,-0.99140,-0.99099,-0.06105,0.05151,-1.26629,"[1.000, 0.000, 0.000, 0.000, 1.000, 0.000]",1.000,1.000,0.000,0.000,0.000,0.000,0.000,0.000,1.000,1.000,0.000,0.000
0.6450,0.99904,0.99126,0.99084,0.06154,-0.05187,1.26373,-0.00502,-0.02856,-0.03079,0.07170,-0.10358,-0.50448,0.00000,0.00000,0.00000,0.00000,0.00000,0.00000,-0.99904,-0.99126,-0.99084,-0.06154,0.05187,-1.26373,"[1.000, 0.000, 0.000, 0.000, 1.000, 0.000]",1.000,1.000,0.000,0.000,0.000,0.000,0.000,0.000,1.000,1.000,0.000,0.000
0.6500,0.99902,0.99111,0.99068,0.06203,-0.05223,1.26118,-0.00511,-0.02878,-0.03105,0.07142,-0.10353,-0.50359,0.00000,0.00000,0.00000,0.00000,0.00000,0.00000,-0.99902,-0.99111,-0.99068,-0.06203,0.05223,-1.26118,"[1.000, 0.000, 0.000, 0.000, 1.000, 0.000]",1.000,1.000,0.000,0.000,0.000,0.000,0.000,0.000,1.000,1.000,0.000,0.000
0.6550,0.99899,0.99097,0.99053,0.06252,-0.05259,1.25864,-0.00519,-0.02900,-0.03131,0.07114,-0.10348,-0.50270,0.00000,0.00000,0.00000,0.00000,0.00000,0.00000,-0.99899,-0.99097,-0.99053,-0.06252,0.05259,-1.25864,"[1.000, 0.000, 0.000, 0.000, 1.000, 0.000]",1.000,1.000,0.000,0.000,0.000,0.000,0.000,0.000,1.000,1.000,0.000,0.000
0.6600,0.99897,0.99082,0.99037,0.06301,-0.05295,1.25609,-0.00528,-0.02922,-0.03157,0.07086,-0.10343,-0.50181,0.00000,0.00000,0.00000,0.00000,0.00000,0.00000,-0.99897,-0.99082,-0.99037,-0.06301,0.05295,-1.25609,"[1.000, 0.000, 0.000, 0.000, 1.000, 0.000]",1.000,1.000,0.000,0.000,0.000,0.000,0.000,0.000,1.000,1.000,0.000,0.000
0.6650,0.99894,0.99068,0.99021,0.06350,-0.05331,1.25356,-0.00537,-0.02944,-0.03183,0.07057,-0.10338,-0.50092,0.00000,0.00000,0.00000,0.00000,0.00000,0.00000,-0.99894,-0.99068,-0.99021,-0.06350,0.05331,-1.25356,"[1.000, 0.000, 0.000, 0.000, 1.000, 0.000]",1.000,1.000,0.000,0.000,0.000,0.000,0.000,0.000,1.000,1.000,0.000,0.000
0.6700,0.99891,0.99053,0.99005,0.06399,-0.05367,1.25102,-0.00546,-0.02966,-0.03210,0.07029,-0.10333,-0.50003,0.00000,0.00000,0.00000,0.00000,0.00000,0.00000,-0.99891,-0.99053,-0.99005,-0.06399,0.05367,-1.25102,"[1.000, 0.000, 0.000, 0.000, 1.000, 0.000]",1.000,1.000,0.000,0.000,0.000,0.000,0.000,0.000,1.000,1.000,0.000,0.000
0.6750,0.99889,0.99038,0.98989,0.06448,-0.05402,1.24849,-0.00555,-0.02988,-0.03236,0.07001,-0.10328,-0.49914,0.00000,0.00000,0.00000,0.00000,0.00000,0.00000,-0.99889,-0.99038,-0.98989,-0.06448,0.05402,-1.24849,"[1.000, 0.000, 0.000, 0.000, 1.000, 0.000]",1.000,1.000,0.000,0.000,0.000,0.000,0.000,0.000,1.000,1.000,0.000,0.000
0.6800,0.99886,0.99023,0.98973,0.06496,-0.05438,1.24597,-0.00564,-0.03010,-0.03262,0.06973,-0.10323,-0.49825,0.00000,0.00000,0.00000,0.00000,0.00000,0.00000,-0.99886,-0.99023,-0.98973,-0.06496,0.05438,-1.24597,"[1.000, 0.000, 0.000, 0.000, 1.000, 0.000]",1.000,1.000,0.000,0.000,0.000,0.000,0.000,0.000,1.000,1.000,0.000,0.000
0.6850,0.99883,0.99008,0.98956,0.06545,-0.05473,1.24345,-0.00573,-0.03032,-0.03288,0.06945,-0.10318,-0.49736,0.00000,0.00000,0.00000,0.00000,0.00000,0.00000,-0.99883,-0.99008,-0.98956,-0.06545,0.05473,-1.24345,"[1.000, 0.000, 0.000, 0.000, 1.000, 0.000]",1.000,1.000,0.000,0.000,0.000,0.000,0.000,0.000,1.000,1.000,0.000,0.000
0.6900,0.99880,0.98993,0.98940,0.06593,-0.05508,1.24093,-0.00582,-0.03054,-0.03315,0.06916,-0.10313,-0.49647,0.00000,0.00000,0.00000,0.00000,0.00000,0.00000,-0.99880,-0.98993,-0.98940,-0.06593,0.05508,-1.24093,"[1.000, 0.000, 0.000, 0.000, 1.000, 0.000]",1.000,1.000,0.000,0.000,0.000,0.000,0.000,0.000,1.000,1.000,0.000,0.000
0.6950,0.99877,0.98977,0.98923,0.06642,-0.05543,1.23842,-0.00591,-0.03076,-0.03341,0.06888,-0.10308,-0.49558,0.00000,0.00000,0.00000,0.00000,0.00000,0.00000,-0.99877,-0.98977,-0.98923,-0.06642,0.05543,-1.23842,"[1.000, 0.000, 0.000, 0.000, 1.000, 0.000]",1.000,1.000,0.000,0.000,0.000,0.000,0.000,0.000,1.000,1.000,0.000,0.000
0.7000,0.99874,0.98962,0.98906,0.06690,-0.05578,1.23591,-0.00600,-0.03097,-0.03367,0.06860,-0.10302,-0.49470,0.00000,0.00000,0.00000,0.00000,0.00000,0.00000,-0.99874,-0.98962,-0.98906,-0.06690,0.05578,-1.23591,"[1.000, 0.000, 0.000, 0.000, 1.000, 0.000]",1.000,1.000,0.000,0.000,0.000,0.000,0.000,0.000,1.000,1.000,0.000,0.000
0.7050,0.99871,0.98946,0.98890,0.06738,-0.05613,1.23340,-0.00610,-0.03119,-0.03394,0.06832,-0.10296,-0.49382,0.00000,0.00000,0.00000,0.00000,0.00000,0.00000,-0.99871,-0.98946,-0.98890,-0.06738,0.05613,-1.23340,"[1.000, 0.000, 0.000, 0.000, 1.000, 0.000]",1.000,1.000,0.000,0.000,0.000,0.000,0.000,0.000,1.000,1.000,0.000,0.000
0.7100,0.99868,0.98931,0.98873,0.06786,-0.05647,1.23090,-0.00619,-0.03141,-0.03420,0.06804,-0.10290,-0.49294,0.00000,0.00000,0.00000,0.00000,0.00000,0.00000,-0.99868,-0.98931,-0.98873,-0.06786,0.05647,-1.23090,"[1.000, 0.000, 0.000, 0.000, 1.000, 0.000]",1.000,1.000,0.000,0.000,0.000,0.000,0.000,0.000,1.000,1.000,0.000,0.000
0.7150,0.99865,0.98915,0.98855,0.06834,-0.05682,1.22841,-0.00628,-0.03162,-0.03446,0.06776,-0.10284,-0.49206,0.00000,0.00000,0.00000,0.00000,0.00000,0.00000,-0.99865,-0.98915,-0.98855,-0.06834,0.05682,-1.22841,"[1.000, 0.000, 0.000, 0.000, 1.000, 0.000]",1.000,1.000,0.000,0.000,0.000,0.000,0.000,0.000,1.000,1.000,0.000,0.000
0.7200,0.99862,0.98899,0.98838,0.06882,-0.05716,1.22592,-0.00638,-0.03184,-0.03473,0.06748,-0.10278,-0.49118,0.00000,0.00000,0.00000,0.00000,0.00000,0.00000,-0.99862,-0.98899,-0.98838,-0.06882,0.05716,-1.22592,"[1.000, 0.000, 0.000, 0.000, 1.000, 0.000]",1.000,1.000,0.000,0.000,0.000,0.000,0.000,0.000,1.000,1.000,0.000,0.000
0.7250,0.99859,0.98883,0.98821,0.06930,-0.05751,1.22343,-0.00648,-0.03205,-0.03499,0.06720,-0.10272,-0.49030,0.00000,0.00000,0.00000,0.00000,0.00000,0.00000,-0.99859,-0.98883,-0.98821,-0.06930,0.05751,-1.22343,"[1.000, 0.000, 0.000, 0.000, 1.000, 0.000]",1.000,1.000,0.000,0.000,0.000,0.000,0.000,0.000,1.000,1.000,0.000,0.000
0.7300,0.99855,0.98867,0.98803,0.06978,-0.05785,1.22095,-0.00657,-0.03227,-0.03525,0.06692,-0.10267,-0.48942,0.00000,0.00000,0.00000,0.00000,0.00000,0.00000,-0.99855,-0.98867,-0.98803,-0.06978,0.05785,-1.22095,"[1.000, 0.000, 0.000, 0.000, 1.000, 0.000]",1.000,1.000,0.000,0.000,0.000,0.000,0.000,0.000,1.000,1.000,0.000,0.000
0.7350,0.99852,0.98851,0.98785,0.07026,-0.05819,1.21847,-0.00667,-0.03249,-0.03552,0.06664,-0.10261,-0.48854,0.00000,0.00000,0.00000,0.00000,0.00000,0.00000,-0.99852,-0.98851,-0.98785,-0.07026,0.05819,-1.21847,"[1.000, 0.000, 0.000, 0.000, 1.000, 0.000]",1.000,1.000,0.000,0.000,0.000,0.000,0.000,0.000,1.000,1.000,0.000,0.000
0.7400,0.99849,0.98835,0.98768,0.07074,-0.05853,1.21599,-0.00677,-0.03270,-0.03578,0.06636,-0.10255,-0.48766,0.00000,0.00000,0.00000,0.00000,0.00000,0.00000,-0.99849,-0.98835,-0.98768,-0.07074,0.05853,-1.21599,"[1.000, 0.000, 0.000, 0.000, 1.000, 0.000]",1.000,1.000,0.000,0.000,0.000,0.000,0.000,0.000,1.000,1.000,0.000,0.000
0.7450,0.99845,0.98818,0.98750,0.07121,-0.05887,1.21352,-0.00686,-0.03291,-0.03604,0.06608,-0.10249,-0.48678,0.00000,0.00000,0.00000,0.00000,0.00000,0.00000,-0.99845,-0.98818,-0.98750,-0.07121,0.05887,-1.21352,"[1.000, 0.000, 0.000, 0.000, 1.000, 0.000]",1.000,1.000,0.000,0.000,0.000,0.000,0.000,0.000,1.000,1.000,0.000,0.000
0.7500,0.99842,0.98802,0.98732,0.07169,-0.05921,1.21105,-0.00696,-0.03313,-0.03631,0.06581,-0.10243,-0.48591,0.00000,0.00000,0.00000,0.00000,0.00000,0.00000,-0.99842,-0.98802,-0.98732,-0.07169,0.05921,-1.21105,"[1.000, 0.000, 0.000, 0.000, 1.000, 0.000]",1.000,1.000,0.000,0.000,0.000,0.000,0.000,0.000,1.000,1.000,0.000,0.000
0.7550,0.99838,0.98785,0.98713,0.07216,-0.05954,1.20859,-0.00706,-0.03334,-0.03657,0.06553,-0.10236,-0.48504,0.00000,0.00000,0.00000,0.00000,0.00000,0.00000,-0.99838,-0.98785,-0.98713,-0.07216,0.05954,-1.20859,"[1.000, 0.000, 0.000, 0.000, 1.000, 0.000]",1.000,1.000,0.000,0.000,0.000,0.000,0.000,0.000,1.000,1.000,0.000,0.000
0.7600,0.99835,0.98768,0.98695,0.07263,-0.05988,1.20613,-0.00716,-0.03355,-0.03683,0.06526,-0.10230,-0.48417,0.00000,0.00000,0.00000,0.00000,0.00000,0.00000,-0.99835,-0.98768,-0.98695,-0.07263,0.05988,-1.20613,"[1.000, 0.000, 0.000, 0.000, 1.000, 0.000]",1.000,1.000,0.000,0.000,0.000,0.000,0.000,0.000,1.000,1.000,0.000,0.000
0.7650,0.99831,0.98751,0.98676,0.07311,-0.06021,1.20368,-0.00726,-0.03377,-0.03710,0.06499,-0.10224,-0.48330,0.00000,0.00000,0.00000,0.00000,0.00000,0.00000,-0.99831,-0.98751,-0.98676,-0.07311,0.06021,-1.20368,"[1.000, 0.000, 0.000, 0.000, 1.000, 0.000]",1.000,1.000,0.000,0.000,0.000,0.000,0.000,0.000,1.000,1.000,0.000,0.000
0.7700,0.99827,0.98735,0.98658,0.07358,-0.06054,1.20123,-0.00737,-0.03398,-0.03736,0.06471,-0.10218,-0.48242,0.00000,0.00000,0.00000,0.00000,0.00000,0.00000,-0.99827,-0.98735,-0.98658,-0.07358,0.06054,-1.20123,"[1.000, 0.000, 0.000, 0.000, 1.000, 0.000]",1.000,1.000,0.000,0.000,0.000,0.000,0.000,0.000,1.000,1.000,0.000,0.000
0.7750,0.99824,0.98718,0.98639,0.07405,-0.06087,1.19879,-0.00747,-0.03419,-0.03763,0.06444,-0.10211,-0.48155,0.00000,0.00000,0.00000,0.00000,0.00000,0.00000,-0.99824,-0.98718,-0.98639,-0.07405,0.06087,-1.19879,"[1.000, 0.000, 0.000, 0.000, 1.000, 0.000]",1.000,1.000,0.000,0.000,0.000,0.000,0.000,0.000,1.000,1.000,0.000,0.000
0.7800,0.99820,0.98700,0.98620,0.07452,-0.06121,1.19634,-0.00757,-0.03440,-0.03789,0.06416,-0.10205,-0.48068,0.00000,0.00000,0.00000,0.00000,0.00000,0.00000,-0.99820,-0.98700,-0.98620,-0.07452,0.06121,-1.19634,"[1.000, 0.000, 0.000, 0.000, 1.000, 0.000]",1.000,1.000,0.000,0.000,0.000,0.000,0.000,0.000,1.000,1.000,0.000,0.000
0.7850,0.99816,0.98683,0.98601,0.07499,-0.06153,1.19391,-0.00767,-0.03461,-0.03815,0.06389,-0.10199,-0.47981,0.00000,0.00000,0.00000,0.00000,0.00000,0.00000,-0.99816,-0.98683,-0.98601,-0.07499,0.06153,-1.19391,"[1.000, 0.000, 0.000, 0.000, 1.000, 0.000]",1.000,1.000,0.000,0.000,0.000,0.000,0.000,0.000,1.000,1.000,0.000,0.000
0.7900,0.99812,0.98666,0.98582,0.07546,-0.06186,1.19147,-0.00778,-0.03483,-0.03842,0.06361,-0.10193,-0.47894,0.00000,0.00000,0.00000,0.00000,0.00000,0.00000,-0.99812,-0.98666,-0.98582,-0.07546,0.06186,-1.19147,"[1.000, 0.000, 0.000, 0.000, 1.000, 0.000]",1.000,1.000,0.000,0.000,0.000,0.000,0.000,0.000,1.000,1.000,0.000,0.000
0.7950,0.99808,0.98648,0.98563,0.07593,-0.06219,1.18904,-0.00788,-0.03504,-0.03868,0.06334,-0.10186,-0.47807,0.00000,0.00000,0.00000,0.00000,0.00000,0.00000,-0.99808,-0.98648,-0.98563,-0.07593,0.06219,-1.18904,"[1.000, 0.000, 0.000, 0.000, 1.000, 0.000]",1.000,1.000,0.000,0.000,0.000,0.000,0.000,0.000,1.000,1.000,0.000,0.000
0.8000,0.99804,0.98631,0.98543,0.07639,-0.06252,1.18662,-0.00798,-0.03525,-0.03895,0.06307,-0.10180,-0.47720,0.00000,0.00000,0.00000,0.00000,0.00000,0.00000,-0.99804,-0.98631,-0.98543,-0.07639,0.06252,-1.18662,"[1.000, 0.000, 0.000, 0.000, 1.000, 0.000]",1.000,1.000,0.000,0.000,0.000,0.000,0.000,0.000,1.000,1.000,0.000,0.000
0.8050,0.99800,0.98613,0.98524,0.07686,-0.06284,1.18420,-0.00809,-0.03546,-0.03921,0.06280,-0.10173,-0.47634,0.00000,0.00000,0.00000,0.00000,0.00000,0.00000,-0.99800,-0.98613,-0.98524,-0.07686,0.06284,-1.18420,"[1.000, 0.000, 0.000, 0.000, 1.000, 0.000]",1.000,1.000,0.000,0.000,0.000,0.000,0.000,0.000,1.000,1.000,0.000,0.000
0.8100,0.99796,0.98595,0.98504,0.07733,-0.06316,1.18178,-0.00820,-0.03566,-0.03948,0.06253,-0.10166,-0.47548,0.00000,0.00000,0.00000,0.00000,0.00000,0.00000,-0.99796,-0.98595,-0.98504,-0.07733,0.06316,-1.18178,"[1.000, 0.000, 0.000, 0.000, 1.000, 0.000]",1.000,1.000,0.000,0.000,0.000,0.000,0.000,0.000,1.000,1.000,0.000,0.000
0.8150,0.99792,0.98577,0.98484,0.07779,-0.06349,1.17937,-0.00830,-0.03587,-0.03974,0.06226,-0.10159,-0.47462,0.00000,0.00000,0.00000,0.00000,0.00000,0.00000,-0.99792,-0.98577,-0.98484,-0.07779,0.06349,-1.17937,"[1.000, 0.000, 0.000, 0.000, 1.000, 0.000]",1.000,1.000,0.000,0.000,0.000,0.000,0.000,0.000,1.000,1.000,0.000,0.000
0.8200,0.99788,0.98559,0.98464,0.07826,-0.06381,1.17696,-0.00841,-0.03608,-0.04000,0.06199,-0.10153,-0.47375,0.00000,0.00000,0.00000,0.00000,0.00000,0.00000,-0.99788,-0.98559,-0.98464,-0.07826,0.06381,-1.17696,"[1.000, 0.000, 0.000, 0.000, 1.000, 0.000]",1.000,1.000,0.000,0.000,0.000,0.000,0.000,0.000,1.000,1.000,0.000,0.000
0.8250,0.99784,0.98541,0.98444,0.07872,-0.06413,1.17456,-0.00852,-0.03629,-0.04027,0.06172,-0.10146,-0.47289,0.00000,0.00000,0.00000,0.00000,0.00000,0.00000,-0.99784,-0.98541,-0.98444,-0.07872,0.06413,-1.17456,"[1.000, 0.000, 0.000, 0.000, 1.000, 0.000]",1.000,1.000,0.000,0.000,0.000,0.000,0.000,0.000,1.000,1.000,0.000,0.000
0.8300,0.99780,0.98523,0.98424,0.07918,-0.06445,1.17216,-0.00863,-0.03650,-0.04053,0.06145,-0.10139,-0.47203,0.00000,0.00000,0.00000,0.00000,0.00000,0.00000,-0.99780,-0.98523,-0.98424,-0.07918,0.06445,-1.17216,"[1.000, 0.000, 0.000, 0.000, 1.000, 0.000]",1.000,1.000,0.000,0.000,0.000,0.000,0.000,0.000,1.000,1.000,0.000,0.000
0.8350,0.99775,0.98505,0.98404,0.07964,-0.06477,1.16976,-0.00873,-0.03671,-0.04080,0.06118,-0.10132,-0.47116,0.00000,0.00000,0.00000,0.00000,0.00000,0.00000,-0.99775,-0.98505,-0.98404,-0.07964,0.06477,-1.16976,"[1.000, 0.000, 0.000, 0.000, 1.000, 0.000]",1.000,1.000,0.000,0.000,0.000,0.000,0.000,0.000,1.000,1.000,0.000,0.000
0.8400,0.99771,0.98486,0.98383,0.08010,-0.06508,1.16737,-0.00884,-0.03691,-0.04106,0.06091,-0.10126,-0.47030,0.00000,0.00000,0.00000,0.00000,0.00000,0.00000,-0.99771,-0.98486,-0.98383,-0.08010,0.06508,-1.16737,"[1.000, 0.000, 0.000, 0.000, 1.000, 0.000]",1.000,1.000,0.000,0.000,0.000,0.000,0.000,0.000,1.000,1.000,0.000,0.000
0.8450,0.99766,0.98468,0.98363,0.08056,-0.06540,1.16498,-0.00895,-0.03712,-0.04133,0.06064,-0.10119,-0.46944,0.00000,0.00000,0.00000,0.00000,0.00000,0.00000,-0.99766,-0.98468,-0.98363,-0.08056,0.06540,-1.16498,"[1.000, 0.000, 0.000, 0.000, 1.000, 0.000]",1.000,1.000,0.000,0.000,0.000,0.000,0.000,0.000,1.000,1.000,0.000,0.000
0.8500,0.99762,0.98449,0.98342,0.08102,-0.06571,1.16260,-0.00906,-0.03733,-0.04159,0.06038,-0.10112,-0.46858,0.00000,0.00000,0.00000,0.00000,0.00000,0.00000,-0.99762,-0.98449,-0.98342,-0.08102,0.06571,-1.16260,"[1.000, 0.000, 0.000, 0.000, 1.000, 0.000]",1.000,1.000,0.000,0.000,0.000,0.000,0.000,0.000,1.000,1.000,0.000,0.000
0.8550,0.99757,0.98431,0.98321,0.08148,-0.06603,1.16022,-0.00918,-0.03753,-0.04186,0.06011,-0.10105,-0.46773,0.00000,0.00000,0.00000,0.00000,0.00000,0.00000,-0.99757,-0.98431,-0.98321,-0.08148,0.06603,-1.16022,"[1.000, 0.000, 0.000, 0.000, 1.000, 0.000]",1.000,1.000,0.000,0.000,0.000,0.000,0.000,0.000,1.000,1.000,0.000,0.000
0.8600,0.99753,0.98412,0.98300,0.08194,-0.06634,1.15785,-0.00929,-0.03774,-0.04212,0.05985,-0.10098,-0.46687,0.00000,0.00000,0.00000,0.00000,0.00000,0.00000,-0.99753,-0.98412,-0.98300,-0.08194,0.06634,-1.15785,"[1.000, 0.000, 0.000, 0.000, 1.000, 0.000]",1.000,1.000,0.000,0.000,0.000,0.000,0.000,0.000,1.000,1.000,0.000,0.000
0.8650,0.99748,0.98393,0.98279,0.08239,-0.06665,1.15547,-0.00940,-0.03794,-0.04239,0.05958,-0.10090,-0.46602,0.00000,0.00000,0.00000,0.00000,0.00000,0.00000,-0.99748,-0.98393,-0.98279,-0.08239,0.06665,-1.15547,"[1.000, 0.000, 0.000, 0.000, 1.000, 0.000]",1.000,1.000,0.000,0.000,0.000,0.000,0.000,0.000,1.000,1.000,0.000,0.000
0.8700,0.99743,0.98374,0.98258,0.08285,-0.06696,1.15311,-0.00951,-0.03815,-0.04265,0.05932,-0.10083,-0.46517,0.00000,0.00000,0.00000,0.00000,0.00000,0.00000,-0.99743,-0.98374,-0.98258,-0.08285,0.06696,-1.15311,"[1.000, 0.000, 0.000, 0.000, 1.000, 0.000]",1.000,1.000,0.000,0.000,0.000,0.000,0.000,0.000,1.000,1.000,0.000,0.000
0.8750,0.99738,0.98355,0.98236,0.08330,-0.06727,1.15075,-0.00963,-0.03835,-0.04292,0.05905,-0.10076,-0.46431,0.00000,0.00000,0.00000,0.00000,0.00000,0.00000,-0.99738,-0.98355,-0.98236,-0.08330,0.06727,-1.15075,"[1.000, 0.000, 0.000, 0.000, 1.000, 0.000]",1.000,1.000,0.000,0.000,0.000,0.000,0.000,0.000,1.000,1.000,0.000,0.000
0.8800,0.99734,0.98335,0.98215,0.08375,-0.06758,1.14839,-0.00974,-0.03856,-0.04319,0.05879,-0.10069,-0.46346,0.00000,0.00000,0.00000,0.00000,0.00000,0.00000,-0.99734,-0.98335,-0.98215,-0.08375,0.06758,-1.14839,"[1.000, 0.000, 0.000, 0.000, 1.000, 0.000]",1.000,1.000,0.000,0.000,0.000,0.000,0.000,0.000,1.000,1.000,0.000,0.000
0.8850,0.99729,0.98316,0.98193,0.08421,-0.06789,1.14603,-0.00985,-0.03876,-0.04345,0.05853,-0.10062,-0.46260,0.00000,0.00000,0.00000,0.00000,0.00000,0.00000,-0.99729,-0.98316,-0.98193,-0.08421,0.06789,-1.14603,"[1.000, 0.000, 0.000, 0.000, 1.000, 0.000]",1.000,1.000,0.000,0.000,0.000,0.000,0.000,0.000,1.000,1.000,0.000,0.000
0.8900,0.99724,0.98297,0.98171,0.08466,-0.06819,1.14368,-0.00997,-0.03896,-0.04372,0.05826,-0.10055,-0.46175,0.00000,0.00000,0.00000,0.00000,0.00000,0.00000,-0.99724,-0.98297,-0.98171,-0.08466,0.06819,-1.14368,"[1.000, 0.000, 0.000, 0.000, 1.000, 0.000]",1.000,1.000,0.000,0.000,0.000,0.000,0.000,0.000,1.000,1.000,0.000,0.000
0.8950,0.99719,0.98277,0.98149,0.08511,-0.06850,1.14133,-0.01008,-0.03917,-0.04398,0.05800,-0.10048,-0.46090,0.00000,0.00000,0.00000,0.00000,0.00000,0.00000,-0.99719,-0.98277,-0.98149,-0.08511,0.06850,-1.14133,"[1.000, 0.000, 0.000, 0.000, 1.000, 0.000]",1.000,1.000,0.000,0.000,0.000,0.000,0.000,0.000,1.000,1.000,0.000,0.000
0.9000,0.99714,0.98258,0.98127,0.08556,-0.06880,1.13899,-0.01020,-0.03937,-0.04425,0.05774,-0.10040,-0.46005,0.00000,0.00000,0.00000,0.00000,0.00000,0.00000,-0.99714,-0.98258,-0.98127,-0.08556,0.06880,-1.13899,"[1.000, 0.000, 0.000, 0.000, 1.000, 0.000]",1.000,1.000,0.000,0.000,0.000,0.000,0.000,0.000,1.000,1.000,0.000,0.000
0.9050,0.99709,0.98238,0.98105,0.08601,-0.06911,1.13665,-0.01032,-0.03957,-0.04451,0.05748,-0.10032,-0.45921,0.00000,0.00000,0.00000,0.00000,0.00000,0.00000,-0.99709,-0.98238,-0.98105,-0.08601,0.06911,-1.13665,"[1.000, 0.000, 0.000, 0.000, 1.000, 0.000]",1.000,1.000,0.000,0.000,0.000,0.000,0.000,0.000,1.000,1.000,0.000,0.000
